timestamp(ms),navlooprate,MP uptime,NAV uptime,MISSIONTIME,accel x,accel y,accel z,mag x,mag y,mag z,accelabs,highaccel x,highaccel y,highaccel z,highaccelabs,accelworld x,accelworld y,accelworld z,gyro x,gyro y,gyro z,altitude,verticalvel,filtered vvel,filtered accel,orientation pitch,orientation yaw,orientation roll,maxrecorded alt,filtered alt,state ,altitudeagl ,battery vol ,baro temp ,pyro cont ,pyros fired ,pyro state,covarience x,covarience y,covarience z,
"1779660678.889",,"18960","18960",,,,,,,,,,,,,,,,,,,,,,,,,,,,,,,,,,,,,,
"1779660678.891",,,,"0","-6.229521",,,,,,,,,,,,,,,,,,,,,,,,,,,,,,,,,,,,
"1779660678.894",,,,,,"7.623374","-1.725327","7.877813","-46.536098",,,,,,,,,,,,,,,,,,,,,,,,,,,,,,,,
"1779660678.895",,,,,,,,,,"75.211922","9.994974",,,,,,,,,,,,,,,,,,,,,,,,,,,,,,
"1779660678.896",,,,,,,,,,,,"3.844207",,,,,,,,,,,,,,,,,,,,,,,,,,,,,
"1779660678.897",,,,,,,,,,,,,"-7.688414","-11.53262","14.383705",,,,,,,,,,,,,,,,,,,,,,,,,,
"1779660678.898",,,,,,,,,,,,,,,,"-0.011909","-0.04118","0.193882",,,,,,,,,,,,,,,,,,,,,,,
"1779660678.899",,,,,,,,,,,,,,,,,,,"-2.3551","1.175152","-0.08075","1970.28418","-1.98105","1.520516",,,,,,,,,,,,,,,,,
"1779660678.9",,,,,,,,,,,,,,,,,,,,,,,,,"0.124176","10.203871","-3.870829","-38.505454","0.83487","0.539873","0",,,,,,,,,,
"1779660678.901",,,,,,,,,,,,,,,,,,,,,,,,,,,,,,,,"0.195435","8.5","24.378593","0",,,,,,
"1779660678.903",,,,,,,,,,,,,,,,,,,,,,,,,,,,,,,,,,,,"0","0","0.000957","0.000224",,
"1779660678.905",,"18938","18938",,,,,,,,,,,,,,,,,,,,,,,,,,,,,,,,,,,,,"0.000335",
"1779660678.906",,,,"0","-6.203971",,,,,,,,,,,,,,,,,,,,,,,,,,,,,,,,,,,,
"1779660678.909",,,,,,"7.555132","-1.71863","7.907045","-46.448406",,,,,,,,,,,,,,,,,,,,,,,,,,,,,,,,
"1779660678.911",,,,,,,,,,"74.729607","9.925874","2.883155",,,,,,,,,,,,,,,,,,,,,,,,,,,,,
"1779660678.913",,,,,,,,,,,,,"-7.207888","-10.571568","13.115803",,,,,,,,,,,,,,,,,,,,,,,,,,
"1779660678.915",,,,,,,,,,,,,,,,"-0.034022","-0.037261","0.124745",,,,,,,,,,,,,,,,,,,,,,,
"1779660678.917",,,,,,,,,,,,,,,,,,,"-0.615412","-0.754193","0.471417","1970.158691",,,,,,,,,,,,,,,,,,,
"1779660678.918",,,,,,,,,,,,,,,,,,,,,,,"-2.016772","1.520064","0.107164",,,,,,,,,,,,,,,,
"1779660678.919",,,,,,,,,,,,,,,,,,,,,,,,,,"10.223121","-3.912057","-38.502753",,,,,,,,,,,,,
"1779660678.92",,,,,,,,,,,,,,,,,,,,,,,,,,,,,"0.83487","0.550059","0",,,,,,,,,,
"1779660678.921",,,,,,,,,,,,,,,,,,,,,,,,,,,,,,,,"0.069946","8.5","24.383078",,,,,,,
"1779660678.922",,,,,,,,,,,,,,,,,,,,,,,,,,,,,,,,,,,"0","0","0","0.000957",,,
"1779660678.924",,"18917","18917",,,,,,,,,,,,,,,,,,,,,,,,,,,,,,,,,,,,"0.000224","0.000335",
"1779660678.925",,,,"0","-6.182495",,,,,,,,,,,,,,,,,,,,,,,,,,,,,,,,,,,,
"1779660678.927",,,,,,"7.542186","-1.746588","8.097048","-46.389942",,,,,,,,,,,,,,,,,,,,,,,,,,,,,,,,
"1779660678.929",,,,,,,,,,"74.890381","9.907491","2.883155","-7.207888","-11.052094","13.50611",,,,,,,,,,,,,,,,,,,,,,,,,,
"1779660678.93",,,,,,,,,,,,,,,,"-0.022311","-0.009143","0.106461",,,,,,,,,,,,,,,,,,,,,,,
"1779660678.931",,,,,,,,,,,,,,,,,,,"-0.741113","1.245905","0.887775","1970.363159","-1.088433","1.519843","0.128157",,,,,,,,,,,,,,,,
"1779660678.932",,,,,,,,,,,,,,,,,,,,,,,,,,"10.239495","-3.908501","-38.509734","0.83487","0.574771","0",,,,,,,,,,
"1779660678.934",,,,,,,,,,,,,,,,,,,,,,,,,,,,,,,,"0.274414","8.5","24.378593",,,,,,,
"1779660678.936",,,,,,,,,,,,,,,,,,,,,,,,,,,,,,,,,,,"0","0","0","0.000957",,,
"1779660678.938",,"18895",,,,,,,,,,,,,,,,,,,,,,,,,,,,,,,,,,,,,"0.000223","0.000335",
"1779660678.939",,,"18895","0",,,,,,,,,,,,,,,,,,,,,,,,,,,,,,,,,,,,,
"1779660678.942",,,,,"-6.167891","7.586185","-1.729164","7.936276",,,,,,,,,,,,,,,,,,,,,,,,,,,,,,,,,
"1779660678.945",,,,,,,,,"-46.141479","75.255775","9.928901","3.844207",,,,,,,,,,,,,,,,,,,,,,,,,,,,,
"1779660678.946",,,,,,,,,,,,,"-7.207888","-11.052094","13.743375",,,,,,,,,,,,,,,,,,,,,,,,,,
"1779660678.948",,,,,,,,,,,,,,,,"0.018609","-0.032963","0.127829",,,,,,,,,,,,,,,,,,,,,,,
"1779660678.949",,,,,,,,,,,,,,,,,,,"0.378018","-0.632286","-1.142437","1970.271606",,,,,,,,,,,,,,,,,,,
"1779660678.95",,,,,,,,,,,,,,,,,,,,,,,"-1.731421","1.518718","0.137966",,,,,,,,,,,,,,,,
"1779660678.951",,,,,,,,,,,,,,,,,,,,,,,,,,"10.236127","-3.93312","-38.52518",,,,,,,,,,,,,
"1779660678.952",,,,,,,,,,,,,,,,,,,,,,,,,,,,,"0.83487","0.580523","0",,,,,,,,,,
"1779660678.954",,,,,,,,,,,,,,,,,,,,,,,,,,,,,,,,"0.182861","8.5","24.369623",,,,,,,
"1779660678.955",,,,,,,,,,,,,,,,,,,,,,,,,,,,,,,,,,,"0","0","0","0.000958",,,
"1779660678.956",,"18873",,,,,,,,,,,,,,,,,,,,,,,,,,,,,,,,,,,,,"0.000223","0.000335",
"1779660678.957",,,"18874","0",,,,,,,,,,,,,,,,,,,,,,,,,,,,,,,,,,,,,
"1779660678.958",,,,,"-6.182898","7.578654","-1.761589","7.833967",,,,,,,,,,,,,,,,,,,,,,,,,,,,,,,,,
"1779660678.959",,,,,,,,,"-46.375328","74.817307","9.938179","2.883155","-6.727362","-11.53262","13.659111",,,,,,,,,,,,,,,,,,,,,,,,,,
"1779660678.96",,,,,,,,,,,,,,,,"0.004283","-0.006965","0.137176",,,,,,,,,,,,,,,,,,,,,,,
"1779660678.961",,,,,,,,,,,,,,,,,,,"-1.70227","-1.936716","-0.219147","1970.244873","-1.603047","1.517401","0.16158",,,,,,,,,,,,,,,,
"1779660678.962",,,,,,,,,,,,,,,,,,,,,,,,,,"10.272571","-3.923652","-38.525969",,,,,,,,,,,,,
"1779660678.964",,,,,,,,,,,,,,,,,,,,,,,,,,,,,"0.83487","0.594706","0",,,,,,,,,,
"1779660678.966",,,,,,,,,,,,,,,,,,,,,,,,,,,,,,,,"0.156128","8.5","24.374109",,,,,,,
"1779660678.968",,,,,,,,,,,,,,,,,,,,,,,,,,,,,,,,,,,"0","0","0","0.000957",,,
"1779660678.969",,"18851",,,,,,,,,,,,,,,,,,,,,,,,,,,,,,,,,,,,,"0.000223","0.000335",
"1779660678.97",,,"18851","0",,,,,,,,,,,,,,,,,,,,,,,,,,,,,,,,,,,,,
"1779660678.972",,,,,"-6.21281","7.597127","-1.712127","7.980123",,,,,,,,,,,,,,,,,,,,,,,,,,,,,,,,,
"1779660678.975",,,,,,,,,"-46.170712","74.890381","9.962265","3.844207",,,,,,,,,,,,,,,,,,,,,,,,,,,,,
"1779660678.976",,,,,,,,,,,,,"-8.16894","-11.53262","14.646189",,,,,,,,,,,,,,,,,,,,,,,,,,
"1779660678.977",,,,,,,,,,,,,,,,"-0.01236","-0.068162","0.161024",,,,,,,,,,,,,,,,,,,,,,,
"1779660678.979",,,,,,,,,,,,,,,,,,,"-1.800416","1.804623","-0.616553","1970.416138",,,,,,,,,,,,,,,,,,,
"1779660678.98",,,,,,,,,,,,,,,,,,,,,,,"-1.694478","1.51614","0.17817",,,,,,,,,,,,,,,,
"1779660678.981",,,,,,,,,,,,,,,,,,,,,,,,,,"10.316411","-3.91581","-38.519197",,,,,,,,,,,,,
"1779660678.983",,,,,,,,,,,,,,,,,,,,,,,,,,,,,"0.83487","0.614992","0",,,,,,,,,,
"1779660678.984",,,,,,,,,,,,,,,,,,,,,,,,,,,,,,,,"0.327393","8.5","24.369623",,,,,,,
"1779660678.985",,,,,,,,,,,,,,,,,,,,,,,,,,,,,,,,,,,"0","0","0","0.000958",,,
"1779660678.987",,"18830","18830","0",,,,,,,,,,,,,,,,,,,,,,,,,,,,,,,,,,,"0.000223","0.000335",
"1779660678.988",,,,,"-6.218661","7.61178","-1.728264","8.111663","-46.448406","75.197311","9.979872","3.363681",,,,,,,,,,,,,,,,,,,,,,,,,,,,,
"1779660678.989",,,,,,,,,,,,,"-7.207888","-11.052094","13.616783","-0.007278","-0.056057","0.178711",,,,,,,,,,,,,,,,,,,,,,,
"1779660678.99",,,,,,,,,,,,,,,,,,,"-2.412409","5.103925","3.128902","1970.451294",,,,,,,,,,,,,,,,,,,
"1779660678.992",,,,,,,,,,,,,,,,,,,,,,,"-1.83222","1.514516","0.161986",,,,,,,,,,,,,,,,
"1779660678.994",,,,,,,,,,,,,,,,,,,,,,,,,,"10.321345","-3.959551","-38.508214",,,,,,,,,,,,,
"1779660678.996",,,,,,,,,,,,,,,,,,,,,,,,,,,,,"0.83487","0.61927","0",,,,,,,,,,
"1779660678.998",,,,,,,,,,,,,,,,,,,,,,,,,,,,,,,,"0.362549","8.5","24.369623",,,,,,,
"1779660679",,,,,,,,,,,,,,,,,,,,,,,,,,,,,,,,,,,"0","0","0","0.000958",,,
"1779660679.001",,"18808",,,,,,,,,,,,,,,,,,,,,,,,,,,,,,,,,,,,,"0.000223","0.000335",
"1779660679.002",,,"18808","0",,,,,,,,,,,,,,,,,,,,,,,,,,,,,,,,,,,,,
"1779660679.005",,,,,"-6.244867","7.566765","-1.741828","7.673195",,,,,,,,,,,,,,,,,,,,,,,,,,,,,,,,,
"1779660679.009",,,,,,,,,"-46.039169","75.095001","9.96435","2.402629",,,,,,,,,,,,,,,,,,,,,,,,,,,,,
"1779660679.01",,,,,,,,,,,,,"-7.688414","-11.052094","13.676005",,,,,,,,,,,,,,,,,,,,,,,,,,
"1779660679.011",,,,,,,,,,,,,,,,"-0.042176","-0.032721","0.163207","0.845625","1.916595","1.086939","1970.327148",,,,,,,,,,,,,,,,,,,
"1779660679.013",,,,,,,,,,,,,,,,,,,,,,,"-2.045406","1.513353","0.125502",,,,,,,,,,,,,,,,
"1779660679.014",,,,,,,,,,,,,,,,,,,,,,,,,,"10.29862","-4.055911","-38.564669",,,,,,,,,,,,,
"1779660679.016",,,,,,,,,,,,,,,,,,,,,,,,,,,,,"0.83487","0.619899","0","0.238403","8.5","24.369623","0","0","0",,,,
"1779660679.017",,"18787","18786","0",,,,,,,,,,,,,,,,,,,,,,,,,,,,,,,,,,"0.000958","0.000222","0.000335",
"1779660679.018",,,,,"-6.184735","7.564204","-1.750171","7.717041","-46.667641","75.051155","9.926291","4.324733",,,,,,,,,,,,,,,,,,,,,,,,,,,,,
"1779660679.019",,,,,,,,,,,,,"-7.207888","-12.493672","15.058181","0.00783","-0.015307",,,,,,,,,,,,,,,,,,,,,,,,
"1779660679.02",,,,,,,,,,,,,,,,,,"0.125275",,,,,,,,,,,,,,,,,,,,,,,
"1779660679.021",,,,,,,,,,,,,,,,,,,"-0.086612","-2.156533","1.116543","1970.411621",,,,,,,,,,,,,,,,,,,
"1779660679.023",,,,,,,,,,,,,,,,,,,,,,,"-1.550502","1.512639","0.13227",,,,,,,,,,,,,,,,
"1779660679.025",,,,,,,,,,,,,,,,,,,,,,,,,,"10.266368","-4.072742","-38.585795",,,,,,,,,,,,,
"1779660679.027",,,,,,,,,,,,,,,,,,,,,,,,,,,,,"0.83487","0.634062","0",,,,,,,,,,
"1779660679.029",,,,,,,,,,,,,,,,,,,,,,,,,,,,,,,,"0.322876","8.5","24.365139",,,,,,,
"1779660679.03",,,,,,,,,,,,,,,,,,,,,,,,,,,,,,,,,,,"0","0","0","0.000958",,,
"1779660679.033",,"18761","18739","0",,,,,,,,,,,,,,,,,,,,,,,,,,,,,,,,,,,"0.000222","0.000335",
"1779660679.035",,,,,"-6.195471","7.55902","-1.781334","7.848582",,,,,,,,,,,,,,,,,,,,,,,,,,,,,,,,,
"1779660679.036",,,,,,,,,"-46.521484","75.606552","9.934575","4.805259",,,,,,,,,,,,,,,,,,,,,,,,,,,,,
"1779660679.038",,,,,,,,,,,,,"-6.727362","-11.53262","14.189758","0.010609","0.100935",,,,,,,,,,,,,,,,,,,,,,,,
"1779660679.039",,,,,,,,,,,,,,,,,,"0.133057",,,,,,,,,,,,,,,,,,,,,,,
"1779660679.041",,,,,,,,,,,,,,,,,,,"0.337941","-1.149847","1.044319","1970.32251",,,,,,,,,,,,,,,,,,,
"1779660679.042",,,,,,,,,,,,,,,,,,,,,,,"-1.338932","1.511581","0.108762",,,,,,,,,,,,,,,,
"1779660679.044",,,,,,,,,,,,,,,,,,,,,,,,,,"9.768945","-4.047402","-38.661917",,,,,,,,,,,,,
"1779660679.045",,,,,,,,,,,,,,,,,,,,,,,,,,,,,"0.83487","0.634624","0",,,,,,,,,,
"1779660679.046",,,,,,,,,,,,,,,,,,,,,,,,,,,,,,,,"0.233765","8.5","24.369623",,,,,,,
"1779660679.047",,,,,,,,,,,,,,,,,,,,,,,,,,,,,,,,,,,"0","0","0","0.000957","0.000222",,
"1779660679.048",,"18739","18739","0",,,,,,,,,,,,,,,,,,,,,,,,,,,,,,,,,,,,"0.000335",
"1779660679.049",,,,,"-6.170921","7.558497","-1.727664","7.79012","-46.433792","75.621162","9.909389",,,,,,,,,,,,,,,,,,,,,,,,,,,,,,
"1779660679.05",,,,,,,,,,,,"2.883155","-8.16894","-10.571568","13.667561","0.02798",,,,,,,,,,,,,,,,,,,,,,,,,
"1779660679.053",,,,,,,,,,,,,,,,,"0.047991","0.108233","-1.380118",,,,,,,,,,,,,,,,,,,,,,
"1779660679.054",,,,,,,,,,,,,,,,,,,,"-0.528686","1.316284","1970.491577","-0.520875",,,,,,,,,,,,,,,,,,
"1779660679.056",,,,,,,,,,,,,,,,,,,,,,,,"1.511089","0.124567",,,,,,,,,,,,,,,,
"1779660679.057",,,,,,,,,,,,,,,,,,,,,,,,,,"9.776721",,,,,,,,,,,,,,,
"1779660679.059",,,,,,,,,,,,,,,,,,,,,,,,,,,"-4.028481","-38.679187","0.83487",,,,,,,,,,,,
"1779660679.061",,,,,,,,,,,,,,,,,,,,,,,,,,,,,,"0.651262","0",,,,,,,,,,
"1779660679.062",,,,,,,,,,,,,,,,,,,,,,,,,,,,,,,,"0.402832","8.5",,,,,,,,
"1779660679.063",,,,,,,,,,,,,,,,,,,,,,,,,,,,,,,,,,"24.365139","0","0","0",,,,
"1779660679.064",,"18718","18718","0",,,,,,,,,,,,,,,,,,,,,,,,,,,,,,,,,,"0.000957","0.000222","0.000335",
"1779660679.066",,,,,"-6.189648","7.560109","-1.743181","7.877813",,,,,,,,,,,,,,,,,,,,,,,,,,,,,,,,,
"1779660679.067",,,,,,,,,"-46.579948","75.095001","9.925002","2.883155",,,,,,,,,,,,,,,,,,,,,,,,,,,,,
"1779660679.068",,,,,,,,,,,,,"-7.207888","-10.571568","13.115803",,,,,,,,,,,,,,,,,,,,,,,,,,
"1779660679.069",,,,,,,,,,,,,,,,"0.019275",,,,,,,,,,,,,,,,,,,,,,,,,
"1779660679.07",,,,,,,,,,,,,,,,,"0.057542","0.123817",,,,,,,,,,,,,,,,,,,,,,,
"1779660679.071",,,,,,,,,,,,,,,,,,,"-0.327803",,,,,,,,,,,,,,,,,,,,,,
"1779660679.072",,,,,,,,,,,,,,,,,,,,"-2.218029","1.197411","1970.524048",,,,,,,,,,,,,,,,,,,
"1779660679.073",,,,,,,,,,,,,,,,,,,,,,,"0.271363","1.509592","0.146997",,,,,,,,,,,,,,,,
"1779660679.074",,,,,,,,,,,,,,,,,,,,,,,,,,"9.800907","-4.036194","-38.700046",,,,,,,,,,,,,
"1779660679.075",,,,,,,,,,,,,,,,,,,,,,,,,,,,,"0.83487","0.65167","0","0.435303","8.5","24.360655",,,,,,,
"1779660679.076",,"18696","18696",,,,,,,,,,,,,,,,,,,,,,,,,,,,,,,,"0","0","0","0.000957","0.000222","0.000335",
"1779660679.077",,,,"0","-6.218552","7.575535","-1.701047","7.760888",,,,,,,,,,,,,,,,,,,,,,,,,,,,,,,,,
"1779660679.079",,,,,,,,,"-46.682255","75.489624","9.947496",,,,,,,,,,,,,,,,,,,,,,,,,,,,,,
"1779660679.08",,,,,,,,,,,,"2.883155",,,,,,,,,,,,,,,,,,,,,,,,,,,,,
"1779660679.081",,,,,,,,,,,,,"-8.649466","-11.052094","14.327409",,,,,,,,,,,,,,,,,,,,,,,,,,
"1779660679.083",,,,,,,,,,,,,,,,"0.005811","0.00678","0.146492",,,,,,,,,,,,,,,,,,,,,,,
"1779660679.086",,,,,,,,,,,,,,,,,,,"0.787262","0.866912","0.345426","1970.5354",,,,,,,,,,,,,,,,,,,
"1779660679.087",,,,,,,,,,,,,,,,,,,,,,,"1.102581","1.507708","0.162087",,,,,,,,,,,,,,,,
"1779660679.09",,,,,,,,,,,,,,,,,,,,,,,,,,"9.82909","-4.010085","-38.71856",,,,,,,,,,,,,
"1779660679.091",,,,,,,,,,,,,,,,,,,,,,,,,,,,,"0.83487","0.648755","0",,,,,,,,,,
"1779660679.092",,,,,,,,,,,,,,,,,,,,,,,,,,,,,,,,"0.446655",,,,,,,,,
"1779660679.093",,,,,,,,,,,,,,,,,,,,,,,,,,,,,,,,,"8.5","24.369623","0","0","0",,,,
"1779660679.094",,"18675",,,,,,,,,,,,,,,,,,,,,,,,,,,,,,,,,,,,"0.000957","0.000221","0.000335",
"1779660679.095",,,"18675","0",,,,,,,,,,,,,,,,,,,,,,,,,,,,,,,,,,,,,
"1779660679.096",,,,,"-6.231096","7.583381","-1.711443","7.731658",,,,,,,,,,,,,,,,,,,,,,,,,,,,,,,,,
"1779660679.098",,,,,,,,,"-46.156094","75.445778","9.963096",,,,,,,,,,,,,,,,,,,,,,,,,,,,,,
"1779660679.099",,,,,,,,,,,,"3.844207",,,,,,,,,,,,,,,,,,,,,,,,,,,,,
"1779660679.1",,,,,,,,,,,,,"-6.727362","-11.53262","13.893764",,,,,,,,,,,,,,,,,,,,,,,,,,
"1779660679.102",,,,,,,,,,,,,,,,"0.003021","0.018333","0.162078",,,,,,,,,,,,,,,,,,,,,,,
"1779660679.103",,,,,,,,,,,,,,,,,,,"0.972139","3.687256","0.809613","1970.53479","1.857241","1.505736","0.162346",,,,,,,,,,,,,,,,
"1779660679.104",,,,,,,,,,,,,,,,,,,,,,,,,,"9.809117","-4.013253","-38.725909","0.83487","0.644189","0",,,,,,,,,,
"1779660679.105",,,,,,,,,,,,,,,,,,,,,,,,,,,,,,,,"0.446045","8.5","24.360655",,,,,,,
"1779660679.106",,,,,,,,,,,,,,,,,,,,,,,,,,,,,,,,,,,"0","0","0","0.000957",,,
"1779660679.107",,"18654","18653","0",,,,,,,,,,,,,,,,,,,,,,,,,,,,,,,,,,,"0.000221","0.000335",
"1779660679.11",,,,,"-6.239392","7.582718","-1.682407","8.140895",,,,,,,,,,,,,,,,,,,,,,,,,,,,,,,,,
"1779660679.112",,,,,,,,,"-46.930721","74.861153","9.962837","3.844207",,,,,,,,,,,,,,,,,,,,,,,,,,,,,
"1779660679.114",,,,,,,,,,,,,"-6.727362","-10.571568","13.106997",,,,,,,,,,,,,,,,,,,,,,,,,,
"1779660679.115",,,,,,,,,,,,,,,,"-0.014498",,,,,,,,,,,,,,,,,,,,,,,,,
"1779660679.116",,,,,,,,,,,,,,,,,"-0.009747","0.161822",,,,,,,,,,,,,,,,,,,,,,,
"1779660679.117",,,,,,,,,,,,,,,,,,,"-0.747289","1.409989",,,,,,,,,,,,,,,,,,,,,
"1779660679.119",,,,,,,,,,,,,,,,,,,,,"-1.175107","1970.550659","1.74195",,,,,,,,,,,,,,,,,,
"1779660679.12",,,,,,,,,,,,,,,,,,,,,,,,"1.503299","0.178015","9.808548",,,,,,,,,,,,,,,
"1779660679.121",,,,,,,,,,,,,,,,,,,,,,,,,,,"-4.042017","-38.670547","0.83487",,,,,,,,,,,,
"1779660679.122",,,,,,,,,,,,,,,,,,,,,,,,,,,,,,"0.637624","0","0.461914","8.5",,,,,,,,
"1779660679.123",,,,,,,,,,,,,,,,,,,,,,,,,,,,,,,,,,"24.360655","0","0","0",,,,
"1779660679.124",,,,,,,,,,,,,,,,,,,,,,,,,,,,,,,,,,,,,,"0.000957","0.000221","0.000335",
"1779660679.125",,"18631","18631","0",,,,,,,,,,,,,,,,,,,,,,,,,,,,,,,,,,,,,
"1779660679.127",,,,,"-6.233525","7.603971",,,,,,,,,,,,,,,,,,,,,,,,,,,,,,,,,,,
"1779660679.128",,,,,,,"-1.702942","8.228588",,,,,,,,,,,,,,,,,,,,,,,,,,,,,,,,,
"1779660679.129",,,,,,,,,"-46.594563","74.831924","9.978839","2.883155",,,,,,,,,,,,,,,,,,,,,,,,,,,,,
"1779660679.131",,,,,,,,,,,,,"-8.649466","-10.571568","13.960082","0.002154",,,,,,,,,,,,,,,,,,,,,,,,,
"1779660679.132",,,,,,,,,,,,,,,,,"0.008138","0.177835","0.92711","-2.307086","-1.524372","1970.660278",,,,,,,,,,,,,,,,,,,
"1779660679.133",,,,,,,,,,,,,,,,,,,,,,,"1.726988","1.500844","0.183372","9.803388","-4.069162","-38.650569",,,,,,,,,,,,,
"1779660679.134",,,,,,,,,,,,,,,,,,,,,,,,,,,,,"0.83487","0.630216","0","0.571533","8.5","24.360655",,,,,,,
"1779660679.136",,,,,,,,,,,,,,,,,,,,,,,,,,,,,,,,,,,"0","0","0","0.000957",,,
"1779660679.139",,"18609","18609","0",,,,,,,,,,,,,,,,,,,,,,,,,,,,,,,,,,,"0.000221","0.000335",
"1779660679.142",,,,,"-6.227375","7.611128","-1.731168","7.994738",,,,,,,,,,,,,,,,,,,,,,,,,,,,,,,,,
"1779660679.145",,,,,,,,,"-46.536098","75.781937","9.98531","3.844207",,,,,,,,,,,,,,,,,,,,,,,,,,,,,
"1779660679.147",,,,,,,,,,,,,"-8.16894","-11.052094","14.270889",,,,,,,,,,,,,,,,,,,,,,,,,,
"1779660679.149",,,,,,,,,,,,,,,,"0.00733","0.033061","0.184252",,,,,,,,,,,,,,,,,,,,,,,
"1779660679.151",,,,,,,,,,,,,,,,,,,"0.697714","-1.993497","-0.352905","1970.643066",,,,,,,,,,,,,,,,,,,
"1779660679.152",,,,,,,,,,,,,,,,,,,,,,,"1.70278","1.498275","0.157082","9.816156",,,,,,,,,,,,,,,
"1779660679.153",,,,,,,,,,,,,,,,,,,,,,,,,,,"-4.026826","-38.622565","0.83487",,,,,,,,,,,,
"1779660679.154",,,,,,,,,,,,,,,,,,,,,,,,,,,,,,"0.609764","0",,,,,,,,,,
"1779660679.155",,,,,,,,,,,,,,,,,,,,,,,,,,,,,,,,"0.554321","8.5","24.356171",,,,,,,
"1779660679.156",,,,,,,,,,,,,,,,,,,,,,,,,,,,,,,,,,,"0",,,,,,
"1779660679.157",,,,,,,,,,,,,,,,,,,,,,,,,,,,,,,,,,,,"0","0","0.000958",,,
"1779660679.158",,"18587","18587",,,,,,,,,,,,,,,,,,,,,,,,,,,,,,,,,,,,"0.000221","0.000335",
"1779660679.159",,,,"0",,,,,,,,,,,,,,,,,,,,,,,,,,,,,,,,,,,,,
"1779660679.16",,,,,"-6.220283","7.577998","-1.744805","7.658579",,,,,,,,,,,,,,,,,,,,,,,,,,,,,,,,,
"1779660679.161",,,,,,,,,"-46.477638","74.934235","9.958029","3.363681",,,,,,,,,,,,,,,,,,,,,,,,,,,,,
"1779660679.162",,,,,,,,,,,,,"-7.207888","-11.53262","14.009616","-0.009054","0.050652","0.156895",,,,,,,,,,,,,,,,,,,,,,,
"1779660679.163",,,,,,,,,,,,,,,,,,,"-0.636615","-1.176074","1.102364","1970.58313","1.439383","1.495689",,,,,,,,,,,,,,,,,
"1779660679.164",,,,,,,,,,,,,,,,,,,,,,,,,"0.16266","9.82829","-3.992319","-38.615605",,,,,,,,,,,,,
"1779660679.165",,,,,,,,,,,,,,,,,,,,,,,,,,,,,"0.83487","0.589714","0",,,,,,,,,,
"1779660679.167",,,,,,,,,,,,,,,,,,,,,,,,,,,,,,,,"0.494385","8.5","24.351686",,,,,,,
"1779660679.169",,,,,,,,,,,,,,,,,,,,,,,,,,,,,,,,,,,"0","0","0","0.000958",,,
"1779660679.17",,"18566",,,,,,,,,,,,,,,,,,,,,,,,,,,,,,,,,,,,,"0.00022","0.000335",
"1779660679.171",,,"18566","0",,,,,,,,,,,,,,,,,,,,,,,,,,,,,,,,,,,,,
"1779660679.174",,,,,"-6.213404","7.594944","-1.736631","7.746273",,,,,,,,,,,,,,,,,,,,,,,,,,,,,,,,,
"1779660679.177",,,,,,,,,"-46.448406","75.22654","9.965212","3.844207",,,,,,,,,,,,,,,,,,,,,,,,,,,,,
"1779660679.179",,,,,,,,,,,,,"-7.207888","-11.53262","14.132689",,,,,,,,,,,,,,,,,,,,,,,,,,
"1779660679.18",,,,,,,,,,,,,,,,"0.009054","0.036019","0.164143",,,,,,,,,,,,,,,,,,,,,,,
"1779660679.181",,,,,,,,,,,,,,,,,,,"-0.24211","-1.64153","1.054025","1970.375244",,,,,,,,,,,,,,,,,,,
"1779660679.182",,,,,,,,,,,,,,,,,,,,,,,"0.958976","1.493979","0.118372",,,,,,,,,,,,,,,,
"1779660679.183",,,,,,,,,,,,,,,,,,,,,,,,,,"9.849926","-3.98318","-38.633421",,,,,,,,,,,,,
"1779660679.184",,,,,,,,,,,,,,,,,,,,,,,,,,,,,"0.83487","0.573605","0",,,,,,,,,,
"1779660679.186",,,,,,,,,,,,,,,,,,,,,,,,,,,,,,,,"0.286499","8.5","24.351686",,,,,,,
"1779660679.187",,,,,,,,,,,,,,,,,,,,,,,,,,,,,,,,,,,"0","0","0","0.000958",,,
"1779660679.188",,"18540",,,,,,,,,,,,,,,,,,,,,,,,,,,,,,,,,,,,,"0.00022","0.000335",
"1779660679.189",,,"18518",,,,,,,,,,,,,,,,,,,,,,,,,,,,,,,,,,,,,,
"1779660679.19",,,,"0","-6.193826",,,,,,,,,,,,,,,,,,,,,,,,,,,,,,,,,,,,
"1779660679.191",,,,,,"7.55757","-1.699328","7.585502","-46.40456","74.744225","9.918068","4.324733",,,,,,,,,,,,,,,,,,,,,,,,,,,,,
"1779660679.192",,,,,,,,,,,,,"-7.207888","-11.052094","13.885451","0.012722","0.022006","0.117035",,,,,,,,,,,,,,,,,,,,,,,
"1779660679.193",,,,,,,,,,,,,,,,,,,"-2.117294","-2.623374","-0.531302","1970.426514","1.85399","1.491776",,,,,,,,,,,,,,,,,
"1779660679.194",,,,,,,,,,,,,,,,,,,,,,,,,"0.158308",,,,,,,,,,,,,,,,
"1779660679.195",,,,,,,,,,,,,,,,,,,,,,,,,,"9.757218","-3.970093","-38.719646",,,,,,,,,,,,,
"1779660679.197",,,,,,,,,,,,,,,,,,,,,,,,,,,,,"0.83487","0.571834","0",,,,,,,,,,
"1779660679.198",,,,,,,,,,,,,,,,,,,,,,,,,,,,,,,,"0.337769",,,,,,,,,
"1779660679.199",,,,,,,,,,,,,,,,,,,,,,,,,,,,,,,,,"8.5","24.356171",,,,,,,
"1779660679.2",,,,,,,,,,,,,,,,,,,,,,,,,,,,,,,,,,,"0","0","0",,,,
"1779660679.201",,,,,,,,,,,,,,,,,,,,,,,,,,,,,,,,,,,,,,"0.000957",,,
"1779660679.202",,"18518",,,,,,,,,,,,,,,,,,,,,,,,,,,,,,,,,,,,,"0.00022","0.000335",
"1779660679.203",,,"18518","0",,,,,,,,,,,,,,,,,,,,,,,,,,,,,,,,,,,,,
"1779660679.206",,,,,"-6.209014","7.590538","-1.735882","7.921661",,,,,,,,,,,,,,,,,,,,,,,,,,,,,,,,,
"1779660679.208",,,,,,,,,"-46.214558","75.211922","9.958986","3.844207",,,,,,,,,,,,,,,,,,,,,,,,,,,,,
"1779660679.209",,,,,,,,,,,,,"-8.649466","-11.052094","14.551288",,,,,,,,,,,,,,,,,,,,,,,,,,
"1779660679.21",,,,,,,,,,,,,,,,"0.02138","0.041613","0.157876",,,,,,,,,,,,,,,,,,,,,,,
"1779660679.211",,,,,,,,,,,,,,,,,,,"0.633019","-2.079337","1.931907","1970.535156",,,,,,,,,,,,,,,,,,,
"1779660679.212",,,,,,,,,,,,,,,,,,,,,,,"1.009299","1.489762","0.171213",,,,,,,,,,,,,,,,
"1779660679.214",,,,,,,,,,,,,,,,,,,,,,,,,,"9.81432","-3.957589","-38.706508",,,,,,,,,,,,,
"1779660679.216",,,,,,,,,,,,,,,,,,,,,,,,,,,,,"0.83487","0.570815","0",,,,,,,,,,
"1779660679.217",,,,,,,,,,,,,,,,,,,,,,,,,,,,,,,,"0.446411","8.5","24.351686",,,,,,,
"1779660679.218",,,,,,,,,,,,,,,,,,,,,,,,,,,,,,,,,,,"0","0","0","0.000957",,,
"1779660679.219",,"18496","18496",,,,,,,,,,,,,,,,,,,,,,,,,,,,,,,,,,,,"0.00022","0.000335",
"1779660679.22",,,,"0","-6.229474","7.593164","-1.73035","7.439345","-46.009941",,,,,,,,,,,,,,,,,,,,,,,,,,,,,,,,
"1779660679.221",,,,,,,,,,"74.422684","9.972793","3.363681","-8.649466","-11.052094","14.431785",,,,,,,,,,,,,,,,,,,,,,,,,,
"1779660679.222",,,,,,,,,,,,,,,,"0.0112","0.031804","0.171736",,,,,,,,,,,,,,,,,,,,,,,
"1779660679.223",,,,,,,,,,,,,,,,,,,"-0.852268","-2.601565","-1.307943","1970.480957",,,,,,,,,,,,,,,,,,,
"1779660679.226",,,,,,,,,,,,,,,,,,,,,,,"-0.531297","1.487564","0.155592",,,,,,,,,,,,,,,,
"1779660679.227",,,,,,,,,,,,,,,,,,,,,,,,,,"9.828297","-3.92271","-38.738938",,,,,,,,,,,,,
"1779660679.229",,,,,,,,,,,,,,,,,,,,,,,,,,,,,"0.83487","0.558254","0",,,,,,,,,,
"1779660679.231",,,,,,,,,,,,,,,,,,,,,,,,,,,,,,,,"0.392212","8.5",,,,,,,,
"1779660679.232",,,,,,,,,,,,,,,,,,,,,,,,,,,,,,,,,,"24.351686",,,,,,,
"1779660679.233",,,,,,,,,,,,,,,,,,,,,,,,,,,,,,,,,,,"0","0","0","0.000957",,,
"1779660679.235",,"18475","18475","0",,,,,,,,,,,,,,,,,,,,,,,,,,,,,,,,,,,"0.00022","0.000335",
"1779660679.238",,,,,"-6.210518","7.588513","-1.72867","7.717041",,,,,,,,,,,,,,,,,,,,,,,,,,,,,,,,,
"1779660679.239",,,,,,,,,"-45.995323","75.343468","9.957127","3.363681",,,,,,,,,,,,,,,,,,,,,,,,,,,,,
"1779660679.24",,,,,,,,,,,,,"-10.091043","-11.53262","15.689004",,,,,,,,,,,,,,,,,,,,,,,,,,
"1779660679.241",,,,,,,,,,,,,,,,"0.017823","0.025396","0.156078",,,,,,,,,,,,,,,,,,,,,,,
"1779660679.243",,,,,,,,,,,,,,,,,,,"-0.733081","-1.664833","-1.112642","1970.403564",,,,,,,,,,,,,,,,,,,
"1779660679.245",,,,,,,,,,,,,,,,,,,,,,,"-1.510718","1.485784","0.141086",,,,,,,,,,,,,,,,
"1779660679.246",,,,,,,,,,,,,,,,,,,,,,,,,,"9.868051","-3.89682","-38.713598",,,,,,,,,,,,,
"1779660679.247",,,,,,,,,,,,,,,,,,,,,,,,,,,,,"0.83487","0.550106",,,,,,,,,,,
"1779660679.248",,,,,,,,,,,,,,,,,,,,,,,,,,,,,,,"0","0.314819","8.5","24.351686","0",,,,,,
"1779660679.249",,"18453","18453","0",,,,,,,,,,,,,,,,,,,,,,,,,,,,,,,,"0","0","0.000957","0.000219","0.000335",
"1779660679.25",,,,,"-6.211023","7.57636","-1.689552",,,,,,,,,,,,,,,,,,,,,,,,,,,,,,,,,,
"1779660679.251",,,,,,,,"7.512424","-46.24379","75.109619","9.94146","3.363681","-7.688414",,,,,,,,,,,,,,,,,,,,,,,,,,,,
"1779660679.253",,,,,,,,,,,,,,"-11.53262","14.262797","0.003145",,,,,,,,,,,,,,,,,,,,,,,,,
"1779660679.255",,,,,,,,,,,,,,,,,"-0.015559","0.140448","0.404791",,,,,,,,,,,,,,,,,,,,,,
"1779660679.256",,,,,,,,,,,,,,,,,,,,"-1.561693","-0.689507","1970.467041",,,,,,,,,,,,,,,,,,,
"1779660679.258",,,,,,,,,,,,,,,,,,,,,,,"-2.218871",,,,,,,,,,,,,,,,,,
"1779660679.259",,,,,,,,,,,,,,,,,,,,,,,,"1.483969","0.160161",,,,,,,,,,,,,,,,
"1779660679.261",,,,,,,,,,,,,,,,,,,,,,,,,,"9.896067","-3.88225","-38.692421",,,,,,,,,,,,,
"1779660679.262",,,,,,,,,,,,,,,,,,,,,,,,,,,,,"0.83487","0.549278",,,,,,,,,,,
"1779660679.263",,,,,,,,,,,,,,,,,,,,,,,,,,,,,,,"0",,,,,,,,,,
"1779660679.265",,,,,,,,,,,,,,,,,,,,,,,,,,,,,,,,"0.378296","8.5","24.342718",,,,,,,
"1779660679.267",,,,,,,,,,,,,,,,,,,,,,,,,,,,,,,,,,,"0","0","0","0.000957",,,
"1779660679.268",,"18432","18432","0",,,,,,,,,,,,,,,,,,,,,,,,,,,,,,,,,,,"0.000219","0.000335",
"1779660679.269",,,,,"-6.222762","7.589482","-1.706645",,,,,,,,,,,,,,,,,,,,,,,,,,,,,,,,,,
"1779660679.27",,,,,,,,"8.360128","-46.287636","74.875763","9.961709","2.402629",,,,,,,,,,,,,,,,,,,,,,,,,,,,,
"1779660679.271",,,,,,,,,,,,,"-7.688414","-10.571568","13.290689",,,,,,,,,,,,,,,,,,,,,,,,,,
"1779660679.273",,,,,,,,,,,,,,,,"0.002728","-0.036456","0.160642",,,,,,,,,,,,,,,,,,,,,,,
"1779660679.275",,,,,,,,,,,,,,,,,,,"-0.245799","-2.471183","0.094294","1970.139404",,,,,,,,,,,,,,,,,,,
"1779660679.276",,,,,,,,,,,,,,,,,,,,,,,"-2.715613","1.482008","0.145807",,,,,,,,,,,,,,,,
"1779660679.278",,,,,,,,,,,,,,,,,,,,,,,,,,"10.095842","-3.858005","-38.693042","0.83487","0.54048","0",,,,,,,,,,
"1779660679.279",,,,,,,,,,,,,,,,,,,,,,,,,,,,,,,,"0.050659","8.5","24.342718","0","0",,,,,
"1779660679.28",,"18409","18409","0",,,,,,,,,,,,,,,,,,,,,,,,,,,,,,,,,"0","0.000957","0.000219","0.000335",
"1779660679.281",,,,,"-6.204908","7.586296","-1.703286","7.892429",,,,,,,,,,,,,,,,,,,,,,,,,,,,,,,,,
"1779660679.285",,,,,,,,,"-46.126862","74.45192",,,,,,,,,,,,,,,,,,,,,,,,,,,,,,,
"1779660679.286",,,,,,,,,,,"9.94756","3.363681","-7.688414","-12.013146","14.654069",,,,,,,,,,,,,,,,,,,,,,,,,,
"1779660679.287",,,,,,,,,,,,,,,,"0.013427","-0.043424","0.146456",,,,,,,,,,,,,,,,,,,,,,,
"1779660679.289",,,,,,,,,,,,,,,,,,,"0.661836","-1.287196","1.225798","1970.193848",,,,,,,,,,,,,,,,,,,
"1779660679.291",,,,,,,,,,,,,,,,,,,,,,,"-1.713478","1.481762","0.12641",,,,,,,,,,,,,,,,
"1779660679.294",,,,,,,,,,,,,,,,,,,,,,,,,,"10.126264","-3.82698","-38.692649",,,,,,,,,,,,,
"1779660679.295",,,,,,,,,,,,,,,,,,,,,,,,,,,,,"0.83487","0.566421","0",,,,,,,,,,
"1779660679.296",,,,,,,,,,,,,,,,,,,,,,,,,,,,,,,,"0.105103","8.5","24.351686",,,,,,,
"1779660679.297",,,,,,,,,,,,,,,,,,,,,,,,,,,,,,,,,,,"0","0","0","0.000957",,,
"1779660679.298",,"18388",,,,,,,,,,,,,,,,,,,,,,,,,,,,,,,,,,,,,"0.000219","0.000335",
"1779660679.299",,,"18388","0","-6.212433",,,,,,,,,,,,,,,,,,,,,,,,,,,,,,,,,,,,
"1779660679.301",,,,,,"7.545505","-1.735666","7.468577","-46.886875",,,,,,,,,,,,,,,,,,,,,,,,,,,,,,,,
"1779660679.302",,,,,,,,,,"75.358078","9.926807","3.363681",,,,,,,,,,,,,,,,,,,,,,,,,,,,,
"1779660679.304",,,,,,,,,,,,,"-5.76631","-11.53262","13.32539",,,,,,,,,,,,,,,,,,,,,,,,,,
"1779660679.305",,,,,,,,,,,,,,,,"-0.012907","-0.005902",,,,,,,,,,,,,,,,,,,,,,,,
"1779660679.306",,,,,,,,,,,,,,,,,,"0.125798","-1.098017","-1.442259","1.465471","1970.342163",,,,,,,,,,,,,,,,,,,
"1779660679.307",,,,,,,,,,,,,,,,,,,,,,,"-0.396726","1.481129","0.144718","10.131267",,,,,,,,,,,,,,,
"1779660679.308",,,,,,,,,,,,,,,,,,,,,,,,,,,"-3.802431","-38.713529","0.83487","0.589607","0",,,,,,,,,,
"1779660679.309",,,,,,,,,,,,,,,,,,,,,,,,,,,,,,,,"0.253418","8.5","24.351686","0","0","0","0.000957",,,
"1779660679.31",,"18366",,,,,,,,,,,,,,,,,,,,,,,,,,,,,,,,,,,,,"0.000218","0.000335",
"1779660679.311",,,"18366","0",,,,,,,,,,,,,,,,,,,,,,,,,,,,,,,,,,,,,
"1779660679.313",,,,,"-6.210701","7.570432","-1.743039","7.804736",,,,,,,,,,,,,,,,,,,,,,,,,,,,,,,,,
"1779660679.316",,,,,,,,,"-46.594563","75.036537","9.945976","3.363681",,,,,,,,,,,,,,,,,,,,,,,,,,,,,
"1779660679.318",,,,,,,,,,,,,"-7.688414","-10.571568","13.49756",,,,,,,,,,,,,,,,,,,,,,,,,,
"1779660679.32",,,,,,,,,,,,,,,,"0.008197","-0.008503","0.144969",,,,,,,,,,,,,,,,,,,,,,,
"1779660679.322",,,,,,,,,,,,,,,,,,,"2.549442","-3.497267",,,,,,,,,,,,,,,,,,,,,
"1779660679.323",,,,,,,,,,,,,,,,,,,,,"-1.324596","1970.379272","0.900357",,,,,,,,,,,,,,,,,,
"1779660679.324",,,,,,,,,,,,,,,,,,,,,,,,"1.480134","0.137213","10.161466",,,,,,,,,,,,,,,
"1779660679.325",,,,,,,,,,,,,,,,,,,,,,,,,,,"-3.794922",,,,,,,,,,,,,,
"1779660679.326",,,,,,,,,,,,,,,,,,,,,,,,,,,,"-38.736636","0.83487",,,,,,,,,,,,
"1779660679.327",,,,,,,,,,,,,,,,,,,,,,,,,,,,,,"0.599824","0","0.290527","8.5","24.342718","0","0","0",,,,
"1779660679.328",,,,,,,,,,,,,,,,,,,,,,,,,,,,,,,,,,,,,,"0.000957","0.000218","0.000335",
"1779660679.33",,"18344","18344","0",,,,,,,,,,,,,,,,,,,,,,,,,,,,,,,,,,,,,
"1779660679.332",,,,,"-6.221688","7.546259","-1.764265","7.746273",,,,,,,,,,,,,,,,,,,,,,,,,,,,,,,,,
"1779660679.333",,,,,,,,,"-46.068401","74.56884","9.938212","2.883155",,,,,,,,,,,,,,,,,,,,,,,,,,,,,
"1779660679.335",,,,,,,,,,,,,"-8.16894","-11.53262","14.423782","-0.020383","0.01564","0.137179",,,,,,,,,,,,,,,,,,,,,,,
"1779660679.336",,,,,,,,,,,,,,,,,,,"1.775931","0.704473","-0.826342","1970.536377",,,,,,,,,,,,,,,,,,,
"1779660679.337",,,,,,,,,,,,,,,,,,,,,,,"2.00324","1.478965","0.138234",,,,,,,,,,,,,,,,
"1779660679.338",,,,,,,,,,,,,,,,,,,,,,,,,,"10.164963","-3.719052","-38.713164","0.83487","0.606599","0",,,,,,,,,,
"1779660679.339",,,,,,,,,,,,,,,,,,,,,,,,,,,,,,,,"0.447632","8.5","24.342718",,,,,,,
"1779660679.341",,,,,,,,,,,,,,,,,,,,,,,,,,,,,,,,,,,"0","0","0","0.000958",,,
"1779660679.343",,"18319","18297","0",,,,,,,,,,,,,,,,,,,,,,,,,,,,,,,,,,,"0.000218","0.000335",
"1779660679.346",,,,,"-6.208032","7.562891","-1.744512","7.921661",,,,,,,,,,,,,,,,,,,,,,,,,,,,,,,,,
"1779660679.349",,,,,,,,,"-46.112247","74.758842","9.938828","3.363681",,,,,,,,,,,,,,,,,,,,,,,,,,,,,
"1779660679.351",,,,,,,,,,,,,"-8.16894","-11.052094","14.149018",,,,,,,,,,,,,,,,,,,,,,,,,,
"1779660679.353",,,,,,,,,,,,,,,,"-0.036147","0.011147","0.137756",,,,,,,,,,,,,,,,,,,,,,,
"1779660679.354",,,,,,,,,,,,,,,,,,,"-1.656959","3.373666","1.859926","1970.499878",,,,,,,,,,,,,,,,,,,
"1779660679.355",,,,,,,,,,,,,,,,,,,,,,,"2.461175","1.476339","0.152504",,,,,,,,,,,,,,,,
"1779660679.356",,,,,,,,,,,,,,,,,,,,,,,,,,"10.079645","-3.674085","-38.512906",,,,,,,,,,,,,
"1779660679.357",,,,,,,,,,,,,,,,,,,,,,,,,,,,,"0.83487","0.591622","0",,,,,,,,,,
"1779660679.359",,,,,,,,,,,,,,,,,,,,,,,,,,,,,,,,"0.411133","8.5","24.342718",,,,,,,
"1779660679.36",,,,,,,,,,,,,,,,,,,,,,,,,,,,,,,,,,,"0","0","0","0.000957",,,
"1779660679.361",,,,,,,,,,,,,,,,,,,,,,,,,,,,,,,,,,,,,,,"0.000218","0.000335",
"1779660679.362",,"18296","18297","0",,,,,,,,,,,,,,,,,,,,,,,,,,,,,,,,,,,,,
"1779660679.363",,,,,"-6.219494",,,,,,,,,,,,,,,,,,,,,,,,,,,,,,,,,,,,
"1779660679.364",,,,,,"7.571402","-1.749061","8.374743","-46.550716","74.948845","9.953263","3.363681",,,,,,,,,,,,,,,,,,,,,,,,,,,,,
"1779660679.365",,,,,,,,,,,,,"-7.207888","-10.571568","13.229741","-0.031902","0.015531",,,,,,,,,,,,,,,,,,,,,,,,
"1779660679.366",,,,,,,,,,,,,,,,,,"0.1522","-0.56699","1.390108","0.787804","1970.53479",,,,,,,,,,,,,,,,,,,
"1779660679.367",,,,,,,,,,,,,,,,,,,,,,,"1.839804","1.474257","0.161589","10.065634","-3.737819","-38.546097",,,,,,,,,,,,,
"1779660679.37",,,,,,,,,,,,,,,,,,,,,,,,,,,,,"0.83487","0.58511","0",,,,,,,,,,
"1779660679.371",,,,,,,,,,,,,,,,,,,,,,,,,,,,,,,,"0.446045","8.5","24.342718",,,,,,,
"1779660679.373",,,,,,,,,,,,,,,,,,,,,,,,,,,,,,,,,,,"0","0","0","0.000957",,,
"1779660679.374",,,,,,,,,,,,,,,,,,,,,,,,,,,,,,,,,,,,,,,"0.000218","0.000335",
"1779660679.375",,"18275",,,,,,,,,,,,,,,,,,,,,,,,,,,,,,,,,,,,,,,
"1779660679.376",,,"18275","0",,,,,,,,,,,,,,,,,,,,,,,,,,,,,,,,,,,,,
"1779660679.378",,,,,"-6.210773","7.593067","-1.73741","8.097048",,,,,,,,,,,,,,,,,,,,,,,,,,,,,,,,,
"1779660679.381",,,,,,,,,"-46.419178","75.124237","9.962276","3.844207",,,,,,,,,,,,,,,,,,,,,,,,,,,,,
"1779660679.382",,,,,,,,,,,,,"-6.727362","-10.571568","13.106997",,,,,,,,,,,,,,,,,,,,,,,,,,
"1779660679.384",,,,,,,,,,,,,,,,"-0.009229","0.001881","0.161272",,,,,,,,,,,,,,,,,,,,,,,
"1779660679.385",,,,,,,,,,,,,,,,,,,"0.559652","2.184074","1.144848","1970.584717",,,,,,,,,,,,,,,,,,,
"1779660679.386",,,,,,,,,,,,,,,,,,,,,,,"1.55201","1.47187","0.17105",,,,,,,,,,,,,,,,
"1779660679.387",,,,,,,,,,,,,,,,,,,,,,,,,,"10.058333","-3.762634","-38.560147",,,,,,,,,,,,,
"1779660679.388",,,,,,,,,,,,,,,,,,,,,,,,,,,,,"0.83487","0.57445","0",,,,,,,,,,
"1779660679.39",,,,,,,,,,,,,,,,,,,,,,,,,,,,,,,,"0.495972","8.5","24.333748",,,,,,,
"1779660679.392",,,,,,,,,,,,,,,,,,,,,,,,,,,,,,,,,,,"0","0","0","0.000957",,,
"1779660679.393",,"18254","18254","0",,,,,,,,,,,,,,,,,,,,,,,,,,,,,,,,,,,"0.000217","0.000335",
"1779660679.394",,,,,"-6.215223",,,,,,,,,,,,,,,,,,,,,,,,,,,,,,,,,,,,
"1779660679.395",,,,,,"7.598243","-1.755555","7.775504","-46.3461","74.904999","9.972175","2.883155",,,,,,,,,,,,,,,,,,,,,,,,,,,,,
"1779660679.396",,,,,,,,,,,,,"-7.207888","-12.013146","14.303213","-0.003863","0.023679","0.171146",,,,,,,,,,,,,,,,,,,,,,,
"1779660679.397",,,,,,,,,,,,,,,,,,,"-0.925921","0.330165","-0.285527","1970.498535","0.72001","1.469292","0.168177",,,,,,,,,,,,,,,,
"1779660679.399",,,,,,,,,,,,,,,,,,,,,,,,,,"10.027354","-3.785976",,,,,,,,,,,,,,
"1779660679.4",,,,,,,,,,,,,,,,,,,,,,,,,,,,"-38.581853",,,,,,,,,,,,,
"1779660679.402",,,,,,,,,,,,,,,,,,,,,,,,,,,,,"0.83487","0.557491","0",,,,,,,,,,
"1779660679.403",,,,,,,,,,,,,,,,,,,,,,,,,,,,,,,,"0.40979","8.5","24.333748",,,,,,,
"1779660679.405",,,,,,,,,,,,,,,,,,,,,,,,,,,,,,,,,,,"0","0","0","0.000957",,,
"1779660679.407",,"18232","18232","0",,,,,,,,,,,,,,,,,,,,,,,,,,,,,,,,,,,"0.000217","0.000335",
"1779660679.41",,,,,"-6.209945","7.598738","-1.759056","7.746273",,,,,,,,,,,,,,,,,,,,,,,,,,,,,,,,,
"1779660679.412",,,,,,,,,"-46.492256","75.372696","9.96988","3.363681",,,,,,,,,,,,,,,,,,,,,,,,,,,,,
"1779660679.413",,,,,,,,,,,,,"-8.649466","-12.013146","15.180359",,,,,,,,,,,,,,,,,,,,,,,,,,
"1779660679.414",,,,,,,,,,,,,,,,"0.00029","0.025833","0.168847",,,,,,,,,,,,,,,,,,,,,,,
"1779660679.415",,,,,,,,,,,,,,,,,,,"-0.181041","1.214486","2.580251","1970.462646",,,,,,,,,,,,,,,,,,,
"1779660679.416",,,,,,,,,,,,,,,,,,,,,,,"-0.312947","1.4673","0.148173",,,,,,,,,,,,,,,,
"1779660679.418",,,,,,,,,,,,,,,,,,,,,,,,,,"10.036359","-3.800471","-38.576304",,,,,,,,,,,,,
"1779660679.419",,,,,,,,,,,,,,,,,,,,,,,,,,,,,"0.83487","0.547649","0",,,,,,,,,,
"1779660679.421",,,,,,,,,,,,,,,,,,,,,,,,,,,,,,,,"0.373901","8.5","24.329264",,,,,,,
"1779660679.422",,,,,,,,,,,,,,,,,,,,,,,,,,,,,,,,,,,"0","0","0","0.000957",,,
"1779660679.423",,"18211","18210","0",,,,,,,,,,,,,,,,,,,,,,,,,,,,,,,,,,,"0.000217","0.000335",
"1779660679.424",,,,,"-6.209111","7.580275","-1.727151","7.760888",,,,,,,,,,,,,,,,,,,,,,,,,,,,,,,,,
"1779660679.425",,,,,,,,,"-46.316864","75.591934","9.949707","4.324733","-7.688414","-11.052094","14.140856",,,,,,,,,,,,,,,,,,,,,,,,,,
"1779660679.426",,,,,,,,,,,,,,,,"-0.037363","-0.007646","0.148634",,,,,,,,,,,,,,,,,,,,,,,
"1779660679.427",,,,,,,,,,,,,,,,,,,"-0.261662","2.282282","0.511397","1970.201904",,,,,,,,,,,,,,,,,,,
"1779660679.429",,,,,,,,,,,,,,,,,,,,,,,"-1.478071","1.465485","0.134392",,,,,,,,,,,,,,,,
"1779660679.431",,,,,,,,,,,,,,,,,,,,,,,,,,"10.077165","-3.78645","-38.434017",,,,,,,,,,,,,
"1779660679.433",,,,,,,,,,,,,,,,,,,,,,,,,,,,,"0.83487","0.538735","0",,,,,,,,,,
"1779660679.435",,,,,,,,,,,,,,,,,,,,,,,,,,,,,,,,"0.113159","8.5","24.338232",,,,,,,
"1779660679.436",,,,,,,,,,,,,,,,,,,,,,,,,,,,,,,,,,,"0","0",,,,,
"1779660679.437",,,,,,,,,,,,,,,,,,,,,,,,,,,,,,,,,,,,,"0","0.000957",,,
"1779660679.439",,"18188",,,,,,,,,,,,,,,,,,,,,,,,,,,,,,,,,,,,,"0.000217","0.000335",
"1779660679.44",,,"18188","0",,,,,,,,,,,,,,,,,,,,,,,,,,,,,,,,,,,,,
"1779660679.441",,,,,"-6.199627","7.562307","-1.758231","8.447823",,,,,,,,,,,,,,,,,,,,,,,,,,,,,,,,,
"1779660679.442",,,,,,,,,"-46.039169","75.63578","9.935555","3.844207",,,,,,,,,,,,,,,,,,,,,,,,,,,,,
"1779660679.443",,,,,,,,,,,,,"-7.688414","-10.571568","13.625259",,,,,,,,,,,,,,,,,,,,,,,,,,
"1779660679.444",,,,,,,,,,,,,,,,"-0.036269","0.030166","0.134442",,,,,,,,,,,,,,,,,,,,,,,
"1779660679.446",,,,,,,,,,,,,,,,,,,"0.722893","-0.367897","1.021041","1970.335449",,,,,,,,,,,,,,,,,,,
"1779660679.447",,,,,,,,,,,,,,,,,,,,,,,"-1.426559",,,,,,,,,,,,,,,,,,
"1779660679.448",,,,,,,,,,,,,,,,,,,,,,,,"1.464888","0.132889",,,,,,,,,,,,,,,,
"1779660679.449",,,,,,,,,,,,,,,,,,,,,,,,,,"10.056187","-3.820079","-38.444225",,,,,,,,,,,,,
"1779660679.451",,,,,,,,,,,,,,,,,,,,,,,,,,,,,"0.83487","0.558509","0",,,,,,,,,,
"1779660679.452",,,,,,,,,,,,,,,,,,,,,,,,,,,,,,,,"0.246704","8.5","24.333748","0","0","0","0.000957",,,
"1779660679.453",,"18166","18167","0",,,,,,,,,,,,,,,,,,,,,,,,,,,,,,,,,,,"0.000217","0.000335",
"1779660679.454",,,,,"-6.20824","7.556046","-1.744512","7.731658","-46.550716","75.986549","9.93375","5.285784",,,,,,,,,,,,,,,,,,,,,,,,,,,,,
"1779660679.455",,,,,,,,,,,,,"-8.649466","-11.53262","15.354286",,,,,,,,,,,,,,,,,,,,,,,,,,
"1779660679.457",,,,,,,,,,,,,,,,"-0.045111","0.0181","0.132631",,,,,,,,,,,,,,,,,,,,,,,
"1779660679.459",,,,,,,,,,,,,,,,,,,"-0.894494","0.482715","-0.812154","1970.31665",,,,,,,,,,,,,,,,,,,
"1779660679.461",,,,,,,,,,,,,,,,,,,,,,,"-1.870084","1.463703","0.140602",,,,,,,,,,,,,,,,
"1779660679.463",,,,,,,,,,,,,,,,,,,,,,,,,,"10.050333","-3.807307","-38.462294",,,,,,,,,,,,,
"1779660679.465",,,,,,,,,,,,,,,,,,,,,,,,,,,,,"0.83487","0.566154","0",,,,,,,,,,
"1779660679.467",,,,,,,,,,,,,,,,,,,,,,,,,,,,,,,,"0.227905","8.5","24.329264",,,,,,,
"1779660679.469",,,,,,,,,,,,,,,,,,,,,,,,,,,,,,,,,,,"0","0","0","0.000957",,,
"1779660679.47",,"18145","18145","0",,,,,,,,,,,,,,,,,,,,,,,,,,,,,,,,,,,"0.000216","0.000335",
"1779660679.471",,,,,"-6.206779","7.565346","-1.749061","7.717041",,,,,,,,,,,,,,,,,,,,,,,,,,,,,,,,,
"1779660679.472",,,,,,,,,"-46.477638","75.051155","9.940712",,,,,,,,,,,,,,,,,,,,,,,,,,,,,,
"1779660679.473",,,,,,,,,,,,"3.844207","-8.16894","-10.571568","13.90207",,,,,,,,,,,,,,,,,,,,,,,,,,
"1779660679.475",,,,,,,,,,,,,,,,"-0.039868","0.019982","0.139613",,,,,,,,,,,,,,,,,,,,,,,
"1779660679.477",,,,,,,,,,,,,,,,,,,"0.379459","1.096339","1.0527","1970.254883",,,,,,,,,,,,,,,,,,,
"1779660679.479",,,,,,,,,,,,,,,,,,,,,,,"-1.759922","1.462136","0.170159",,,,,,,,,,,,,,,,
"1779660679.48",,,,,,,,,,,,,,,,,,,,,,,,,,"10.057257","-3.823432","-38.447818","0.83487","0.576704","0",,,,,,,,,,
"1779660679.481",,,,,,,,,,,,,,,,,,,,,,,,,,,,,,,,"0.166138","8.5","24.320295","0","0","0",,,,
"1779660679.482",,"18124","18124","0",,,,,,,,,,,,,,,,,,,,,,,,,,,,,,,,,,"0.000957","0.000216","0.000335",
"1779660679.483",,,,,"-6.232076","7.58964","-1.730703","7.775504",,,,,,,,,,,,,,,,,,,,,,,,,,,,,,,,,
"1779660679.484",,,,,,,,,"-46.287636","75.109619","9.971797","3.844207",,,,,,,,,,,,,,,,,,,,,,,,,,,,,
"1779660679.487",,,,,,,,,,,,,"-7.688414","-11.052094","14.001372",,,,,,,,,,,,,,,,,,,,,,,,,,
"1779660679.488",,,,,,,,,,,,,,,,"-0.042179","-0.001098","0.170708",,,,,,,,,,,,,,,,,,,,,,,
"1779660679.491",,,,,,,,,,,,,,,,,,,"-0.216302","-0.219354","1.515125","1970.270752",,,,,,,,,,,,,,,,,,,
"1779660679.493",,,,,,,,,,,,,,,,,,,,,,,"-1.295271","1.461132","0.153776",,,,,,,,,,,,,,,,
"1779660679.495",,,,,,,,,,,,,,,,,,,,,,,,,,"10.040403","-3.834125","-38.467028",,,,,,,,,,,,,
"1779660679.497",,,,,,,,,,,,,,,,,,,,,,,,,,,,,"0.83487","0.595052","0",,,,,,,,,,
"1779660679.499",,,,,,,,,,,,,,,,,,,,,,,,,,,,,,,,"0.182007","8.5","24.32478",,,,,,,
"1779660679.5",,,,,,,,,,,,,,,,,,,,,,,,,,,,,,,,,,,"0","0","0","0.000957",,,
"1779660679.501",,"18098","18076","0",,,,,,,,,,,,,,,,,,,,,,,,,,,,,,,,,,,"0.000216","0.000335",
"1779660679.502",,,,,"-6.192376","7.600228","-1.726496","7.833967",,,,,,,,,,,,,,,,,,,,,,,,,,,,,,,,,
"1779660679.504",,,,,,,,,"-46.229172","74.56884","9.954385","2.883155",,,,,,,,,,,,,,,,,,,,,,,,,,,,,
"1779660679.506",,,,,,,,,,,,,"-7.688414","-10.571568","13.385901",,,,,,,,,,,,,,,,,,,,,,,,,,
"1779660679.507",,,,,,,,,,,,,,,,"0.006023","-0.063741","0.153179",,,,,,,,,,,,,,,,,,,,,,,
"1779660679.509",,,,,,,,,,,,,,,,,,,"0.247446","-0.73118","-0.361532","1970.328369",,,,,,,,,,,,,,,,,,,
"1779660679.51",,,,,,,,,,,,,,,,,,,,,,,"-0.813852","1.459107","0.171603",,,,,,,,,,,,,,,,
"1779660679.511",,,,,,,,,,,,,,,,,,,,,,,,,,"10.375147","-3.838856","-38.530029","0.83487","0.607286","0",,,,,,,,,,
"1779660679.512",,,,,,,,,,,,,,,,,,,,,,,,,,,,,,,,"0.239624","8.5","24.320295","0","0",,,,,
"1779660679.513",,"18076","18076","0",,,,,,,,,,,,,,,,,,,,,,,,,,,,,,,,,"0","0.000957","0.000216","0.000335",
"1779660679.515",,,,,"-6.194125","7.615411","-1.762753","8.067817",,,,,,,,,,,,,,,,,,,,,,,,,,,,,,,,,
"1779660679.517",,,,,,,,,"-46.30225","75.065765","9.973413","3.363681",,,,,,,,,,,,,,,,,,,,,,,,,,,,,
"1779660679.519",,,,,,,,,,,,,"-7.688414","-11.052094","13.877134",,,,,,,,,,,,,,,,,,,,,,,,,,
"1779660679.521",,,,,,,,,,,,,,,,"0.015029","-0.031728","0.172351",,,,,,,,,,,,,,,,,,,,,,,
"1779660679.523",,,,,,,,,,,,,,,,,,,"1.565403",,,,,,,,,,,,,,,,,,,,,,
"1779660679.524",,,,,,,,,,,,,,,,,,,,"-0.557327","0.959672","1970.375732",,,,,,,,,,,,,,,,,,,
"1779660679.526",,,,,,,,,,,,,,,,,,,,,,,"-0.319404","1.457985","0.149269",,,,,,,,,,,,,,,,
"1779660679.527",,,,,,,,,,,,,,,,,,,,,,,,,,"10.379643","-3.826416","-38.523534",,,,,,,,,,,,,
"1779660679.528",,,,,,,,,,,,,,,,,,,,,,,,,,,,,"0.83487","0.621205","0",,,,,,,,,,
"1779660679.529",,,,,,,,,,,,,,,,,,,,,,,,,,,,,,,,"0.286987","8.5","24.32478",,,,,,,
"1779660679.53",,,,,,,,,,,,,,,,,,,,,,,,,,,,,,,,,,,"0","0","0","0.000957",,,
"1779660679.531",,"18054","18054","0",,,,,,,,,,,,,,,,,,,,,,,,,,,,,,,,,,,"0.000215","0.000335",
"1779660679.533",,,,,"-6.210009","7.585571","-1.705953","7.044724",,,,,,,,,,,,,,,,,,,,,,,,,,,,,,,,,
"1779660679.535",,,,,,,,,"-46.638412","75.401932","9.950647","2.883155",,,,,,,,,,,,,,,,,,,,,,,,,,,,,
"1779660679.538",,,,,,,,,,,,,"-8.649466","-11.052094","14.327409",,,,,,,,,,,,,,,,,,,,,,,,,,
"1779660679.539",,,,,,,,,,,,,,,,"-0.017437","-0.080596","0.149306",,,,,,,,,,,,,,,,,,,,,,,
"1779660679.54",,,,,,,,,,,,,,,,,,,"0.261806","2.129995","1.660773","1970.478271","0.212255","1.45675","0.148186",,,,,,,,,,,,,,,,
"1779660679.541",,,,,,,,,,,,,,,,,,,,,,,,,,"10.364495","-3.802107","-38.541074",,,,,,,,,,,,,
"1779660679.542",,,,,,,,,,,,,,,,,,,,,,,,,,,,,"0.83487","0.631465","0","0.389526","8.5","24.315811",,,,,,,
"1779660679.543",,"18033","18033",,,,,,,,,,,,,,,,,,,,,,,,,,,,,,,,"0","0","0","0.000957","0.000215","0.000335",
"1779660679.547",,,,"0","-6.192566",,,,,,,,,,,,,,,,,,,,,,,,,,,,,,,,,,,,
"1779660679.548",,,,,,"7.586668","-1.757964","7.453961","-46.901493",,,,,,,,,,,,,,,,,,,,,,,,,,,,,,,,
"1779660679.549",,,,,,,,,,"75.591934","9.949665","3.363681",,,,,,,,,,,,,,,,,,,,,,,,,,,,,
"1779660679.552",,,,,,,,,,,,,"-7.688414","-11.53262","14.262797",,,,,,,,,,,,,,,,,,,,,,,,,,
"1779660679.553",,,,,,,,,,,,,,,,"0.006288","-0.024433","0.148633",,,,,,,,,,,,,,,,,,,,,,,
"1779660679.556",,,,,,,,,,,,,,,,,,,"0.189071","3.112232","-0.90146",,,,,,,,,,,,,,,,,,,,
"1779660679.557",,,,,,,,,,,,,,,,,,,,,,"1970.467773",,,,,,,,,,,,,,,,,,,
"1779660679.558",,,,,,,,,,,,,,,,,,,,,,,"-0.231574","1.455374","0.13482",,,,,,,,,,,,,,,,
"1779660679.559",,,,,,,,,,,,,,,,,,,,,,,,,,"10.338014","-3.828015","-38.571475","0.83487","0.63196","0",,,,,,,,,,
"1779660679.56",,,,,,,,,,,,,,,,,,,,,,,,,,,,,,,,"0.379028","8.5","24.315811",,,,,,,
"1779660679.561",,,,,,,,,,,,,,,,,,,,,,,,,,,,,,,,,,,"0","0","0","0.000957","0.000215",,
"1779660679.563",,"18011","18011",,,,,,,,,,,,,,,,,,,,,,,,,,,,,,,,,,,,,"0.000335",
"1779660679.564",,,,"0","-6.201461",,,,,,,,,,,,,,,,,,,,,,,,,,,,,,,,,,,,
"1779660679.566",,,,,,"7.563504","-1.750327","7.55627","-46.40456",,,,,,,,,,,,,,,,,,,,,,,,,,,,,,,,
"1779660679.567",,,,,,,,,,"74.963463","9.936214","3.844207",,,,,,,,,,,,,,,,,,,,,,,,,,,,,
"1779660679.568",,,,,,,,,,,,,"-8.16894","-10.571568","13.90207",,,,,,,,,,,,,,,,,,,,,,,,,,
"1779660679.569",,,,,,,,,,,,,,,,"-0.016602","-0.021723","0.135177","0.345396","0.518661","1.552566","1970.452637",,,,,,,,,,,,,,,,,,,
"1779660679.57",,,,,,,,,,,,,,,,,,,,,,,"-0.56705","1.454188","0.124177","10.301231","-3.868714","-38.558098",,,,,,,,,,,,,
"1779660679.571",,,,,,,,,,,,,,,,,,,,,,,,,,,,,"0.83487","0.633157","0",,,,,,,,,,
"1779660679.572",,,,,,,,,,,,,,,,,,,,,,,,,,,,,,,,"0.363892","8.5","24.320295",,,,,,,
"1779660679.574",,,,,,,,,,,,,,,,,,,,,,,,,,,,,,,,,,,"0","0","0","0.000957",,,
"1779660679.575",,,,,,,,,,,,,,,,,,,,,,,,,,,,,,,,,,,,,,,"0.000215","0.000335",
"1779660679.576",,"17990","17990","0",,,,,,,,,,,,,,,,,,,,,,,,,,,,,,,,,,,,,
"1779660679.579",,,,,"-6.184183","7.556685","-1.771797","7.29319",,,,,,,,,,,,,,,,,,,,,,,,,,,,,,,,,
"1779660679.581",,,,,,,,,"-46.419178","75.255775","9.924056","3.844207",,,,,,,,,,,,,,,,,,,,,,,,,,,,,
"1779660679.584",,,,,,,,,,,,,"-8.16894","-11.53262","14.646189",,,,,,,,,,,,,,,,,,,,,,,,,,
"1779660679.585",,,,,,,,,,,,,,,,"-0.007937","0.031783","0.123002",,,,,,,,,,,,,,,,,,,,,,,
"1779660679.586",,,,,,,,,,,,,,,,,,,"-0.899524","0.019834","0.788692","1970.466064",,,,,,,,,,,,,,,,,,,
"1779660679.587",,,,,,,,,,,,,,,,,,,,,,,"-0.5375","1.452329","0.159282",,,,,,,,,,,,,,,,
"1779660679.588",,,,,,,,,,,,,,,,,,,,,,,,,,"10.127824","-3.864922","-38.546886",,,,,,,,,,,,,
"1779660679.589",,,,,,,,,,,,,,,,,,,,,,,,,,,,,"0.83487","0.634763","0",,,,,,,,,,
"1779660679.591",,,,,,,,,,,,,,,,,,,,,,,,,,,,,,,,"0.377319","8.5","24.320295",,,,,,,
"1779660679.592",,,,,,,,,,,,,,,,,,,,,,,,,,,,,,,,,,,"0","0","0","0.000957",,,
"1779660679.594",,"17967","17967","0",,,,,,,,,,,,,,,,,,,,,,,,,,,,,,,,,,,"0.000215","0.000335",
"1779660679.596",,,,,"-6.190279","7.611053","-1.726042","7.921661",,,,,,,,,,,,,,,,,,,,,,,,,,,,,,,,,
"1779660679.597",,,,,,,,,"-45.863785","75.241158","9.961269","3.363681","-6.246836","-11.53262","13.54026",,,,,,,,,,,,,,,,,,,,,,,,,,
"1779660679.598",,,,,,,,,,,,,,,,"0.020523","-0.025475","0.160216","-1.802086","0.293985","1.489614","1970.485352",,,,,,,,,,,,,,,,,,,
"1779660679.599",,,,,,,,,,,,,,,,,,,,,,,"-0.082601","1.45105","0.1314","10.139837",,,,,,,,,,,,,,,
"1779660679.6",,,,,,,,,,,,,,,,,,,,,,,,,,,"-3.874913","-38.559754",,,,,,,,,,,,,
"1779660679.601",,,,,,,,,,,,,,,,,,,,,,,,,,,,,"0.83487","0.636831","0",,,,,,,,,,
"1779660679.603",,,,,,,,,,,,,,,,,,,,,,,,,,,,,,,,"0.396606","8.5","24.315811",,,,,,,
"1779660679.604",,,,,,,,,,,,,,,,,,,,,,,,,,,,,,,,,,,"0","0","0","0.000957",,,
"1779660679.606",,,,,,,,,,,,,,,,,,,,,,,,,,,,,,,,,,,,,,,"0.000214",,
"1779660679.607",,"17946","17946","0",,,,,,,,,,,,,,,,,,,,,,,,,,,,,,,,,,,,"0.000335",
"1779660679.61",,,,,"-6.180429","7.567692","-1.781351","7.687811",,,,,,,,,,,,,,,,,,,,,,,,,,,,,,,,,
"1779660679.613",,,,,,,,,"-45.703011","74.627304","9.931811","3.363681",,,,,,,,,,,,,,,,,,,,,,,,,,,,,
"1779660679.615",,,,,,,,,,,,,"-7.688414","-11.052094","13.877134",,,,,,,,,,,,,,,,,,,,,,,,,,
"1779660679.616",,,,,,,,,,,,,,,,"0.009842","0.033215","0.130751",,,,,,,,,,,,,,,,,,,,,,,
"1779660679.617",,,,,,,,,,,,,,,,,,,"-0.196229","-0.786053","1.091564","1970.390625",,,,,,,,,,,,,,,,,,,
"1779660679.618",,,,,,,,,,,,,,,,,,,,,,,"0.394818","1.449404","0.150809",,,,,,,,,,,,,,,,
"1779660679.619",,,,,,,,,,,,,,,,,,,,,,,,,,"10.16106","-3.898295","-38.584049",,,,,,,,,,,,,
"1779660679.621",,,,,,,,,,,,,,,,,,,,,,,,,,,,,"0.83487","0.637198","0",,,,,,,,,,
"1779660679.623",,,,,,,,,,,,,,,,,,,,,,,,,,,,,,,,"0.30188","8.5","24.315811",,,,,,,
"1779660679.624",,,,,,,,,,,,,,,,,,,,,,,,,,,,,,,,,,,"0","0","0","0.000957",,,
"1779660679.625",,"17925",,,,,,,,,,,,,,,,,,,,,,,,,,,,,,,,,,,,,"0.000214","0.000335",
"1779660679.626",,,"17924","0",,,,,,,,,,,,,,,,,,,,,,,,,,,,,,,,,,,,,
"1779660679.627",,,,,"-6.20458","7.584054","-1.737778","8.097048",,,,,,,,,,,,,,,,,,,,,,,,,,,,,,,,,
"1779660679.628",,,,,,,,,"-46.682255","74.802689","9.951611","5.285784",,,,,,,,,,,,,,,,,,,,,,,,,,,,,
"1779660679.629",,,,,,,,,,,,,"-7.688414","-11.052094","14.463748","0.001021","-0.016033","0.150597",,,,,,,,,,,,,,,,,,,,,,,
"1779660679.63",,,,,,,,,,,,,,,,,,,"0.997971","0.570024","-2.343079","1970.429443",,,,,,,,,,,,,,,,,,,
"1779660679.631",,,,,,,,,,,,,,,,,,,,,,,"0.940497","1.448053","0.157127",,,,,,,,,,,,,,,,
"1779660679.632",,,,,,,,,,,,,,,,,,,,,,,,,,"10.172074","-3.889897","-38.601934",,,,,,,,,,,,,
"1779660679.634",,,,,,,,,,,,,,,,,,,,,,,,,,,,,"0.83487","0.647953","0",,,,,,,,,,
"1779660679.636",,,,,,,,,,,,,,,,,,,,,,,,,,,,,,,,"0.340698","8.5","24.306841",,,,,,,
"1779660679.638",,,,,,,,,,,,,,,,,,,,,,,,,,,,,,,,,,,"0","0","0","0.000957",,,
"1779660679.64",,"17903",,,,,,,,,,,,,,,,,,,,,,,,,,,,,,,,,,,,,"0.000214","0.000335",
"1779660679.641",,,"17903","0",,,,,,,,,,,,,,,,,,,,,,,,,,,,,,,,,,,,,
"1779660679.644",,,,,"-6.201284","7.588312","-1.763486","7.936276",,,,,,,,,,,,,,,,,,,,,,,,,,,,,,,,,
"1779660679.646",,,,,,,,,"-46.360714","75.32885","9.957323","3.363681",,,,,,,,,,,,,,,,,,,,,,,,,,,,,
"1779660679.647",,,,,,,,,,,,,"-6.727362","-11.53262","13.768555",,,,,,,,,,,,,,,,,,,,,,,,,,
"1779660679.648",,,,,,,,,,,,,,,,"0.001165","0.012544","0.156315",,,,,,,,,,,,,,,,,,,,,,,
"1779660679.649",,,,,,,,,,,,,,,,,,,"2.01631","-0.492572","-2.170444","1970.501709","0.998791","1.446133","0.181382",,,,,,,,,,,,,,,,
"1779660679.651",,,,,,,,,,,,,,,,,,,,,,,,,,"10.152274",,,,,,,,,,,,,,,
"1779660679.652",,,,,,,,,,,,,,,,,,,,,,,,,,,"-3.886822","-38.562524",,,,,,,,,,,,,
"1779660679.653",,,,,,,,,,,,,,,,,,,,,,,,,,,,,"0.83487","0.655299","0",,,,,,,,,,
"1779660679.655",,,,,,,,,,,,,,,,,,,,,,,,,,,,,,,,"0.412964","8.5","24.306841",,,,,,,
"1779660679.656",,,,,,,,,,,,,,,,,,,,,,,,,,,,,,,,,,,"0","0","0","0.000957","0.000214",,
"1779660679.657",,"17877","17855","0","-6.213761","7.615913",,,,,,,,,,,,,,,,,,,,,,,,,,,,,,,,,,"0.000335",
"1779660679.658",,,,,,,"-1.751973","7.687811","-45.995323","74.714996","9.984105","3.363681","-7.688414",,,,,,,,,,,,,,,,,,,,,,,,,,,,
"1779660679.659",,,,,,,,,,,,,,"-11.052094","13.877134","-0.009726",,,,,,,,,,,,,,,,,,,,,,,,,
"1779660679.66",,,,,,,,,,,,,,,,,"0.008868","0.183097","-0.570855",,,,,,,,,,,,,,,,,,,,,,
"1779660679.661",,,,,,,,,,,,,,,,,,,,"3.257332","1.481274","1970.604736","1.017027",,,,,,,,,,,,,,,,,,
"1779660679.663",,,,,,,,,,,,,,,,,,,,,,,,"1.444251",,,,,,,,,,,,,,,,,
"1779660679.664",,,,,,,,,,,,,,,,,,,,,,,,,"0.130164","10.082306",,,,,,,,,,,,,,,
"1779660679.665",,,,,,,,,,,,,,,,,,,,,,,,,,,"-3.842562","-38.46795","0.83487",,,,,,,,,,,,
"1779660679.667",,,,,,,,,,,,,,,,,,,,,,,,,,,,,,"0.649738","0","0.515991","8.5",,,,,,,,
"1779660679.669",,,,,,,,,,,,,,,,,,,,,,,,,,,,,,,,,,"24.320295","0","0","0",,,,
"1779660679.671",,,,,,,,,,,,,,,,,,,,,,,,,,,,,,,,,,,,,,"0.000957","0.000213","0.000335",
"1779660679.673",,"17855","17855","0",,,,,,,,,,,,,,,,,,,,,,,,,,,,,,,,,,,,,
"1779660679.674",,,,,"-6.198368","7.560428","-1.743764","8.491669",,,,,,,,,,,,,,,,,,,,,,,,,,,,,,,,,
"1779660679.676",,,,,,,,,"-45.819935","74.68576","9.930788","2.402629",,,,,,,,,,,,,,,,,,,,,,,,,,,,,
"1779660679.677",,,,,,,,,,,,,"-9.129992","-11.53262","14.90405",,,,,,,,,,,,,,,,,,,,,,,,,,
"1779660679.678",,,,,,,,,,,,,,,,"-0.026507","0.015996","0.12974",,,,,,,,,,,,,,,,,,,,,,,
"1779660679.679",,,,,,,,,,,,,,,,,,,"-0.193813",,,,,,,,,,,,,,,,,,,,,,
"1779660679.68",,,,,,,,,,,,,,,,,,,,"2.198655","0.608019","1970.595825",,,,,,,,,,,,,,,,,,,
"1779660679.681",,,,,,,,,,,,,,,,,,,,,,,"0.53428","1.44232","0.142853",,,,,,,,,,,,,,,,
"1779660679.683",,,,,,,,,,,,,,,,,,,,,,,,,,"10.055039","-3.892582","-38.495295",,,,,,,,,,,,,
"1779660679.684",,,,,,,,,,,,,,,,,,,,,,,,,,,,,"0.83487","0.63904","0",,,,,,,,,,
"1779660679.685",,,,,,,,,,,,,,,,,,,,,,,,,,,,,,,,"0.50708","8.5","24.306841","0",,,,,,
"1779660679.686",,"17834","17834","0",,,,,,,,,,,,,,,,,,,,,,,,,,,,,,,,"0","0","0.000957","0.000213","0.000335",
"1779660679.687",,,,,"-6.217449","7.559841","-1.74992","8.082433",,,,,,,,,,,,,,,,,,,,,,,,,,,,,,,,,
"1779660679.688",,,,,,,,,"-46.053783","74.831924","9.943343","4.324733","-7.688414","-10.571568","13.768554",,,,,,,,,,,,,,,,,,,,,,,,,,
"1779660679.69",,,,,,,,,,,,,,,,"-0.038352","0.024599","0.142239",,,,,,,,,,,,,,,,,,,,,,,
"1779660679.692",,,,,,,,,,,,,,,,,,,"-0.133331",,,,,,,,,,,,,,,,,,,,,,
"1779660679.693",,,,,,,,,,,,,,,,,,,,"-0.133943","-0.36592","1970.478271",,,,,,,,,,,,,,,,,,,
"1779660679.695",,,,,,,,,,,,,,,,,,,,,,,"-0.662226","1.440069","0.161191",,,,,,,,,,,,,,,,
"1779660679.697",,,,,,,,,,,,,,,,,,,,,,,,,,"10.034027","-3.924297","-38.507196",,,,,,,,,,,,,
"1779660679.698",,,,,,,,,,,,,,,,,,,,,,,,,,,,,"0.83487","0.628179","0",,,,,,,,,,
"1779660679.701",,,,,,,,,,,,,,,,,,,,,,,,,,,,,,,,"0.389526","8.5","24.306841",,,,,,,
"1779660679.702",,,,,,,,,,,,,,,,,,,,,,,,,,,,,,,,,,,"0","0","0","0.000957",,,
"1779660679.703",,"17812","17812","0",,,,,,,,,,,,,,,,,,,,,,,,,,,,,,,,,,,"0.000213","0.000335",
"1779660679.704",,,,,"-6.224067",,,,,,,,,,,,,,,,,,,,,,,,,,,,,,,,,,,,
"1779660679.705",,,,,,"7.591402","-1.700046","7.892429",,,,,,,,,,,,,,,,,,,,,,,,,,,,,,,,,
"1779660679.706",,,,,,,,,"-46.623795","74.334991","9.962858","3.363681",,,,,,,,,,,,,,,,,,,,,,,,,,,,,
"1779660679.707",,,,,,,,,,,,,"-6.246836","-10.571568","12.731668",,,,,,,,,,,,,,,,,,,,,,,,,,
"1779660679.709",,,,,,,,,,,,,,,,"-0.028459","-0.03088","0.16177",,,,,,,,,,,,,,,,,,,,,,,
"1779660679.711",,,,,,,,,,,,,,,,,,,"-1.925603","0.123203","0.090529","1970.397461",,,,,,,,,,,,,,,,,,,
"1779660679.712",,,,,,,,,,,,,,,,,,,,,,,"-1.301441","1.438503","0.1439",,,,,,,,,,,,,,,,
"1779660679.713",,,,,,,,,,,,,,,,,,,,,,,,,,"10.037282","-3.92392","-38.500646",,,,,,,,,,,,,
"1779660679.714",,,,,,,,,,,,,,,,,,,,,,,,,,,,,"0.83487","0.62854","0","0.308716","8.5",,,,,,,,
"1779660679.715",,,,,,,,,,,,,,,,,,,,,,,,,,,,,,,,,,"24.306841","0","0","0","0.000957","0.000213","0.000335",
"1779660679.716",,"17791","17791","0","-6.205905","7.575933",,,,,,,,,,,,,,,,,,,,,,,,,,,,,,,,,,,
"1779660679.717",,,,,,,"-1.728219","7.863198","-46.40456","74.802689",,,,,,,,,,,,,,,,,,,,,,,,,,,,,,,
"1779660679.719",,,,,,,,,,,"9.944585","2.883155","-8.16894",,,,,,,,,,,,,,,,,,,,,,,,,,,,
"1779660679.721",,,,,,,,,,,,,,"-11.53262","14.423782","-0.021306",,,,,,,,,,,,,,,,,,,,,,,,,
"1779660679.723",,,,,,,,,,,,,,,,,"-0.003714","0.143561","-0.38008",,,,,,,,,,,,,,,,,,,,,,
"1779660679.726",,,,,,,,,,,,,,,,,,,,"0.068871","-0.552756","1970.455811","-1.529905",,,,,,,,,,,,,,,,,,
"1779660679.728",,,,,,,,,,,,,,,,,,,,,,,,"1.437106","0.154023","10.062006",,,,,,,,,,,,,,,
"1779660679.73",,,,,,,,,,,,,,,,,,,,,,,,,,,"-3.946255","-38.500509",,,,,,,,,,,,,
"1779660679.731",,,,,,,,,,,,,,,,,,,,,,,,,,,,,"0.83487","0.637588","0",,,,,,,,,,
"1779660679.733",,,,,,,,,,,,,,,,,,,,,,,,,,,,,,,,"0.367065","8.5","24.306841",,,,,,,
"1779660679.734",,,,,,,,,,,,,,,,,,,,,,,,,,,,,,,,,,,"0","0","0","0.000957",,,
"1779660679.735",,"17769","17769","0",,,,,,,,,,,,,,,,,,,,,,,,,,,,,,,,,,,"0.000213","0.000335",
"1779660679.736",,,,,"-6.192294","7.598115","-1.734975","7.892429",,,,,,,,,,,,,,,,,,,,,,,,,,,,,,,,,
"1779660679.739",,,,,,,,,"-46.565334","75.32885","9.954195","2.883155",,,,,,,,,,,,,,,,,,,,,,,,,,,,,
"1779660679.741",,,,,,,,,,,,,"-6.246836","-12.013146","13.843816",,,,,,,,,,,,,,,,,,,,,,,,,,
"1779660679.742",,,,,,,,,,,,,,,,"0.019297","-0.009797","0.153171",,,,,,,,,,,,,,,,,,,,,,,
"1779660679.744",,,,,,,,,,,,,,,,,,,"0.214231","-0.795853","0.037419","1970.452148","-1.148252","1.434872","0.179467",,,,,,,,,,,,,,,,
"1779660679.745",,,,,,,,,,,,,,,,,,,,,,,,,,"10.110654","-3.969125","-38.588643",,,,,,,,,,,,,
"1779660679.746",,,,,,,,,,,,,,,,,,,,,,,,,,,,,"0.83487","0.639723","0","0.363403","8.5","24.306841",,,,,,,
"1779660679.747",,"17746","17747","0",,,,,,,,,,,,,,,,,,,,,,,,,,,,,,,"0","0","0","0.000957","0.000212","0.000335",
"1779660679.749",,,,,"-6.227371","7.608366","-1.723975","7.527039",,,,,,,,,,,,,,,,,,,,,,,,,,,,,,,,,
"1779660679.751",,,,,,,,,"-46.097633","75.021919","9.981957","2.402629",,,,,,,,,,,,,,,,,,,,,,,,,,,,,
"1779660679.753",,,,,,,,,,,,,"-8.16894","-11.052094","13.95181",,,,,,,,,,,,,,,,,,,,,,,,,,
"1779660679.755",,,,,,,,,,,,,,,,"-0.002787","-0.025409","0.180925",,,,,,,,,,,,,,,,,,,,,,,
"1779660679.758",,,,,,,,,,,,,,,,,,,"-0.994932","0.19555","-0.786755","1970.360107",,,,,,,,,,,,,,,,,,,
"1779660679.76",,,,,,,,,,,,,,,,,,,,,,,"-0.970794","1.433583","0.135929",,,,,,,,,,,,,,,,
"1779660679.762",,,,,,,,,,,,,,,,,,,,,,,,,,"10.116338","-3.956099","-38.588899",,,,,,,,,,,,,
"1779660679.763",,,,,,,,,,,,,,,,,,,,,,,,,,,,,"0.83487","0.644239","0",,,,,,,,,,
"1779660679.764",,,,,,,,,,,,,,,,,,,,,,,,,,,,,,,,"0.271362","8.5","24.297873","0","0","0",,,,
"1779660679.765",,"17725","17725","0",,,,,,,,,,,,,,,,,,,,,,,,,,,,,,,,,,"0.000957","0.000212","0.000335",
"1779660679.768",,,,,"-6.193453","7.565441","-1.77111","8.15551",,,,,,,,,,,,,,,,,,,,,,,,,,,,,,,,,
"1779660679.77",,,,,,,,,"-46.419178","75.343468","9.936377","3.363681",,,,,,,,,,,,,,,,,,,,,,,,,,,,,
"1779660679.772",,,,,,,,,,,,,"-7.688414","-12.013146","14.654069","-0.001839","0.028704","0.135335",,,,,,,,,,,,,,,,,,,,,,,
"1779660679.773",,,,,,,,,,,,,,,,,,,"0.272536","1.221511","-0.628642","1970.419189",,,,,,,,,,,,,,,,,,,
"1779660679.774",,,,,,,,,,,,,,,,,,,,,,,"-0.343453","1.432387","0.153675","10.127748","-3.96952","-38.574453",,,,,,,,,,,,,
"1779660679.775",,,,,,,,,,,,,,,,,,,,,,,,,,,,,"0.83487","0.658826","0","0.330444","8.5","24.302357","0",,,,,,
"1779660679.776",,,,,,,,,,,,,,,,,,,,,,,,,,,,,,,,,,,,"0","0","0.000957","0.000212","0.000335",
"1779660679.777",,"17704","17704","0",,,,,,,,,,,,,,,,,,,,,,,,,,,,,,,,,,,,,
"1779660679.78",,,,,"-6.207769","7.586605","-1.733808",,,,,,,,,,,,,,,,,,,,,,,,,,,,,,,,,,
"1779660679.782",,,,,,,,"7.570886","-45.907627","75.489624","9.954851",,,,,,,,,,,,,,,,,,,,,,,,,,,,,,
"1779660679.784",,,,,,,,,,,,"3.363681","-6.246836","-10.571568",,,,,,,,,,,,,,,,,,,,,,,,,,,
"1779660679.786",,,,,,,,,,,,,,,"12.731668","-0.003655","-0.009519",,,,,,,,,,,,,,,,,,,,,,,,
"1779660679.788",,,,,,,,,,,,,,,,,,"0.153846",,,,,,,,,,,,,,,,,,,,,,,
"1779660679.789",,,,,,,,,,,,,,,,,,,"-2.338717","1.166341",,,,,,,,,,,,,,,,,,,,,
"1779660679.79",,,,,,,,,,,,,,,,,,,,,"1.094728","1970.452026","-0.383594",,,,,,,,,,,,,,,,,,
"1779660679.791",,,,,,,,,,,,,,,,,,,,,,,,"1.431126","0.148559","10.111005",,,,,,,,,,,,,,,
"1779660679.792",,,,,,,,,,,,,,,,,,,,,,,,,,,"-3.982975","-38.564843","0.83487",,,,,,,,,,,,
"1779660679.793",,,,,,,,,,,,,,,,,,,,,,,,,,,,,,"0.66904","0","0.363281","8.5",,,,,,,,
"1779660679.794",,,,,,,,,,,,,,,,,,,,,,,,,,,,,,,,,,"24.297873","0","0","0",,,,
"1779660679.797",,"17682","17682","0",,,,,,,,,,,,,,,,,,,,,,,,,,,,,,,,,,"0.000957","0.000212","0.000335",
"1779660679.799",,,,,"-6.20186","7.583407","-1.730141","7.731658",,,,,,,,,,,,,,,,,,,,,,,,,,,,,,,,,
"1779660679.8",,,,,,,,,"-46.550716","74.802689","9.948092",,,,,,,,,,,,,,,,,,,,,,,,,,,,,,
"1779660679.801",,,,,,,,,,,,"3.363681","-7.207888","-11.052094","13.616783",,,,,,,,,,,,,,,,,,,,,,,,,,
"1779660679.802",,,,,,,,,,,,,,,,"0.003033","-0.015809","0.147078","0.17978","1.893929","1.31341","1970.637695",,,,,,,,,,,,,,,,,,,
"1779660679.803",,,,,,,,,,,,,,,,,,,,,,,"-0.100081","1.428959","0.192803","10.130454","-4.024734",,,,,,,,,,,,,,
"1779660679.804",,,,,,,,,,,,,,,,,,,,,,,,,,,,"-38.582772","0.83487","0.676203","0",,,,,,,,,,
"1779660679.805",,,,,,,,,,,,,,,,,,,,,,,,,,,,,,,,"0.54895","8.5","24.297873",,,,,,,
"1779660679.807",,,,,,,,,,,,,,,,,,,,,,,,,,,,,,,,,,,"0","0","0","0.000957",,,
"1779660679.809",,"17656","17634","0",,,,,,,,,,,,,,,,,,,,,,,,,,,,,,,,,,,"0.000211","0.000335",
"1779660679.812",,,,,"-6.235795","7.612973","-1.748085","7.453961",,,,,,,,,,,,,,,,,,,,,,,,,,,,,,,,,
"1779660679.815",,,,,,,,,"-46.682255","75.621162","9.994913","2.883155",,,,,,,,,,,,,,,,,,,,,,,,,,,,,
"1779660679.817",,,,,,,,,,,,,"-5.76631","-11.53262","13.212276",,,,,,,,,,,,,,,,,,,,,,,,,,
"1779660679.819",,,,,,,,,,,,,,,,"0.023461","-0.007871","0.193882",,,,,,,,,,,,,,,,,,,,,,,
"1779660679.82",,,,,,,,,,,,,,,,,,,"1.282882","-1.09273","-0.976949","1970.555176",,,,,,,,,,,,,,,,,,,
"1779660679.821",,,,,,,,,,,,,,,,,,,,,,,"-0.208076","1.425963","0.160559",,,,,,,,,,,,,,,,
"1779660679.822",,,,,,,,,,,,,,,,,,,,,,,,,,"10.133911","-4.075605","-38.732678",,,,,,,,,,,,,
"1779660679.823",,,,,,,,,,,,,,,,,,,,,,,,,,,,,"0.83487","0.658774","0",,,,,,,,,,
"1779660679.825",,,,,,,,,,,,,,,,,,,,,,,,,,,,,,,,"0.466431","8.5","24.297873",,,,,,,
"1779660679.826",,,,,,,,,,,,,,,,,,,,,,,,,,,,,,,,,,,"0","0","0","0.000957",,,
"1779660679.828",,"17634","17634","0",,,,,,,,,,,,,,,,,,,,,,,,,,,,,,,,,,,"0.000211","0.000335",
"1779660679.83",,,,,"-6.211476","7.594203","-1.727451","8.28705","-46.433792",,,,,,,,,,,,,,,,,,,,,,,,,,,,,,,,
"1779660679.831",,,,,,,,,,"75.051155","9.96185","3.844207","-8.16894","-11.53262","14.646189",,,,,,,,,,,,,,,,,,,,,,,,,,
"1779660679.832",,,,,,,,,,,,,,,,"0.025534","-0.022217","0.160792","0.117617","2.794939","-0.806879","1970.523926",,,,,,,,,,,,,,,,,,,
"1779660679.833",,,,,,,,,,,,,,,,,,,,,,,"0.27272","1.424054","0.153594",,,,,,,,,,,,,,,,
