rkf,accel_x,accel_y,accel_z,gyro_x,gyro_y,gyro_z,yaw,pitch,roll,imutemp,pressure,altitude,bmptemp,verticalvelocity,apoogee,state,uptime(milliseconds),errorflag
0,   -3.7295,   -3.6840,    8.2413,   33.6469,   25.9462,   10.0709,   22.4820,   72.9950, -118.7534,   36.7500,87765.0469,   -0.1695,   39.0041,   -0.3835,    0.6638,0,5044,13
0,   -9.1001,    1.9223,    0.0818,    0.5207,    0.6981,    3.0420,   28.9402,   45.6147, -104.1561,   37.0000,87764.7500,   -0.1423,   39.2377,    0.7099,    1.1240,0,10079,13
0,   -9.3395,   -1.0897,    0.0492,    1.2762,    2.3584,  -67.7009,   28.8891,   44.0842,  -98.6166,   37.0000,87768.8828,   -0.5283,   39.3218,   -1.4756,    0.1786,0,15119,13
0,   -9.2847,    0.1643,    0.1077,    0.6949,    1.0328,    2.9314,   28.4602,   43.1427,  -75.2206,   37.1250,87766.6016,   -0.3149,   39.5647,    0.2551,    0.1786,0,20159,13
0,   -9.2298,    0.1659,    0.1012,   -0.8025,    1.1831,   -0.2098,   28.2379,   43.6688,  -75.5935,   37.2500,87768.4219,   -0.4853,   39.6534,   -0.5595,   -0.2153,1,23169,13
0,   -9.2607,    0.2013,    0.0593,    0.5718,    0.4902,    0.7375,   28.3298,   43.7476,  -75.4749,   37.2500,87764.5781,   -0.1258,   39.4899,   -0.1528,   -0.1258,1,23330,13
0,   -9.3227,    0.0515,    0.0802,    0.3482,    0.4164,   -2.8473,   28.3553,   43.6623,  -75.4576,   37.2500,87768.6953,   -0.5109,   39.5787,   -0.7204,   -0.1258,1,23443,13
0,   -9.3667,    0.1133,    0.0859,   -3.1489,   -1.4421,    4.0725,   28.2554,   43.6745,  -75.3596,   37.2500,87766.8203,   -0.3359,   39.6161,   -0.4802,   -0.1258,1,23556,13
0,   -9.4511,   -0.0560,    0.1199,   -0.5678,   -0.4915,    7.7612,   28.0555,   43.6687,  -74.1476,   37.2500,87765.5547,   -0.2170,   39.5040,   -0.3652,   -0.1258,1,23765,13
0,   -9.2864,    0.2349,    0.0372,   -0.3271,    1.2697,   -0.1573,   28.0221,   43.6396,  -74.8968,   37.2500,87765.8750,   -0.2471,   39.5927,    0.4806,   -0.1258,1,23878,13
0,   -9.4314,    0.0387,    0.0451,    0.7714,    1.2250,   -1.3157,   27.9944,   43.5558,  -74.6203,   37.2500,87766.3984,   -0.2963,   39.6161,    0.0987,   -0.1258,1,23991,13
0,   -9.3422,   -0.0586,    0.1226,    0.2159,   -1.1460,   -3.6101,   28.1144,   43.4033,  -75.2270,   37.2500,87765.4297,   -0.2057,   39.5133,    0.0031,   -0.1258,1,24200,13
0,   -9.5787,   -1.6255,    0.0268,    0.6498,   -3.0545,   95.7388,   28.3651,   43.1242,  -66.0677,   37.2500,87767.2500,   -0.3755,   39.6021,   -0.3213,   -0.1258,1,24313,13
0,   -9.0975,    0.6170,   -0.0174,   73.1112,    3.8759,  -26.9762,   31.7881,   43.4693,  -71.2283,   37.2500,87766.0313,   -0.2623,   39.6348,   -0.0263,   -0.1258,1,24426,13
0,   -9.1456,   -2.0623,    0.1628,    3.7262,   -0.4248,   49.1133,   33.4684,   43.6186,  -62.6769,   37.2500,87766.2578,   -0.2833,   39.5320,   -0.0267,   -0.1258,1,24635,13
0,   -8.7943,   -2.4455,    0.1228,    1.9118,    2.9928,   -8.6101,   33.9724,   44.0210,  -62.6938,   37.2500,87768.3828,   -0.4819,   39.6161,   -0.0657,   -0.1258,1,24748,13
0,   -8.8705,   -2.6729,    0.2294,    9.1912,    1.5816,   55.4129,   34.6090,   44.0664,  -54.6236,   37.2500,87766.7422,   -0.3286,   39.6581,    0.0531,   -0.1258,1,24861,13
0,   -9.1803,   -1.9386,   -0.0279,    0.0792,   -0.4136,  -28.4683,   34.6761,   43.9485,  -61.6459,   37.2500,87765.7734,   -0.2374,   39.5413,   -0.1709,   -0.1258,1,25070,13
0,   -9.5253,   -4.0569,    0.3730,   58.3113,   57.5392,   97.5056,   39.0168,   48.2418,  -49.7005,   37.1250,87769.1563,   -0.5544,   39.6301,   -0.4158,   -0.1258,1,25183,13
0,   -9.4449,   -5.7085,    1.9990,   60.2670,   60.2209,    8.5246,   41.4151,   56.5477,  -47.0947,   37.1250,87768.1172,   -0.4565,   39.6628,   -0.7079,   -0.1258,1,25296,13
0,  -12.3719,   -1.4651,    2.0548,   43.6101,   14.9351,   -5.8884,   40.7796,   54.7444,  -50.4183,   37.1250,87764.0313,   -0.0749,   39.5553,   -0.0230,   -0.0749,1,25505,13
0,  -10.4227,    1.0344,    1.8420,   37.0895,  -18.3653,  -76.8355,   45.5995,   55.7205,  -58.1156,   37.1250,87766.0938,   -0.2679,   39.6348,    0.1454,   -0.0749,1,25618,13
0,   -7.8735,    2.4189,   -0.1608,  145.6470,   35.8442,   17.1660,   55.1034,   60.3290,  -60.5219,   37.1250,87766.7344,   -0.3280,   39.6721,   -0.0109,   -0.0749,1,25731,13
0,   -5.2165,   -1.9713,    3.7416,    4.6860,   10.2270,  -11.0878,   60.7986,   65.0875,  -65.2241,   37.1250,87766.0625,   -0.2651,   39.5600,   -0.2368,   -0.0749,1,25940,13
0,   -8.2578,   -0.7273,    2.6865,   67.9536,  -15.5303,  -90.1825,   66.7614,   64.4982,  -73.5730,   37.1250,87763.2734,   -0.0041,   39.6534,    0.5950,   -0.0041,1,26053,13
0,   -8.4114,   -2.1643,    3.4448,   75.1649,  -43.9759,    0.6966,   76.7224,   60.2074,  -70.6213,   37.1250,87764.8047,   -0.1474,   39.6908,    0.4253,   -0.0019,1,26166,13
0,   -8.4897,   -1.5869,    3.3822,   13.9986,  -12.6139,   20.7368,   78.5488,   60.9754,  -72.9240,   37.1250,87763.5391,   -0.0286,   39.5740,    0.2582,   -0.0019,1,26375,13
0,   -8.2592,   -0.9928,    2.8306,   -9.2516,   30.2545,  -12.2448,   79.3146,   64.4473,  -71.6707,   37.2500,87764.4063,   -0.1095,   39.6628,   -0.2530,   -0.0019,1,26488,13
0,   -9.7116,    0.1813,    4.1989,    0.2256,   50.1748,  -17.1023,   77.9607,   70.6872,  -71.2111,   37.2500,87763.1797,    0.0049,   39.7002,    0.2395,    0.0049,1,26601,13
0,  -10.0937,    2.6801,    2.6040,    1.6521,  -13.5938,    0.6279,   79.0662,   65.1434,  -75.7729,   37.2500,87763.4141,   -0.0172,   39.5880,    0.1370,    0.0049,1,26810,13
0,   -8.4401,    0.7217,    1.1603, -112.4250,  -33.5424,  -44.5489,   70.0588,   62.8683,  -80.2379,   37.2500,87769.6094,   -0.5963,   39.6815,   -1.1015,    0.0751,1,26923,13
0,   -6.2021,    2.1723,   -0.3722, -178.6752,  -41.8830,   90.2731,   53.0101,   57.6169,  -77.8159,   37.2500,87764.6719,   -0.1350,   39.7235,   -0.6441,    0.0751,1,27036,13
0,   -9.0109,    0.1322,    2.9336, -176.7278,  -16.3920,   80.9459,   17.7932,   58.8217,  -62.3750,   37.2500,87761.4844,    0.1629,   39.6067,   -0.4170,    0.1629,1,27245,13
0,   -9.0691,   -0.2602,    2.4951,  -88.4182,  -63.8301,  -13.4226,    0.6217,   61.2674,  -58.3187,   37.2500,87767.5078,   -0.3999,   39.6955,   -0.1060,    0.1629,1,27358,13
0,  -10.6566,   -2.0652,    2.1055,    0.1957,  -11.6894,   73.1632,   -3.9629,   57.4212,  -53.7365,   37.2500,87763.2813,   -0.0047,   39.7375,   -0.1490,    0.1629,1,27471,13
0,   -8.8857,   -1.5610,   -3.0521,   30.1586,  -17.7343,   29.0069,    3.2468,   47.0584,  -48.0107,   37.2500,87766.2734,   -0.2844,   39.6348,   -0.4775,    0.1629,1,27680,13
0,   -9.1657,   -3.4844,   -0.4496,    8.2871,   61.6618,   34.9437,    6.6090,   54.2149,  -43.5748,   37.2500,87762.1563,    0.1000,   39.7235,    1.1490,    0.1629,1,27793,13
0,   -9.5426,   -2.8695,   -0.7451,  -27.7174,   -1.7184,   -8.2818,    2.1238,   54.5323,  -44.7362,   37.2500,87761.4141,    0.1696,   39.7562,    0.5299,    0.3943,1,27906,13
0,   -8.1192,   -1.3855,    0.4329, -104.0551,  104.5528,   -6.8890,  -18.1839,   70.2250,  -49.4576,   37.2500,87761.0469,    0.2041,   39.6348,    0.8767,    0.3943,1,28115,13
0,   -8.9439,   -0.8525,    3.5396, -137.9189,  144.5144,  -12.9105,  -31.5313,   83.6335,  -47.4514,   37.2500,87766.0391,   -0.2629,   39.7375,   -0.6695,    0.3943,1,28228,13
0,   -9.1018,    0.2779,    2.7483,  -93.9153,   86.4735,  -45.7219,  -41.5378,   90.4213,  -45.3408,   37.2500,87762.1719,    0.0989,   39.7936,   -0.0606,    0.3943,1,28341,13
0,   -5.3436,    1.9743,    6.8168, -147.4686, -101.4709,   27.2565,  -69.4225,   81.3438,  -45.7398,   37.2500,87761.8594,    0.1283,   39.6815,   -0.2417,    0.3943,1,28550,13
0,   -7.2500,    4.5738,    0.2918,   62.3842,    6.0389,   65.5497,  -76.1065,   75.6727,  -36.0459,   37.2500,87766.0313,   -0.2623,   39.7702,    0.0318,    0.3943,1,28663,13
0,   -5.0179,    3.2044,    4.1873,  -38.5672,  -82.1501,   84.9627,  -77.1145,   74.5151,  -27.9204,   37.2500,87765.0469,   -0.1695,   39.8029,   -0.2788,    0.3943,1,28776,13
0,  -10.5164,   -2.3363,    2.6952,   -2.6555,  -28.1646,   28.7758,  -71.1304,   64.6551,  -18.9074,   37.2500,87768.0313,   -0.4486,   39.7142,   -0.7561,    0.3943,1,28985,13
0,  -10.6297,   -3.9291,    1.6611,  -13.8726,  -23.9051,   13.0669,  -70.5836,   63.7010,  -16.9416,   37.2500,87769.0156,   -0.5408,   39.8029,   -0.2762,    0.3943,1,29098,13
0,  -11.5570,   -2.2198,    2.2954,    8.0849,   80.7267,  -37.4406,  -71.0619,   70.2753,  -21.3848,   37.2500,87768.3203,   -0.4763,   39.8590,   -0.4288,    0.3943,2,29211,13
0,   -8.9748,    0.4271,    0.9988,   -1.2738,  -58.1345,    4.9248,  -71.2671,   60.9085,  -20.5913,   37.2500,87770.3359,   -0.6642,   39.7282,   -0.0611,    0.3943,2,29372,13
0,   -8.9989,    0.6920,    0.6422,   21.8770,  -36.6124,   -8.8627,  -67.0332,   54.0445,  -21.0262,   37.2500,87765.7031,   -0.2312,   39.7142,    0.7557,    0.3943,2,29581,13
0,   -9.1405,    1.3122,    1.3827,   23.5050,   66.6441,  -19.5344,  -62.9306,   62.7224,  -23.2170,   37.2500,87766.6016,   -0.3149,   39.7188,    0.9626,    0.3943,2,29790,13
0,   -8.9147,    0.4351,    0.7083,   -5.1403,  -36.8662,   -3.3735,  -62.6979,   58.4403,  -24.8594,   37.2500,87765.7031,   -0.2312,   39.7002,    1.0704,    0.3943,2,29999,13
0,   -9.3293,    1.2854,    1.0330,    6.4314,   -7.8881,   -3.2547,  -62.0031,   57.1234,  -25.0746,   37.2500,87761.5781,    0.1543,   39.6908,    0.8340,    0.3943,2,30208,13
0,   -9.2057,    1.4227,    0.3284,    2.9020,   -4.2535,   -0.4653,  -61.2899,   55.5635,  -25.0411,   37.3750,87763.2578,   -0.0025,   39.6955,    0.0321,    0.3943,2,30417,13
0,   -8.4123,    1.3088,   -0.9570,    3.1011,  -31.2053,   -4.1862,  -60.8059,   50.8968,  -25.9059,   37.3750,87765.0625,   -0.1711,   39.7002,   -0.0941,    0.3943,2,30626,13
0,   -9.2136,    1.4283,   -0.4657,    3.2276,   -1.8475,    7.3380,  -60.2534,   50.6316,  -24.9260,   37.3750,87762.0625,    0.1096,   39.6955,   -0.1838,    0.3943,2,30835,13
0,   -9.3689,    1.0731,   -0.5979,   -0.4808,    1.6675,   -0.8892,  -60.4316,   50.4867,  -24.6754,   37.3750,87763.6719,   -0.0416,   39.7048,    0.0927,    0.3943,2,31044,13
0,   -8.9787,    1.1288,   -0.9260,    0.8919,   -1.8080,   12.2686,  -60.3844,   49.8424,  -23.2924,   37.3750,87766.4297,   -0.2991,   39.7048,   -0.0936,    0.3943,2,31253,13
0,   -8.9694,    0.9092,   -0.8944,    3.2299,   78.9883,    0.3551,  -59.6329,   60.9482,  -23.1151,   37.3750,87763.0781,    0.0139,   39.7048,   -0.0484,    0.3943,2,31462,13
0,  -10.6438,   -3.5213,  -11.7756, -141.0466,   18.5090,  137.6071,  -77.5400,   65.0608,   -2.8512,   37.3750,87764.6328,   -0.1310,   39.7048,   -0.2119,    0.3943,2,31671,13
0,   -8.9900,   -0.3920,   -2.5133,   -3.8474,  -27.1763,   12.1935,  -82.9276,   57.3630,    3.0792,   37.3750,87760.6172,    0.2438,   39.7235,    0.0448,    0.3943,2,31880,13
0,   -9.1700,   -0.3926,   -1.9450,   -5.3442,   17.3754,   15.5343,  -82.8326,   54.3707,    2.9729,   37.3750,87763.1875,    0.0037,   39.7282,   -0.7350,    0.3943,2,32089,13
0,   -8.3101,   -0.8671,   -2.6497,   -3.0959,  -15.8982,    3.1918,  -83.8081,   52.7250,    4.9350,   37.3750,87762.1641,    0.0994,   39.7282,   -0.4768,    0.3943,2,32298,13
0,   -9.2062,   -1.4644,   -2.4571,    0.4897,   -2.1363,  -16.6379,  -83.5346,   52.3497,    2.9428,   37.3750,87762.7578,    0.0444,   39.7329,   -0.8894,    0.3943,2,32507,13
0,   -8.9341,   -0.8020,   -2.5323,   13.9562,   -9.0802,  -34.6944,  -81.5620,   50.9586,   -2.8997,   37.3750,87765.0313,   -0.1683,   39.7422,   -0.4975,    0.3943,2,32716,13
0,  -10.0210,    0.3617,   -3.2961,    5.3039,    0.3635,  -18.9968,  -80.4724,   50.8162,   -7.3001,   37.3750,87766.2891,   -0.2861,   39.7375,   -0.6083,    0.3943,2,32925,13
0,   -8.9578,    0.9791,   -2.6610,    1.2415,   -2.2557,  -29.1074,  -80.0858,   50.5911,  -13.3031,   37.3750,87764.7891,   -0.1457,   39.7469,   -0.1960,    0.3943,2,33134,13
0,   -9.8252,    0.3141,   -2.4723,    1.2741,    3.9303,   31.9003,  -79.8706,   51.1069,  -10.7980,   37.3750,87767.6094,   -0.4095,   39.7469,   -0.4762,    0.3943,2,33343,13
0,   -8.4566,    0.8920,   -2.8751,   -5.5640,  -10.8726,  -15.8039,  -80.6120,   48.3850,  -14.1732,   37.3750,87764.0078,   -0.0727,   39.7609,    0.0791,    0.3943,2,33552,13
0,   -8.1008,    0.6625,   -2.8552,   -1.9921,   -0.7860,    7.5026,  -80.9752,   48.2962,  -12.2348,   37.3750,87757.1016,    0.5726,   39.7609,    0.6267,    0.5726,2,33761,13
0,   -9.5065,    1.6809,   -2.7344,    3.3683,    5.0095,  -25.1253,  -80.6508,   48.8366,  -16.9591,   37.3750,87760.2188,    0.2816,   39.7655,    0.6616,    0.5726,2,33970,13
0,   -9.1200,    1.4959,   -2.8758,    3.6941,    7.7726,   10.8690,  -80.2264,   50.0943,  -16.0670,   37.3750,87761.4766,    0.1640,   39.7749,    0.0735,    0.5726,2,34179,13
0,   -8.8561,    0.9843,   -1.6256,   22.3662,    7.3718,   21.2231,  -76.8665,   51.6266,  -12.2279,   37.3750,87759.0781,    0.3881,   39.7796,   -0.5302,    0.5726,2,34388,13
0,   -8.9924,    0.2287,   -2.1495,    4.7874,   14.4480,   33.3314,  -75.6175,   53.8618,   -6.0987,   37.3750,87763.8047,   -0.0541,   39.7889,   -0.7449,    0.5726,2,34597,13
0,   -9.2505,    0.3970,   -4.0527,    0.6797,    9.5492,  -32.6224,  -75.4226,   55.5142,  -11.2284,   37.3750,87762.6016,    0.0586,   39.7936,   -0.2399,    0.5726,2,34806,13
0,   -9.6310,    0.8339,   -1.8927,    1.5017,    0.4838,  -16.8568,  -75.6034,   55.7273,  -13.3453,   37.3750,87760.8594,    0.2217,   39.7936,    0.0578,    0.5726,2,35015,13
0,  -10.1907,    0.7274,   -1.8662,   -1.0364,   -0.4869,   -1.5157,  -75.8343,   55.2913,  -13.0930,   37.3750,87760.7344,    0.2330,   39.8029,    0.5618,    0.5726,2,35224,13
0,  -10.2447,    0.3754,   -2.0520,   -0.9238,    5.1858,   -0.1159,  -76.1576,   55.7345,  -12.9489,   37.3750,87758.5703,    0.4357,   39.8076,    0.2836,    0.5726,2,35433,13
0,   -9.0174,    0.7553,   -1.9054,    0.7874,   -1.8473,    1.7487,  -76.2009,   55.3904,  -13.0977,   37.3750,87761.6875,    0.1442,   39.8076,   -0.2863,    0.5726,2,35642,13
0,   -8.7786,   -0.2008,   -2.5282,    3.3241,    0.0708,   12.1289,  -75.3909,   55.4190,   -9.6324,   37.3750,87761.9297,    0.1215,   39.8169,   -0.3098,    0.5726,2,35851,13
0,   -9.8557,    0.6896,   -1.6450,   12.8798,    0.7577,    3.4324,  -72.4226,   56.0694,   -8.8526,   37.3750,87769.3047,   -0.5680,   39.8169,   -1.0293,    0.5726,2,36060,13
0,   -9.3970,    0.1255,   -1.9190,    4.0883,    1.7924,   13.6192,  -71.6236,   56.2993,   -5.9601,   37.3750,87768.7031,   -0.5113,   39.8263,   -0.5719,    0.5726,2,36269,13
0,  -11.0109,   -0.2891,   -1.9763,    2.6307,   -7.2562,   32.5180,  -71.1249,   55.1585,   -0.9630,   37.3750,87773.0781,   -0.9206,   39.8263,   -0.9447,    0.5726,2,36478,13
0,   -7.5002,   -2.3206,   -2.4264,   -6.5746,   -4.4108,  131.5723,  -72.1210,   53.7189,   24.4455,   37.5000,87772.3672,   -0.8544,   39.8356,   -0.1433,    0.5726,2,36687,13
0,   -7.2984,   -3.7627,   -3.8074,    5.9703,    1.5808,  -53.3362,  -71.6486,   54.1050,   23.3730,   37.5000,87768.3359,   -0.4774,   39.8496,    0.4771,    0.5726,2,36896,13
0,   -6.7847,   -6.2977,   -2.3117,    0.2508,    2.5904,   33.7064,  -71.4693,   54.5082,   29.9642,   37.5000,87769.0469,   -0.5442,   39.8496,    0.7106,    0.5726,2,37105,13
0,   -6.4012,   -6.9122,   -2.1659,    9.8363,   -4.0413,   -1.3689,  -71.4198,   54.5203,   31.1056,   37.5000,87769.1641,   -0.5549,   39.8496,    0.6577,    0.5726,2,37314,13
0,   -7.8693,   -6.0255,   -2.6284,    1.6310,    0.3626,  -12.2510,  -70.3781,   54.4246,   28.7713,   37.5000,87770.0625,   -0.6388,   39.8543,    0.0168,    0.5726,2,37523,13
0,   -7.2167,   -6.2834,   -2.6418,  -17.8069,    7.3758,    5.8035,  -72.9313,   55.7151,   29.0184,   37.5000,87768.8594,   -0.5261,   39.8636,    0.3463,    0.5726,2,37732,13
0,   -7.4010,   -5.7810,   -2.1696,    2.3008,   -1.5007,    6.0536,  -72.7172,   55.5347,   29.1246,   37.5000,87770.4766,   -0.6772,   39.8777,    0.1431,    0.5726,2,37941,13
0,   -7.4937,   -5.7597,   -2.0753,    0.3094,    1.0753,   -5.4407,  -72.5311,   55.5922,   28.2536,   37.5000,87771.4922,   -0.7723,   39.8683,    0.0294,    0.5726,2,38150,13
0,   -6.7926,   -6.1630,   -2.3038,   -0.2281,    1.4721,    2.0177,  -72.3991,   55.8291,   28.0251,   37.5000,87769.9922,   -0.6326,   39.8777,   -0.0523,    0.5726,2,38359,13
0,   -8.0755,   -6.3296,   -2.5068,    0.4196,   -1.3840,    2.1350,  -72.3230,   55.9539,   29.1674,   37.5000,87767.2891,   -0.3795,   39.8870,    0.0322,    0.5726,2,38568,13
0,   -6.9142,   -6.5789,   -2.0987,   13.9787,   -6.7069,    8.1263,  -70.1347,   54.9316,   32.8919,   37.5000,87769.1484,   -0.5532,   39.8917,   -0.1266,    0.5726,2,38777,13
0,   -6.7454,   -6.4974,   -2.5608,   -1.4073,    0.6557,   -8.3729,  -70.2407,   54.8703,   31.1627,   37.5000,87767.3984,   -0.3896,   39.8963,    0.0532,    0.5726,2,38986,13
0,   -6.7777,   -6.8462,   -2.4211,   -2.4559,    2.9340,    5.9899,  -70.6313,   55.2453,   32.4020,   37.5000,87769.9688,   -0.6302,   39.8963,   -0.4571,    0.5726,2,39195,13
0,   -5.8888,   -6.3958,   -2.7527,    8.8558,   -0.9348,   79.2998,  -68.9977,   55.1256,   44.1005,   37.5000,87767.6250,   -0.4112,   39.9104,   -0.0472,    0.5726,2,39404,13
0,   -6.0389,   -6.7779,   -2.1652,    4.1421,    3.2269,   29.8556,  -68.6927,   55.6453,   47.9388,   37.5000,87769.2422,   -0.5624,   39.9104,   -0.5241,    0.5726,2,39613,13
0,   -6.8020,   -6.4962,   -2.2490,    4.6235,   -0.0408,    6.4736,  -67.6520,   55.8223,   47.5491,   37.5000,87771.0469,   -0.7305,   39.9104,   -0.1440,    0.5726,2,39822,13
0,   -6.7562,   -6.3413,   -2.0151,   -3.7579,    4.9706,    9.6529,  -68.2752,   56.7896,   48.6313,   37.5000,87771.0469,   -0.7305,   39.9197,   -0.2086,    0.5726,2,40031,13
0,   -7.5260,   -5.9741,   -1.8834,    4.3370,   -2.6991,    2.2358,  -67.8792,   56.5769,   47.3369,   37.5000,87769.7109,   -0.6053,   39.9244,    0.0449,    0.5726,2,40240,13
0,   -7.5413,   -4.9277,   -2.3234,   -3.2457,   -0.0902,  -37.6490,  -68.7048,   56.6358,   38.7067,   37.5000,87769.4141,   -0.5781,   39.9337,    0.1705,    0.5726,2,40449,13
0,   -7.4635,   -4.2640,   -2.0537,    1.1328,    2.7031,   12.8824,  -68.4672,   57.2543,   42.3181,   37.6250,87767.6094,   -0.4095,   39.9337,    0.0624,    0.5726,2,40658,13
0,   -7.1760,   -4.8841,   -1.6505,    6.6248,    3.2072,   32.6523,  -67.8799,   58.0109,   43.7214,   37.6250,87767.9688,   -0.4429,   39.9337,   -0.1192,    0.5726,2,40867,13
0,   -7.5057,   -5.2296,   -2.0348,   -2.0815,   -0.8479,  -28.2259,  -67.4854,   57.8575,   40.6080,   37.6250,87772.0391,   -0.8232,   39.9430,   -0.5829,    0.5726,2,41076,13
0,    9.5727,   -3.0978,    3.3991,  -56.2030,  -37.4418,  -59.7718,   15.4884,   13.7289,  170.6216,   37.7500,87761.5469,    0.7028,   40.1626,    0.0194,    0.8874,0,5039,13
0,   -9.2935,   -1.5423,   -0.0266,    2.5211,    1.0152,   -2.6547,   21.3265,   76.0324,    3.3823,   37.7500,87763.7500,    0.4968,   40.4008,    0.2692,    1.6199,0,10074,13
0,   -8.4257,   -4.1441,    0.2312,   -8.6387,   -6.9909,   23.5995,   19.6175,   75.9088,   21.0980,   37.8750,87759.8750,    0.8591,   40.4008,   -0.3328,    1.6199,0,15114,13
0,   -9.2234,   -1.3728,   -0.0595,    1.5311,   -0.5693,    1.8560,   19.0848,   76.5154,    4.1482,   37.7500,87762.2500,    0.6371,   40.5689,    0.2059,    1.6199,1,17787,13
0,   -9.2482,   -1.4156,   -0.0561,   -4.0044,   -0.0756,    2.5065,   18.4377,   76.5031,    4.5532,   37.8750,87763.4531,    0.5251,   40.3821,   -0.3078,    1.6199,1,17948,13
0,   -9.2376,   -1.3658,   -0.0434,    1.1985,    0.5609,    0.7177,   18.4305,   76.5970,    4.5772,   37.8750,87762.9922,    0.5676,   40.4755,   -0.0490,    1.6199,1,18061,13
0,   -9.1920,   -1.3752,   -0.0754,   -0.0556,    0.6369,   -2.2933,   18.4910,   76.5307,    4.3718,   37.8750,87762.2266,    0.6395,   40.5082,    0.9747,    1.6199,1,18174,13
0,   -8.8403,   -2.4809,    0.1398,  -80.7651,  -16.3952,  123.3822,    6.6473,   74.0888,   22.1819,   37.8750,87764.9531,    0.3847,   40.3868,   -0.0026,    1.6199,1,18383,13
0,   -9.5185,   -1.4348,    0.2472,    2.2205,    0.8518,   14.8676,    6.2138,   74.0614,   23.3395,   37.8750,87766.1016,    0.2772,   40.4662,   -0.5486,    1.6199,1,18496,13
0,   -8.9187,   -2.3728,   -0.7716,    6.2841,    3.6000,   20.8298,    8.6418,   75.1062,   22.4919,   37.8750,87762.3906,    0.6242,   40.5035,   -0.1228,    1.6199,1,18609,13
0,   -9.6183,   -3.8198,    0.6803,   19.7125,    6.8979,   19.7675,   16.0513,   77.7083,   17.6077,   37.8750,87759.5469,    0.8902,   40.3868,    0.8843,    1.6199,1,18818,13
0,  -10.0949,   -2.7058,   -0.0649,   -6.3330,   89.1587,  112.0827,   15.9965,   82.0338,   23.6637,   37.8750,87760.9375,    0.7601,   40.4568,    0.9995,    1.6199,1,18931,13
0,   -6.4205,   -3.1981,    2.4073,    4.3528,   10.4208,   -5.2972,   13.6975,   95.0099,   24.4967,   37.8750,87762.6328,    0.6015,   40.4942,   -0.0564,    1.6199,1,19044,13
0,   -7.0494,   -0.8591,    3.2074,   -7.4327,   -5.1142,   -2.7160,   13.3557,   94.4654,   24.1942,   37.8750,87758.8906,    0.9514,   40.3868,   -0.1467,    1.6199,1,19253,13
0,   -8.3296,   -3.1512,    2.3960,  -12.7106,   21.4059,  -19.7134,   10.9772,   90.9629,   21.5300,   37.8750,87760.6406,    0.7878,   40.4708,   -0.3340,    1.6199,1,19366,13
0,  -12.8059,   -3.5455,    1.6447,   25.4627,  -44.0155,  -33.1406,   14.2218,   83.2272,   21.0898,   37.8750,87759.0859,    0.9327,   40.5082,    0.3176,    1.6199,1,19479,13
0,  -10.8284,   -0.7048,    1.3681,    0.9706,    6.4205,  -14.3839,   15.9639,   86.0350,   17.8666,   37.8750,87759.6016,    0.8851,   40.4008,   -0.4216,    1.6199,1,19688,13
0,  -10.4129,    1.7424,    0.8602,    2.9707,  -14.9555,   -1.2418,   15.7439,   82.7284,   15.8748,   37.8750,87763.8125,    0.4911,   40.4755,   -0.8220,    1.6199,1,19801,13
0,   -8.4745,    4.5856,    0.4385,   61.9854,   -6.0027,   -5.9922,   21.4214,   80.6301,   14.7648,   37.8750,87763.3984,    0.5302,   40.5316,   -0.9733,    1.6199,1,19914,13
0,  -10.8965,    0.1727,    0.6249,   58.1894,    4.6937,  -10.4221,   34.4050,   80.6056,   11.2736,   37.8750,87761.7578,    0.6837,   40.3961,   -0.5712,    1.6199,1,20123,13
0,  -10.6023,   -1.1617,    0.6862,   62.8073,    3.2698,    6.2075,   40.7162,   81.2161,   10.6375,   37.8750,87761.5938,    0.6983,   40.4802,    0.4864,    1.6199,1,20236,13
0,  -10.0090,   -2.4735,    0.7264,   65.1168,   29.2878,   -4.6249,   48.4560,   84.2760,   10.1775,   37.8750,87761.2422,    0.7317,   40.5082,    0.5663,    1.6199,1,20349,13
0,   -6.8561,   -0.5968,    0.6834,   55.0383,   35.7665,  -41.2737,   59.6438,   92.5182,    4.1076,   37.8750,87763.1563,    0.5523,   40.3868,    0.3973,    1.6199,1,20558,13
0,   -7.8576,   -0.9867,    2.3061,   57.6976,    1.5163,  -26.4895,   65.1977,   93.9619,   -0.7847,   37.8750,87756.9219,    1.1353,   40.4708,    1.2595,    1.6199,1,20671,13
0,   -8.7567,   -0.4665,    2.7781,   25.0803,   -0.8745,    3.7970,   67.8446,   94.1318,   -4.5150,   37.8750,87757.1719,    1.1121,   40.5035,    1.0416,    1.6199,1,20784,13
0,  -10.4305,   -2.7492,    1.9839, -102.4651,  -56.5544,  -14.4137,   52.5916,   85.2776,   -6.0981,   37.8750,87760.9141,    0.7623,   40.3961,    0.6182,    1.6199,1,20993,13
0,   -8.7942,   -3.0757,   -0.0309, -170.9655, -128.5574,   36.6629,   41.9496,   78.5051,    4.4623,   37.8750,87760.2031,    0.8286,   40.4942,   -0.1667,    1.6199,1,21106,13
0,   -8.8612,   -2.6467,   -1.5578,  -66.8976,    2.7089, -126.0758,   35.6060,   73.2809,   -4.7581,   37.8750,87759.8984,    0.8569,   40.5362,    0.0311,    1.6199,1,21219,13
0,  -10.0062,   -3.4918,   -1.6818, -249.6772,   11.2935,   -1.2382,   -4.5006,   76.7695,   -2.8505,   37.8750,87754.4063,    1.3708,   40.4241,    0.7688,    1.6199,1,21428,13
0,  -10.9089,   -0.6180,   -1.5749,  -77.0331,    1.4462,  -60.1576,  -18.6379,   74.4016,   -3.6168,   37.8750,87760.2266,    0.8262,   40.5129,   -0.4023,    1.6199,1,21541,13
0,  -10.7264,   -2.3879,   -2.7786,  -96.4035,  -76.4732,  185.8719,  -28.1544,   66.0489,    7.7768,   37.8750,87757.4688,    1.0844,   40.5596,    0.0121,    1.6199,1,21654,13
0,   -7.4267,   -7.4500,   -2.2760,  -22.8474,  -21.7111,  -33.3554,  -32.8497,   62.8666,   10.0881,   37.8750,87758.2891,    1.0074,   40.4335,   -0.3402,    1.6199,1,21863,13
0,   -7.3753,   -4.2032,   -1.8383,  -10.0534,   -8.3067,   -3.2358,  -34.6287,   63.3100,    9.7565,   37.8750,87757.5781,    1.0737,   40.5176,    0.6636,    1.6199,1,21976,13
0,   -6.4870,   -5.0926,   -1.1010,   -7.0774,  -45.2966,  -74.9852,  -35.5871,   63.1504,    4.7507,   37.8750,87762.1406,    0.6474,   40.5643,   -0.6074,    1.6199,1,22089,13
0,   -9.3853,   -1.9390,   -0.7344,  -99.9973,  -52.9494,  -79.9423,  -50.7785,   53.4799,   -7.1424,   37.8750,87759.0000,    0.9412,   40.4615,   -0.1299,    1.6199,1,22298,13
0,  -12.0411,   -3.9863,   -3.6865,  -33.8211,  106.6040,  -61.6930,  -56.8765,   57.8722,  -13.4968,   37.8750,87762.4141,    0.6219,   40.5502,   -0.9228,    1.6199,1,22411,13
0,   -7.7299,   -1.9876,    1.9607,  -58.0515,   59.3357,  -39.7325,  -65.2800,   67.6182,  -12.5825,   37.8750,87759.4063,    0.9033,   40.5783,    0.3105,    1.6199,1,22524,13
0,   -7.5250,   -1.1963,    1.4534,  -45.6433,  -78.8326,   18.5490,  -74.7733,   57.3437,   -8.9244,   37.8750,87759.3203,    0.9112,   40.4755,   -0.2199,    1.6199,1,22733,13
0,   -8.0944,   -1.2112,   -0.9960,  -43.2865,  -37.1746,   53.7984,  -81.8519,   46.5969,   -1.4598,   37.8750,87759.8203,    0.8647,   40.5596,    0.3278,    1.6199,1,22846,13
0,   -8.1011,   -1.7301,   -1.6209,   -9.8073,  -34.8329,  -55.9963,  -82.8759,   41.1696,   -4.3769,   37.8750,87761.0703,    0.7476,   40.5970,   -0.3970,    1.6199,1,22959,13
0,   -8.8036,   -8.2400,    3.2996,  -19.1505,   62.0377,   90.7409,  -88.1662,   47.2167,    5.7788,   37.8750,87758.7734,    0.9627,   40.4895,    0.0739,    1.6199,1,23168,13
0,   -8.7542,   -5.4108,   -1.9926,   -8.6479,   -8.9244,  -10.1690,  -88.3140,   48.0911,    8.4104,   37.8750,87755.5859,    1.2604,   40.5736,    0.9077,    1.6199,1,23281,13
0,  -10.1954,   -4.5197,   -1.4511,  -27.2556,  -28.0549,   -5.7079,  -90.0024,   44.2758,    7.1817,   37.8750,87762.9297,    0.5738,   40.6203,   -0.0585,    1.6199,1,23394,13
0,   -5.9779,   -1.3357,   -0.7361,  -34.6539,  100.1950,   10.8336,  -95.7859,   60.3549,    8.3296,   37.8750,87761.5859,    0.6994,   40.4895,   -0.1683,    1.6199,1,23603,13
0,   -8.4034,   -1.4447,    0.5064,  -62.4362,  -54.6916,  -12.9969, -104.2285,   61.9680,    7.6402,   37.8750,87761.8984,    0.6706,   40.5783,   -1.0541,    1.6199,1,23716,13
0,   -6.7867,    0.1271,   -1.7709,   61.5474,  -19.2801,  -45.5860, -103.6213,   55.5723,    2.8888,   37.8750,87762.5469,    0.6094,   40.6250,   -0.1982,    1.6199,1,23829,13
0,   -9.9561,   -1.4454,    1.5686,   17.4721,   32.2424,    5.8033,  -98.1110,   66.8812,    3.3498,   37.8750,87759.5938,    0.8857,   40.4989,   -0.1372,    1.6199,1,24038,13
0,  -10.4079,    0.7957,    0.7756,  -42.7774,   18.5006,   28.7386,  -99.4300,   69.2337,    4.5867,   37.8750,87761.3984,    0.7164,   40.6016,   -0.1990,    1.6199,1,24151,13
0,   -8.7690,   -0.5938,    1.9066,  -10.0500,  -38.5586,    3.2335, -101.4274,   65.7069,    5.3561,   37.8750,87761.7500,    0.6841,   40.6296,    0.1011,    1.6199,1,24264,13
0,   -8.4162,   -0.7533,   -1.4234,  -44.2563,   -5.6638,    8.5243, -109.5520,   59.5440,    5.5940,   38.0000,87760.6563,    0.7861,   40.5129,   -0.0108,    1.6199,1,24473,13
0,  -11.8441,   -1.5003,    3.9394,   27.7194,   36.0151,  -11.1022, -108.6450,   61.6129,    6.1101,   38.0000,87762.7656,    0.5890,   40.5970,   -0.2264,    1.6199,1,24586,13
0,   -8.3144,   -4.0115,    0.6211,   25.1211,  -48.8281,  -35.3482, -104.3516,   60.4593,    3.7738,   38.0000,87762.8438,    0.5822,   40.6156,   -0.4222,    1.6199,1,24699,13
0,   -8.5603,    2.4394,   -8.7377,   -1.1579,    0.9474,  -30.0852, -106.0512,   61.4097,   -2.3002,   38.0000,87760.0000,    0.8477,   40.5035,   -0.2505,    1.6199,1,24908,13
0,   -9.7968,    0.9649,   -1.9607,   -0.8701,   -1.9996,   -2.8174, -106.0198,   60.9875,   -3.3426,   38.0000,87763.0156,    0.5659,   40.5970,   -0.3792,    1.6199,1,25021,13
0,   -9.4234,    0.5203,   -1.1420,   -0.6475,   -0.7717,    2.2673, -106.1099,   60.8816,   -2.9681,   38.0000,87761.6953,    0.6893,   40.6250,    0.1072,    1.6199,1,25134,13
0,   -9.6995,    0.3557,   -1.3003,    2.6432,    4.9840,   -1.9360, -105.7982,   61.3553,   -3.1824,   38.0000,87761.5625,    0.7017,   40.5129,   -0.2156,    1.6199,1,25343,13
0,   -9.5909,    0.7362,   -1.1254,    0.9549,    1.6174,    1.9282, -105.4774,   61.7018,   -3.4139,   38.0000,87764.3281,    0.4431,   40.6063,   -0.2119,    1.6199,1,25456,13
0,   -9.3675,    1.1490,   -0.7407,   -2.7241,   -1.2348,    0.4885, -105.6055,   61.3609,   -3.0438,   38.0000,87761.5078,    0.7068,   40.6437,   -0.1040,    1.6199,1,25569,13
0,   -9.3573,   -0.3920,   -1.1875,   -7.7671,   -3.5473,   12.8866, -106.6922,   60.7538,   -0.4150,   38.0000,87761.3125,    0.7255,   40.5176,   -0.1630,    1.6199,1,25778,13
0,   -9.5265,   -0.7321,   -0.8484,    7.8956,   -8.1592,    5.7631, -106.2056,   60.4243,    0.1705,   38.0000,87763.1797,    0.5506,   40.6016,    0.1489,    1.6199,1,25891,13
0,   -8.6910,   -1.0120,   -0.9836,    1.3089,   -1.8770,    9.6531, -106.2701,   59.8822,    0.6808,   38.0000,87759.9453,    0.8528,   40.6437,    0.3351,    1.6199,1,26004,13
0,   -9.1211,    0.1060,   -1.5428,    6.5130,   -0.9572,    8.8692, -105.0841,   59.6264,    2.5169,   38.0000,87761.7734,    0.6819,   40.5222,   -0.0502,    1.6199,1,26213,13
0,   -9.4563,   -0.8435,   -1.9471,    1.2255,   -4.1757,   17.6703, -104.8515,   59.3732,    4.5638,   38.0000,87762.8750,    0.5794,   40.6110,   -0.1174,    1.6199,1,26326,13
0,   -9.2280,   -1.7589,   -1.2334,   -7.1221,   -4.4422,   13.4918, -105.9592,   58.6351,    4.9393,   38.0000,87759.7578,    0.8704,   40.6437,   -0.1872,    1.6199,1,26439,13
0,  -10.0102,   -0.8081,   -2.0594,    1.0147,   -0.5801,  -12.9410, -105.8622,   58.4172,    4.2360,   38.0000,87758.4688,    0.9904,   40.5269,    0.2397,    1.6199,1,26648,13
0,  -10.9021,   -0.2321,   -2.8359,   -6.7141,   -8.9950,   14.2990, -106.2054,   57.8856,    4.5573,   38.0000,87759.9219,    0.8546,   40.6250,    0.3617,    1.6199,1,26761,13
0,   -7.4782,   -3.9461,    0.0705,   -1.9511,    1.9831,   12.7391, -106.9010,   57.4209,    5.8851,   38.0000,87759.5625,    0.8885,   40.6577,    0.1017,    1.6199,1,26874,13
0,   -9.6844,   -0.9746,   -1.5582,    1.8696,    3.4087,    8.5131, -106.1756,   57.7377,    6.4773,   38.1250,87762.1875,    0.6429,   40.5316,   -0.0991,    1.6199,1,27083,13
0,  -10.3192,   -1.3160,   -1.7562,    2.8332,    0.1135,    5.6510, -105.9546,   57.8128,    6.9377,   38.1250,87761.2344,    0.7322,   40.6250,    0.4017,    1.6199,1,27196,13
0,   -9.2417,   -0.7385,   -2.2002,    2.8404,    3.6818,    2.3105, -105.4209,   57.4628,    6.0009,   38.1250,87762.3750,    0.6253,   40.6623,    0.0754,    1.6199,1,27309,13
0,   -8.2460,    0.7946,   -0.3507,   -6.7837,   -0.9908,    0.3227, -106.5117,   57.4566,    6.0419,   38.1250,87762.5391,    0.6105,   40.5456,    0.3321,    1.6199,1,27518,13
0,   -8.0646,   -2.0879,   -1.8775,    3.7611,    0.3137,   52.0097, -106.7190,   57.4893,    7.7672,   38.1250,87763.5000,    0.5206,   40.6343,   -0.0211,    1.6199,1,27631,13
0,   -9.1005,   -1.8861,   -1.2973,   11.0567,    0.5246,   16.2767, -105.0146,   56.6111,    9.0045,   38.1250,87762.4297,    0.6208,   40.6670,    0.1813,    1.6199,1,27744,13
0,   -9.3539,   -1.8994,   -1.6195,    3.2717,    0.2239,    9.0185, -104.0723,   56.6739,   10.9970,   38.1250,87759.5859,    0.8863,   40.5502,    0.4988,    1.6199,1,27953,13
0,   -8.6394,   -1.7981,   -1.2489,    3.9812,   -2.9163,  -11.7210, -103.5589,   56.3487,    9.7189,   38.1250,87762.2422,    0.6378,   40.6437,    0.1209,    1.6199,1,28066,13
0,  -10.2137,   -2.0929,   -1.6381,   -2.7915,    5.0675,    0.3349, -103.0081,   56.8665,   10.0056,   38.1250,87762.8359,    0.5828,   40.6763,   -0.0251,    1.6199,1,28179,13
0,   -9.3955,   -3.1642,   -2.1897,    7.6439,   -3.6918,   14.1815, -101.7326,   56.4919,   14.7720,   38.1250,87759.6953,    0.8766,   40.5643,   -0.2063,    1.6199,1,28388,13
0,   -9.2146,   -2.5111,   -1.4829,   -0.9128,    1.1278,    9.3808, -101.6440,   56.5693,   15.7006,   38.1250,87766.9688,    0.1962,   40.6483,   -1.1544,    1.6199,1,28501,13
0,   -8.4636,   -2.9260,   -1.5703,   -1.7503,   -3.1257,    1.4847, -101.6479,   56.2722,   16.4703,   38.1250,87760.1328,    0.8353,   40.6717,   -0.0214,    1.6199,1,28614,13
0,   -9.1400,   -1.9568,   -1.8248,    3.6735,   -3.5675,   10.5332, -101.2316,   55.6802,   17.4685,   38.1250,87759.7500,    0.8715,   40.5689,   -0.3397,    1.6199,1,28823,13
0,   -8.3261,   -1.8084,   -1.1294,    2.5375,   -5.1136,    2.3959, -100.7269,   55.0596,   18.8390,   38.1250,87762.4063,    0.6225,   40.6530,    0.6857,    1.6199,1,28936,13
0,   -9.4224,   -2.8951,   -2.4223,   -3.7275,   -2.9477,   -1.7833, -101.0549,   55.0438,   18.8220,   38.1250,87763.3047,    0.5386,   40.6904,   -0.4803,    1.6199,1,29049,13
0,   -8.5332,   -3.4170,   -1.6490,    2.5307,    0.8215,    8.2788, -102.1498,   55.8551,   21.0820,   38.1250,87761.4141,    0.7153,   40.5689,   -0.3142,    1.6199,1,29258,13
0,   -8.9000,   -2.8383,   -1.6396,    0.9794,   -4.3092,   -3.8498, -102.0724,   55.3828,   21.1445,   38.1250,87761.3125,    0.7255,   40.6530,    0.1144,    1.6199,1,29371,13
0,   -8.8555,   -3.1714,   -1.6818,    0.9151,   -1.2904,    0.0011, -102.0791,   55.1928,   21.3256,   38.1250,87763.3594,    0.5336,   40.6950,   -0.1704,    1.6199,1,29484,13
0,   -8.6651,   -2.8414,   -1.8557,    4.0151,   -2.1697,   -4.5100, -101.4877,   54.8463,   20.6225,   38.1250,87762.2578,    0.6367,   40.5783,   -0.1253,    1.6199,1,29693,13
0,   -9.0068,   -2.6734,   -1.7927,   -2.7777,    1.5544,   -3.2526, -101.5820,   54.8808,   19.6089,   38.1250,87762.8125,    0.5851,   40.6670,   -0.2771,    1.6199,1,29806,13
0,   -8.6124,   -2.8680,   -1.8204,    4.8485,   -3.0201,    7.8295, -101.1920,   54.7201,   20.2885,   38.1250,87759.1484,    0.9271,   40.6904,    0.8493,    1.6199,1,29919,13
0,   -8.8865,   -2.6392,   -1.8406,    2.8166,   -1.4301,   -0.1726, -100.4988,   54.4613,   20.9240,   38.1250,87762.2266,    0.6395,   40.5876,    0.3624,    1.6199,1,30128,13
0,   -8.6699,   -2.9724,   -2.1795,    1.3973,   -2.3200,   -1.7419, -100.4231,   54.3137,   20.8649,   38.1250,87762.6250,    0.6026,   40.6763,    0.3703,    1.6199,1,30241,13
0,   -9.1862,   -2.9713,   -1.9412,   -0.9142,   -1.7417,   -9.2919, -100.4933,   54.2441,   20.1929,   38.1250,87759.9063,    0.8563,   40.7044,    0.0046,    1.6199,1,30354,13
0,   -8.3123,   -1.2793,   -1.4611,    8.4110,    2.9345,   -5.3109,  -99.5502,   54.4857,   17.9252,   38.1250,87764.3359,    0.4424,   40.5923,    0.0168,    1.6199,1,30563,13
0,   -9.1520,   -1.1560,   -2.2663,   10.7992,    2.5991,   -2.6868,  -98.3487,   54.2281,   17.6674,   38.1250,87760.0234,    0.8455,   40.6763,    0.8571,    1.6199,1,30676,13
0,   -7.9566,    4.2583,    2.3085,   -2.2875,   10.1192,  -51.7185,  -97.9212,   54.7360,   15.2040,   38.1250,87766.9297,    0.1996,   40.7137,   -0.7972,    1.6199,1,30789,13
0,  -10.2635,   -2.5208,   -2.2778,    2.0103,    6.9033,    2.2007,  -97.4315,   56.0880,   14.0948,   38.1250,87763.7891,    0.4933,   40.6016,    0.1297,    1.6199,1,30998,13
0,   -8.7917,   -2.9753,   -3.2317,    8.2107,    4.4980,  -20.0024,  -96.9704,   56.5892,   13.1312,   38.1250,87763.4922,    0.5212,   40.6904,   -0.6648,    1.6199,1,31111,13
0,  -12.1530,   -1.8575,   -0.7994,   34.9886,   12.4637,  -40.5375,  -93.6122,   59.4031,    8.5265,   38.1250,87762.4219,    0.6213,   40.7231,    0.9050,    1.6199,1,31224,13
0,   -7.9137,    0.6529,   -5.9517,   36.7249,   12.2919,  -23.0543,  -85.6515,   61.2365,    4.0487,   38.1250,87765.1484,    0.3666,   40.6016,    0.1517,    1.6199,1,31433,13
0,   -8.8543,   -0.9750,   -3.4034,   52.8939,   30.3876,  -51.9392,  -80.3811,   64.1529,   -0.1843,   38.1250,87764.2031,    0.4549,   40.6997,    0.1272,    1.6199,1,31546,13
0,  -10.1310,   -1.6138,    0.8963,   63.5833,   -7.3975,   10.6314,  -73.6112,   64.6914,   -0.9508,   38.1250,87761.9297,    0.6672,   40.7371,    0.2290,    1.6199,1,31659,13
0,   -4.6094,    1.4733,    0.7379,   20.3905,   60.4712,   38.0559,  -66.6756,   72.3191,   10.5738,   38.1250,87760.6406,    0.7878,   40.6156,    0.3651,    1.6199,1,31868,13
0,   -9.4934,   -0.6144,    1.9671,   -2.8996,   51.7697,   20.6807,  -66.5153,   78.9603,   12.7070,   38.1250,87767.9219,    0.1074,   40.7090,   -0.8815,    1.6199,1,31981,13
0,  -10.3856,   -2.3110,   -0.3479,   -0.5799,  -64.4242,   45.0377,  -66.9689,   73.8308,   16.0980,   38.1250,87762.9922,    0.5676,   40.7417,   -0.3180,    1.6199,1,32094,13
0,   -9.7667,   -2.0346,   -0.1174,   -1.4076,   -0.7111,  -11.4646,  -67.8326,   72.8309,   15.1424,   38.1250,87763.3438,    0.5353,   40.6250,   -0.2387,    1.6199,1,32303,13
0,   -9.4951,   -1.1899,   -0.0282,   -4.9182,    3.0009, -147.3218,  -68.0487,   73.0890,    3.0717,   38.1250,87766.1172,    0.2754,   40.7090,    0.6065,    1.6199,1,32416,13
0,   -8.7784,    3.0300,   -0.0328,   -5.1022,    3.3615, -184.2711,  -68.6448,   73.5580,  -17.4690,   38.1250,87764.4922,    0.4277,   40.7464,   -0.1430,    1.6199,1,32529,13
0,   -9.8668,    3.2433,   -2.8941,   20.3885,  -22.5205,   73.3456,  -66.0265,   70.5803,  -13.2763,   38.1250,87762.9609,    0.5704,   40.6390,   -0.0832,    1.6199,1,32738,13
0,   -9.5368,    4.1301,    0.7136,   40.1398,   69.5781,   14.2255,  -62.2362,   75.7482,   -9.9212,   38.1250,87767.2344,    0.1713,   40.7231,   -0.3276,    1.6199,1,32851,13
0,   -8.2342,    3.1288,    4.5039,   68.0042,  112.8929,  -37.5389,  -55.2597,   87.7791,  -13.6909,   38.1250,87760.8906,    0.7646,   40.7511,    0.5071,    1.6199,1,32964,13
0,   -6.3174,    1.8907,    3.4486,   78.9582,   66.2287,    8.1276,  -38.5005,  104.6740,  -15.1153,   38.1250,87762.0547,    0.6558,   40.6437,    0.2613,    1.6199,1,33173,13
0,   -9.2089,    2.2389,    4.6768,   48.2563,  -20.9787,  -40.8080,  -31.9441,  105.1836,  -18.5063,   38.1250,87761.7109,    0.6876,   40.7277,    1.1737,    1.6199,1,33286,13
0,   -7.4740,    1.9204,    6.3341,   26.7206,  -31.7839,   -9.0918,  -28.4266,  101.1878,  -18.4394,   38.1250,87761.6484,    0.6938,   40.7604,    0.2653,    1.6199,1,33399,13
0,   -6.9518,    1.5561,    8.0462,    7.1821,  -13.9642,  -70.0277,  -26.3095,   98.0405,  -32.2701,   38.1250,87765.5781,    0.3264,   40.6530,   -0.0492,    1.6199,1,33608,13
0,   -6.8502,    3.2763,    6.0770,   -8.5873,  -31.0521,  -73.0358,  -26.8887,   94.9855,  -40.7194,   38.1250,87761.8203,    0.6773,   40.7371,    0.3828,    1.6199,1,33721,13
0,   -6.4292,    5.6304,    5.1003,   -8.0845,  -10.6658,  -58.4219,  -27.5524,   93.4594,  -46.4650,   38.1250,87762.0547,    0.6558,   40.7651,    0.2935,    1.6199,1,33834,13
0,   -4.3066,    5.4855,    5.4825,    1.3115,  -19.3440,  -18.1060,  -28.1359,   89.7276,  -53.1045,   38.1250,87762.6250,    0.6026,   40.6437,    0.5064,    1.6199,1,34043,13
0,   -5.4569,    4.7596,    5.3267,   15.0472,  -17.9805,  -10.6434,  -26.9979,   87.7604,  -55.1010,   38.1250,87763.7891,    0.4933,   40.7464,   -0.4072,    1.6199,1,34156,13
0,   -5.8309,    5.4483,    5.4994,   32.0955,   -4.0138,   22.7487,  -23.6591,   86.8067,  -52.6582,   38.1250,87764.9766,    0.3824,   40.7744,   -0.6982,    1.6199,1,34269,13
0,   -5.8615,    4.0439,    6.6024,   35.8732,   12.4420,   67.0428,  -16.4190,   88.7115,  -40.9446,   38.1250,87759.8672,    0.8597,   40.6577,    0.0624,    1.6199,1,34478,13
0,   -4.8138,    1.9144,    5.3864,   35.7084,   -0.3941,   50.3441,  -12.2040,   88.6469,  -33.3864,   38.1250,87764.1406,    0.4605,   40.7464,   -0.3364,    1.6199,1,34591,13
0,   -6.8168,    2.1842,    5.8204,    3.4438,  -25.6941,  -40.8936,  -10.3756,   86.9945,  -39.1941,   38.1250,87765.8828,    0.2982,   40.7791,   -0.4314,    1.6199,1,34704,13
0,   -8.9714,    1.8021,    5.3279,   -5.3750,  -30.8081,   70.9487,  -11.5910,   80.5581,  -26.9904,   38.1250,87763.9375,    0.4792,   40.6717,   -0.6371,    1.6199,1,34913,13
0,   -9.9492,    0.8040,    4.8153,  -15.3036,  -56.3410,  113.1646,  -13.1425,   75.2217,  -16.6536,   38.1250,87770.3672,   -0.1213,   40.7557,   -1.2513,    1.6199,1,35026,13
0,   -7.2889,   -2.3907,    3.5146,  -22.3916,  -53.4370,   68.7196,  -15.4670,   68.3838,   -7.1038,   38.1250,87765.9844,    0.2879,   40.7791,   -0.3638,    1.6199,1,35139,13
0,   -9.4578,   -3.0667,    1.4870,  -23.2755,  -58.2885,   41.6337,  -20.7064,   57.5265,    1.8857,   38.1250,87763.7422,    0.4974,   40.6763,   -0.5159,    1.6199,1,35348,13
0,   -9.6207,   -2.6638,    1.7483,  -33.8572,   -8.9263,   -3.9777,  -24.3129,   54.8888,    0.7076,   38.1250,87767.3594,    0.1600,   40.7651,    0.0983,    1.6199,1,35461,13
0,   -7.9770,   -2.1611,    3.8694,  -28.5368,   31.7209,  -30.8311,  -27.9006,   57.5884,   -2.2860,   38.1250,87765.3281,    0.3497,   40.7931,   -0.1477,    1.6199,1,35574,13
0,   -7.5854,   -2.9555,    2.3058,    9.5935,   15.1383,   38.4714,  -27.1355,   62.0972,    2.9455,   38.1250,87763.1953,    0.5489,   40.6810,   -0.1118,    1.6199,1,35783,13
0,   -8.9751,   -3.0907,    2.5598,   13.4893,  -23.3866,   10.8164,  -26.0139,   60.4295,    3.6170,   38.2500,87764.9531,    0.3847,   40.7604,    0.2642,    1.6199,1,35896,13
0,   -9.1682,   -3.4350,    2.7987,   22.2847,  -33.3999,   22.8608,  -23.8016,   56.4783,    5.9553,   38.2500,87767.0469,    0.1889,   40.8024,   -0.2935,    1.6199,1,36009,13
0,   -7.8195,   -4.1938,    1.7426,   19.1291,   -8.0073,   13.4314,  -19.3870,   54.0334,    8.5024,   38.2500,87766.6641,    0.2250,   40.6857,   -0.3581,    1.6199,1,36218,13
0,   -8.2285,   -4.6509,    1.4507,   24.7581,   -4.4915,   16.3657,  -17.0662,   53.4425,   10.3139,   38.2500,87766.2656,    0.2619,   40.7791,    0.0170,    1.6199,1,36331,13
0,   -7.9547,   -4.9466,    0.9456,   22.1154,   20.4160,   13.7436,  -14.3947,   54.9090,   12.0721,   38.2500,87764.3438,    0.4418,   40.8071,    0.6574,    1.6199,1,36444,13
0,   -7.1505,   -4.1503,    1.2280,  -38.5316,   -8.3590,  -31.4498,  -19.2455,   53.9607,    7.9785,   38.2500,87769.4766,   -0.0381,   40.6904,    0.2560,    1.6199,1,36653,13
0,   -8.8350,   -5.8181,    2.2514,  -19.5098,   -0.1602,  -24.9142,  -22.8268,   53.9323,    5.3318,   38.2500,87767.2734,    0.1679,   40.7791,    0.3947,    1.6199,1,36766,13
0,   -8.5315,   -4.4677,    1.4597,   21.4139,   -2.7065,   16.3534,  -21.3690,   53.6108,    7.3318,   38.2500,87768.0547,    0.0949,   40.8165,   -0.2147,    1.6199,1,36879,13
0,   -8.4788,   -3.6750,    1.9969,    2.5867,   10.1784,   -5.9225,  -20.1239,   55.5484,    8.4386,   38.2500,87766.8203,    0.2098,   40.7090,    0.2165,    1.6199,1,37088,13
0,   -7.5997,   -4.5874,    1.4220,    3.8084,   37.5505,  -29.4198,  -19.9752,   59.2572,    5.4723,   38.2500,87765.8281,    0.3032,   40.7838,    0.0125,    1.6199,1,37201,13
0,   -6.9895,   -4.0851,    1.4311,   22.3868,   10.2270,    4.0045,  -17.2349,   61.7014,    5.2939,   38.2500,87764.8047,    0.3983,   40.8258,    0.4023,    1.6199,1,37314,13
0,   -8.1581,   -6.3533,    1.7009,   24.9848,   22.9327,   10.2337,  -12.7635,   65.1256,    7.4047,   38.2500,87763.1641,    0.5517,   40.7090,    0.2289,    1.6199,1,37523,13
0,   -6.9067,   -4.2798,    1.8495,   -2.9489,  -15.9598,   29.6630,  -11.9591,   64.3953,    9.8293,   38.2500,87767.7891,    0.1192,   40.7978,   -0.5751,    1.6199,1,37636,13
0,   -7.7119,   -5.8512,    3.6145,    3.8409,  -21.5833,  -11.5512,  -11.9375,   61.7090,    8.7955,   38.2500,87764.2578,    0.4498,   40.8351,   -0.1934,    1.6199,1,37749,13
0,   -7.6413,   -5.3934,    2.5924,   -2.1813,   10.1862,   -6.6238,  -12.2138,   63.7156,    7.1154,   38.2500,87763.2109,    0.5478,   40.7184,   -0.0308,    1.6199,1,37958,13
0,   -7.4357,   -5.1753,    2.7425,  -12.6129,    8.9023,  -19.8196,  -13.5695,   64.8696,    5.6792,   38.2500,87765.0859,    0.3723,   40.8118,    0.4750,    1.6199,1,38071,13
0,   -7.6871,   -4.8859,    2.6701,   -3.2308,   -5.4053,  -33.7020,  -14.5940,   64.6774,    3.4605,   38.2500,87764.1172,    0.4628,   40.8351,    0.0688,    1.6199,1,38184,13
0,   -8.3185,   -4.1162,    3.0057,   -6.5624,    3.9440,  -25.2395,  -15.2965,   64.9595,   -1.2523,   38.2500,87764.9297,    0.3870,   40.7184,   -0.0955,    1.6199,1,38393,13
0,   -7.8402,   -3.5245,    2.7799,   -3.0275,   -4.7883,  -10.5011,  -15.7458,   64.7698,   -2.0304,   38.2500,87763.6875,    0.5025,   40.8071,    0.4924,    1.6199,1,38506,13
0,   -8.5186,   -3.4399,    2.6033,    3.2456,  -15.3850,   -5.4085,  -15.4354,   63.3500,   -3.7766,   38.2500,87767.7813,    0.1204,   40.8445,   -0.2685,    1.6199,1,38619,13
0,   -8.3377,   -3.6672,    2.2762,    4.9356,    3.5976,   -1.3878,  -14.2585,   63.6738,   -3.2732,   38.2500,87763.4297,    0.5274,   40.7277,    0.2584,    1.6199,1,38828,13
0,   -8.2815,   -3.9604,    3.2583,    4.1175,    7.2653,    4.1737,  -13.8872,   64.5029,   -2.5371,   38.2500,87763.3359,    0.5358,   40.8211,    0.0073,    1.6199,1,38941,13
0,   -8.3110,   -3.8699,    2.2727,   -0.3438,   -3.3488,   12.6048,  -13.6243,   64.3901,   -1.2943,   38.2500,87766.0781,    0.2795,   40.8538,    0.2050,    1.6199,1,39054,13
0,   -8.0211,   -4.2762,    2.4803,    1.3706,   -3.8810,    1.6634,  -13.6325,   63.3609,    0.3436,   38.2500,87765.0938,    0.3716,   40.7464,   -0.2052,    1.6199,1,39263,13
0,   -8.0252,   -4.1910,    2.4945,    2.9869,   -0.5830,   -2.1093,  -13.2496,   63.2125,    0.0609,   38.2500,87767.4609,    0.1503,   40.8211,   -0.6423,    1.6199,1,39376,13
0,   -8.2978,   -3.8647,    2.4912,    7.2048,   -0.6538,  -11.5625,  -12.6194,   63.2437,   -1.6040,   38.2500,87766.0781,    0.2795,   40.8585,   -0.0110,    1.6199,1,39489,13
0,   -8.0977,   -4.1226,    2.3583,   -0.1921,   -0.6338,   -1.7056,  -12.2144,   62.9754,   -2.0858,   38.2500,87765.4453,    0.3383,   40.7464,    0.2296,    1.6199,1,39698,13
0,   -8.4633,   -4.0858,    2.3059,    0.4907,   -0.7409,   -3.3527,  -12.2160,   62.7804,   -2.6877,   38.2500,87767.4609,    0.1503,   40.8258,    0.1194,    1.6199,1,39811,13
0,   -8.3526,   -3.7524,    2.3434,   -2.6005,    0.9998,    1.1938,  -12.6211,   62.8084,   -2.4906,   38.2500,87767.4453,    0.1520,   40.8725,   -0.1103,    1.6199,1,39924,13
0,   -8.2685,   -4.1075,    2.4801,   -1.4571,    3.3256,    2.0108,  -12.8138,   63.5403,   -2.3061,   38.2500,87765.6016,    0.3242,   40.7651,   -0.1996,    1.6199,1,40133,13
0,   -8.1336,   -3.9926,    2.5596,  -11.4533,    1.2138,    0.9911,  -13.7898,   63.8115,   -2.4154,   38.2500,87766.6094,    0.2302,   40.8445,    0.1598,    1.6199,1,40246,13
0,   -8.4990,   -5.5102,    2.4129,    4.9010,    0.9424,   10.8445,  -14.4993,   64.2729,   -2.4503,   38.2500,87768.1484,    0.0864,   40.8772,   -0.0969,    1.6199,1,40359,13
0,   -7.6351,   -3.4450,    2.2844,  -11.3799,    6.8787,   -0.1509,  -16.3373,   65.0614,   -1.6556,   38.2500,87765.0547,    0.3751,   40.7651,    0.2275,    1.6199,1,40568,13
0,   -8.0852,   -3.6448,    2.9293,   -9.5004,    2.5568,   10.6389,  -17.4874,   65.4764,   -1.0601,   38.2500,87766.4141,    0.2482,   40.8398,    0.1179,    1.6199,1,40681,13
0,   -8.3165,   -3.7021,    2.9323,   -7.8532,   -3.6705,    2.0295,  -18.5981,   65.3532,   -1.0636,   38.2500,87766.7031,    0.2211,   40.8772,    0.3596,    1.6199,1,40794,13
0,   -8.1172,   -3.6596,    3.1384,  -10.6200,    1.2440,    1.8274,  -20.7103,   65.3074,   -0.5821,   38.2500,87766.5625,    0.2342,   40.7744,   -0.2952,    1.6199,1,41003,13
0,   -8.1210,   -3.4650,    3.3518,   -2.3002,    1.5812,    1.2468,  -21.3802,   65.6208,   -0.5848,   38.2500,87768.9766,    0.0088,   40.8538,   -0.4648,    1.6199,1,41116,13
0,   -8.0106,   -3.7044,    2.9371,    1.7563,   -1.8797,    7.2629,  -21.3706,   65.5973,    0.0011,   38.2500,87764.0469,    0.4697,   40.8865,    0.2291,    1.6199,1,41229,13
0,   -8.4346,   -3.9652,    3.1694,    1.9726,    6.3438,    1.3378,  -20.8478,   66.3724,    0.2293,   38.2500,87764.8594,    0.3932,   40.7791,    0.3154,    1.6199,1,41438,13
0,   -8.2135,   -4.0257,    3.4060,    1.2216,   10.4813,    0.9538,  -20.8151,   67.6207,    0.3779,   38.2500,87766.6250,    0.2285,   40.8585,    0.4335,    1.6199,1,41551,13
0,   -7.9748,   -3.9724,    3.3684,   -4.6941,   11.7715,    0.9060,  -21.1438,   68.8026,    0.5170,   38.2500,87767.8125,    0.1175,   40.9005,   -0.4836,    1.6199,1,41664,13
0,   -7.9399,   -3.8513,    3.8323,    5.6912,   14.3565,    2.2545,  -20.3626,   71.7014,    0.7208,   38.2500,87767.7813,    0.1204,   40.7884,   -0.0834,    1.6199,1,41873,13
0,   -7.2672,   -5.2863,    4.3665,   -7.2520,   23.1742,   19.4303,  -20.3300,   73.8924,    2.6573,   38.2500,87764.6328,    0.4147,   40.8632,    0.7466,    1.6199,1,41986,13
0,   -6.7969,   -4.1103,    4.5593,   -1.9711,   16.8779,    0.7807,  -20.7160,   76.1431,    2.5831,   38.2500,87763.5547,    0.5154,   40.9052,    1.1234,    1.6199,1,42099,13
0,   -6.6047,   -4.9291,    4.7918,  -17.2130,   14.0255,    7.3681,  -23.4572,   79.4339,    3.2874,   38.3750,87761.7109,    0.6876,   40.7884,    0.8347,    1.6199,1,42308,13
0,   -7.7564,   -3.7618,    6.5717,   -8.2453,   24.3366,   15.0856,  -23.8462,   81.8643,    4.5573,   38.3750,87766.1875,    0.2692,   40.8725,   -0.4059,    1.6199,1,42421,13
0,   -6.7321,   -4.4895,    7.3339,  -27.6435,   51.4718,   27.4275,  -26.1420,   86.9043,    7.3062,   38.3750,87765.1641,    0.3654,   40.9099,   -0.5188,    1.6199,1,42534,13
0,   -3.9627,   -2.7258,    6.2330,  -65.2641,   72.1405,   -0.4039,  -38.2737,  101.1913,    7.9480,   38.3750,87763.6719,    0.5041,   40.7931,   -0.3938,    1.6199,1,42743,13
0,   -2.8801,   -1.8498,    7.1365,  -55.0016,   67.3849,   -3.5533,  -45.1803,  109.3860,    7.6406,   38.3750,87763.6406,    0.5075,   40.8912,    0.4067,    1.6199,1,42856,13
0,   -1.6199,   -1.3482,    7.8507,  -36.5354,   41.9667,   22.7122,  -49.6625,  114.7465,    8.9696,   38.3750,87765.9219,    0.2941,   40.9145,   -0.0129,    1.6199,1,42969,13
0,   -1.3152,   -0.3772,    9.6628,   -6.4938,   10.9108,    6.4668,  -52.3775,  118.2484,   10.7596,   38.3750,87760.6641,    0.7855,   40.8071,    0.4127,    1.6199,1,43178,13
0,   -0.8073,    0.2045,   10.7246,    2.1172,   25.8302,  -30.1077,  -52.2434,  119.9568,    7.8898,   38.3750,87766.1484,    0.2726,   40.8818,   -0.6365,    1.6199,1,43291,13
0,   -0.6967,   -0.5232,    9.6223,    2.4902,   10.3600,  -12.7959,  -51.9608,  121.2232,    6.3231,   38.3750,87764.4688,    0.4294,   40.9192,   -0.0698,    1.6199,1,43404,13
0,   -0.4084,   -0.5872,    9.6145,   -4.8926,   14.8161,   18.8282,  -52.7556,  123.9636,    8.6408,   38.3750,87762.2266,    0.6395,   40.8024,   -0.4408,    1.6199,1,43613,13
0,    0.0063,   -0.8181,    9.7287,  -10.8455,    9.8104,    8.1382,  -54.0119,  125.2197,   11.3178,   38.3750,87764.0469,    0.4697,   40.9005,    0.0756,    1.6199,1,43726,13
0,    0.4714,   -0.1825,    9.7694,  -17.3823,    5.4475,   41.5040,  -55.7444,  125.9934,   15.4714,   38.3750,87763.6250,    0.5092,   40.9379,   -0.0385,    1.6199,1,43839,13
0,    0.2449,    0.6970,    9.8019,    0.3066,   -5.1224,  -56.6979,  -56.2310,  125.3711,    6.6142,   38.3750,87762.6328,    0.6015,   40.8165,   -0.1738,    1.6199,1,44048,13
0,   -0.3311,    0.3308,    9.6916,    8.4378,   -8.1823,  -89.2739,  -55.5016,  124.4492,   -0.1208,   38.3750,87763.5000,    0.5206,   40.8959,    0.1131,    1.6199,1,44161,13
0,   -0.2614,    0.4361,    9.7578,   20.8816,   -8.6682, -151.9807,  -53.2610,  123.3317,  -16.9523,   38.3750,87763.7266,    0.4991,   40.9426,    0.0310,    1.6199,1,44274,13
0,    0.1107,   -0.1984,    9.7517,   10.6566,   -2.4705,  -49.7665,  -51.2146,  122.7003,  -27.7824,   38.3750,87765.4453,    0.3383,   40.8165,   -0.1359,    1.6199,1,44483,13
0,   -0.4433,   -0.6868,    9.8196,   10.6019,   -6.2087,  -53.7713,  -49.8184,  122.1001,  -34.7807,   38.3750,87763.5547,    0.5154,   40.9052,    0.3275,    1.6199,1,44596,13
0,   -0.5753,   -0.6030,    9.6380,    8.9229,   -1.3582,   -3.8221,  -48.9498,  121.9182,  -35.4717,   38.3750,87763.7813,    0.4940,   40.9426,    0.2979,    1.6199,1,44709,13
0,   -0.3042,   -0.8030,    9.7193,   -0.1919,    1.4954,    1.8397,  -48.6709,  122.1896,  -34.9252,   38.3750,87761.8906,    0.6711,   40.8258,    0.3560,    1.6199,1,44918,13
0,   -0.4206,   -0.6245,    9.7148,   -1.9555,   -0.2338,    4.2158,  -48.8805,  122.1102,  -34.7277,   38.3750,87763.0000,    0.5670,   40.9192,   -0.3224,    1.6199,1,45031,13
0,    0.1216,    0.0076,    9.8145,    0.9724,   -8.8610,    4.7767,  -49.1551,  121.4902,  -34.0695,   38.3750,87762.6328,    0.6015,   40.9519,   -0.0561,    1.6199,1,45144,13
0,   -0.6652,   -0.8109,    9.7098,    1.6523,   -7.7472,  -11.5718,  -48.5699,  119.7245,  -36.1579,   38.3750,87760.1328,    0.8353,   40.8351,    0.2561,    1.6199,1,45353,13
0,   -1.0144,   -0.7289,    9.6573,    0.3138,   -3.3842,   -5.1457,  -48.3314,  119.1611,  -37.4529,   38.3750,87762.2578,    0.6367,   40.9285,    0.3922,    1.6199,1,45466,13
0,   -1.7757,   -1.4126,    9.5402,   -6.6661,    6.1921,  -10.7262,  -48.8937,  119.5764,  -39.0577,   38.3750,87761.7266,    0.6865,   40.9612,    0.4213,    1.6199,1,45579,13
0,   -0.1814,   -0.1959,    9.8227,   -7.3976,    8.4192,    3.2222,  -50.3433,  121.2587,  -38.3809,   38.3750,87762.7031,    0.5953,   40.8351,   -0.2301,    1.6199,1,45788,13
0,   -0.6400,   -0.0792,    9.6740,  -15.4068,   20.2448,    1.2083,  -51.8950,  123.1892,  -39.1520,   38.3750,87765.6719,    0.3173,   40.9332,   -0.6531,    1.6199,1,45901,13
0,   -0.2594,   -0.0515,    9.7279,   -4.2817,   10.9683,   -0.4866,  -53.2074,  125.2650,  -39.0412,   38.3750,87763.0938,    0.5585,   40.9659,   -0.4039,    1.6199,1,46014,13
0,   -0.2777,   -0.0307,    9.7508,   13.1138,  -19.6135,    1.0918,  -51.4017,  122.5339,  -38.5180,   38.3750,87765.7578,    0.3094,   40.8492,   -0.3836,    1.6199,1,46223,13
0,   -0.6814,    0.0910,    9.7820,    8.1631,   -2.5946,  -14.5616,  -50.1374,  121.3986,  -39.6076,   38.3750,87765.3750,    0.3450,   40.9379,    0.2276,    1.6199,1,46336,13
0,   -0.5187,   -0.3519,    9.6914,    0.8661,    2.9552,    8.0021,  -49.8862,  121.6093,  -39.2259,   38.3750,87762.2969,    0.6326,   40.9706,    0.2959,    1.6199,1,46449,13
0,   -0.2264,   -0.5479,    9.6760,    3.9487,   11.7927,    0.2307,  -49.2527,  123.3077,  -39.2338,   38.3750,87762.7500,    0.5908,   40.8538,    0.6166,    1.6199,1,46658,13
0,    0.2076,   -0.1547,    9.6059,   11.9814,   13.3972,    0.8842,  -48.0583,  125.3034,  -39.2518,   38.3750,87763.8672,    0.4860,   40.9426,    0.5520,    1.6199,1,46771,13
0,   -0.0180,   -0.7558,    9.7426,    1.4804,   -2.0033,   -4.8905,  -47.9405,  125.3204,  -39.7226,   38.3750,87763.2500,    0.5438,   40.9753,    0.1653,    1.6199,1,46884,13
0,    0.4034,   -0.3152,    9.8209,   -7.5200,    7.0640,    2.6506,  -49.2661,  126.3652,  -39.2846,   38.3750,87763.1094,    0.5568,   40.8632,    0.0779,    1.6199,1,47093,13
0,   -0.1325,   -0.3294,    9.6992,   -4.9622,   -0.8996,    1.3845,  -50.0018,  126.6122,  -39.2706,   38.3750,87763.1250,    0.5556,   40.9519,    0.1274,    1.6199,1,47206,13
0,    0.3297,   -0.1600,    9.6929,   -4.3860,    5.1805,   -0.4213,  -50.5033,  127.1378,  -39.1460,   38.3750,87763.9531,    0.4781,   40.9893,   -0.0792,    1.6199,1,47319,13
0,    0.0477,   -0.1705,    9.9491,   -3.5490,    1.2751,   -0.9863,  -51.1665,  127.4479,  -39.1457,   38.3750,87763.1563,    0.5523,   40.8678,    0.2359,    1.6199,1,47528,13
0,    0.2075,    0.1115,    9.7982,   -1.0210,    2.1858,    0.4203,  -51.4372,  127.4791,  -39.0283,   38.3750,87765.6875,    0.3162,   40.9472,   -0.0365,    1.6199,1,47641,13
0,    0.3507,    0.0695,    9.7898,   -1.2887,    1.1341,   -1.3868,  -51.6412,  127.6082,  -39.0695,   38.3750,87764.0078,    0.4730,   40.9893,    0.2494,    1.6199,1,47754,13
0,    0.1287,   -0.0751,    9.7971,   -3.1505,   -0.3449,    1.5223,  -52.1236,  127.7814,  -38.8609,   38.3750,87762.1641,    0.6451,   40.8772,    0.0487,    1.6199,1,47963,13
0,    0.4716,    0.3899,    9.5200,   -2.6992,    7.8033,    1.4195,  -52.3368,  128.3451,  -38.7990,   38.3750,87763.9375,    0.4792,   40.9659,    0.1077,    1.6199,1,48076,13
0,    0.4464,    0.1474,    9.8631,   -3.4894,    7.8384,    0.3760,  -52.8307,  129.1939,  -38.7833,   38.3750,87761.0547,    0.7492,   40.9939,    0.4357,    1.6199,1,48189,13
0,    0.5752,    0.2113,    9.7186,   -1.2316,    0.9220,   -1.4568,  -52.9163,  129.6036,  -39.0605,   38.3750,87760.3125,    0.8183,   40.8818,    0.2685,    1.6199,1,48398,13
0,    0.5930,    0.1987,    9.9342,   -3.7311,    1.6427,   -0.3399,  -53.1757,  129.6915,  -39.3527,   38.3750,87763.3359,    0.5358,   40.9612,   -0.0538,    1.6199,1,48511,13
0,    0.6739,    0.2919,    9.7419,   -2.5329,   -0.1627,   -1.8937,  -53.3603,  129.7640,  -39.3908,   38.3750,87762.3125,    0.6315,   40.9986,   -0.2650,    1.6199,1,48624,13
0,    0.5273,    0.4218,   10.4818,   -0.9583,   -0.7216,    0.7311,  -53.7110,  129.6078,  -39.2791,   38.3750,87763.4766,    0.5229,   40.8959,   -0.2526,    1.6199,1,48833,13
0,    0.6097,    0.3194,    9.8158,   -1.0904,   -1.4035,   -2.2101,  -53.7615,  129.4734,  -39.4424,   38.3750,87761.9375,    0.6666,   40.9706,    0.4781,    1.6199,1,48946,13
0,    0.6690,    0.3651,    9.6478,   -1.1807,   -2.3405,    1.1576,  -53.8432,  129.3035,  -39.4440,   38.3750,87762.4688,    0.6168,   41.0126,    0.0241,    1.6199,1,49059,13
0,    0.6242,    0.3984,    9.6364,    0.2269,   -2.6184,    0.2758,  -54.0062,  128.8625,  -39.5345,   38.3750,87759.8672,    0.8597,   40.8959,    0.2763,    1.6199,1,49268,13
0,    0.5793,    0.4115,    9.8125,   -1.6705,   -1.1795,   -0.4739,  -54.0258,  128.7653,  -39.5412,   38.3750,87761.9375,    0.6666,   40.9799,   -0.0923,    1.6199,1,49381,13
0,    0.3372,    0.2480,    9.6642,    0.6945,    0.2704,    3.0146,  -53.7911,  128.6968,  -39.4363,   38.3750,87760.0625,    0.8415,   41.0126,    0.3313,    1.6199,1,49494,13
0,    0.5519,    0.3586,    9.7783,   -0.6465,   -1.6316,   -0.7005,  -53.9268,  128.3892,  -39.3283,   38.3750,87764.1797,    0.4572,   40.9052,   -0.1311,    1.6199,1,49703,13
0,    0.4642,    0.3050,    9.6727,   -0.8674,    0.8311,    3.1576,  -53.9803,  128.3710,  -39.2268,   38.3750,87762.1016,    0.6513,   40.9893,    0.4475,    1.6199,1,49816,13
0,    0.5763,    0.4626,    9.8733,    1.6058,   -0.1330,    0.3555,  -54.0279,  128.2984,  -39.1307,   38.3750,87762.0781,    0.6536,   41.0220,    0.0848,    1.6199,1,49929,13
0,    0.3772,    0.2850,    9.7684,   -0.0393,    2.2047,   -1.6670,  -54.1805,  128.6651,  -39.3925,   38.5000,87760.4297,    0.8076,   40.9052,    0.7779,    1.6199,1,50138,13
0,    0.5292,    0.3940,    9.8155,    0.2713,   -0.4513,   -1.5224,  -54.1767,  128.6634,  -39.5041,   38.5000,87762.8594,    0.5806,   40.9986,   -0.0236,    1.6199,1,50251,13
0,    0.5245,    0.4101,    9.7066,    0.1878,   -0.9308,    0.7714,  -54.2783,  128.5890,  -39.4347,   38.5000,87759.5625,    0.8885,   41.0313,    0.5063,    1.6199,1,50364,13
0,    0.7476,    0.4867,    9.7823,    0.2528,    0.1923,   -0.5764,  -54.3261,  128.6347,  -39.5207,   38.5000,87759.4766,    0.8964,   40.9145,    0.2480,    1.6199,1,50573,13
0,    0.5222,    0.3627,    9.7459,    2.4020,   -1.1221,    2.5912,  -54.0968,  128.6484,  -39.1970,   38.5000,87761.0000,    0.7543,   40.9986,    0.5206,    1.6199,1,50686,13
0,    0.4084,    0.3122,    9.8262,    1.1343,   -1.2121,   -2.3160,  -53.9354,  128.4732,  -39.4181,   38.5000,87758.4688,    0.9904,   41.0313,    0.4507,    1.6199,1,50799,13
