time,baro_altitude,accl_x,accl_y,accl_z,gps_altitude,gyro_roll,gyro_pitch,gyro_yaw
0.0,0.0,9.68,0.08,-0.67,0.0,0.52,-0.02,0.06
0.010000000000000009,-0.19000000000005457,9.66,0.34,-0.49,0.0,-0.15,0.04,0.0
0.019999999999999962,-0.19000000000005457,9.79,-0.26,-0.46,0.0,-0.4,-0.08,-0.06
0.02999999999999997,0.08999999999991815,9.81,0.05,-0.74,0.0,0.33,0.04,-0.06
0.03999999999999998,0.1799999999998363,9.83,0.33,-0.71,0.0,-0.09,-0.08,0.0
0.04999999999999999,0.1799999999998363,9.87,0.11,-0.34,0.0,-0.03,-0.02,0.13
0.06,0.08999999999991815,9.89,-0.78,0.57,0.0,-0.22,-0.14,0.0
0.06999999999999998,0.2799999999999727,8.54,-1.2,0.4,0.0,0.03,-0.51,-0.55
0.07999999999999999,-1.7699999999999818,9.97,0.94,0.35,0.0,-0.46,-0.39,0.19
0.09,1.1199999999998909,9.88,0.65,-1.43,0.0,-2.23,0.22,0.25
0.09999999999999998,0.36999999999989086,9.39,0.92,-0.09,0.0,2.29,0.34,0.37
0.10999999999999999,-0.10000000000013642,10.3,-1.13,-0.72,0.0,-1.56,-0.14,-0.12
0.12,-0.19000000000005457,10.01,-0.11,-0.69,0.0,0.7,0.16,0.06
0.12999999999999998,0.36999999999989086,10.02,0.03,-0.07,0.0,0.15,-0.14,-0.24
0.13999999999999999,0.0,9.82,-1.24,-0.72,0.0,-0.95,-0.08,-0.18
0.15,0.0,9.48,-0.01,-0.73,0.0,0.82,0.04,-0.06
0.15999999999999998,-0.2799999999999727,9.58,0.28,-0.16,0.0,-1.5,-0.08,-0.06
0.16999999999999998,0.0,9.89,-0.08,-0.23,0.0,0.46,0.1,0.06
0.18,-0.10000000000013642,9.81,0.1,-0.51,0.0,-0.15,-0.02,0.0
0.19,0.08999999999991815,9.8,-0.4,-0.74,0.0,-0.58,-0.02,-0.12
0.19999999999999998,0.2799999999999727,9.77,0.08,-0.61,0.0,1.07,0.1,0.13
0.21,0.2799999999999727,9.85,0.15,-0.52,0.0,-0.7,0.04,0.06
0.21999999999999997,0.0,9.82,0.1,-0.69,0.0,0.21,-0.02,0.0
0.22999999999999998,-0.10000000000013642,9.79,-0.28,-0.59,0.0,0.39,0.04,0.0
0.24,-0.19000000000005457,9.65,-0.57,-0.57,0.0,-0.22,0.04,0.0
0.25,0.5599999999999454,9.61,0.07,-0.67,0.0,0.21,0.04,0.0
0.26,0.0,9.85,-0.25,-0.6,0.0,-0.7,0.04,0.06
0.27,0.1799999999998363,9.78,-0.06,-0.32,0.0,0.7,0.04,0.0
0.27999999999999997,-0.5599999999999454,10.05,-0.28,-0.52,0.0,-0.15,-0.08,0.06
0.29,-3.630000000000109,12.04,1.8,-0.57,0.0,1.37,-0.14,0.06
0.3,-25.860000000000127,46.16,-0.81,0.28,0.0,1.68,-1.0,0.43
0.3,-25.860000000000127,46.16,-0.81,0.28,0.0,1.68,-1.0,0.43
0.3,-25.860000000000127,46.16,-0.81,0.28,0.0,1.68,-1.0,0.43
0.3,-25.860000000000127,46.16,-0.81,0.28,0.0,1.68,-1.0,0.43
0.3,-25.860000000000127,46.16,-0.81,0.28,0.0,1.68,-1.0,0.43
0.3,-25.860000000000127,46.16,-0.81,0.28,0.0,1.68,-1.0,0.43
0.3,-25.860000000000127,46.16,-0.81,0.28,0.0,1.68,-1.0,0.43
0.3,-25.860000000000127,46.16,-0.81,0.28,0.0,1.68,-1.0,0.43
0.3,-25.860000000000127,46.16,-0.81,0.28,0.0,1.68,-1.0,0.43
0.3,-25.860000000000127,46.16,-0.81,0.28,0.0,1.68,-1.0,0.43
0.3,-25.860000000000127,46.16,-0.81,0.28,0.0,1.68,-1.0,0.43
0.3,-25.860000000000127,46.16,-0.81,0.28,0.0,1.68,-1.0,0.43
0.3,-25.860000000000127,46.16,-0.81,0.28,0.0,1.68,-1.0,0.43
0.3,-25.860000000000127,46.16,-0.81,0.28,0.0,1.68,-1.0,0.43
0.3,-25.860000000000127,46.16,-0.81,0.28,0.0,1.68,-1.0,0.43
0.3,-25.860000000000127,46.16,-0.81,0.28,0.0,1.68,-1.0,0.43
0.3,-25.860000000000127,46.16,-0.81,0.28,0.0,1.68,-1.0,0.43
0.3,-25.860000000000127,46.16,-0.81,0.28,0.0,1.68,-1.0,0.43
0.3,-25.860000000000127,46.16,-0.81,0.28,0.0,1.68,-1.0,0.43
0.3,-25.860000000000127,46.16,-0.81,0.28,0.0,1.68,-1.0,0.43
0.3,-25.860000000000127,46.16,-0.81,0.28,0.0,1.68,-1.0,0.43
0.3,-25.860000000000127,46.16,-0.81,0.28,0.0,1.68,-1.0,0.43
0.3,-25.860000000000127,46.16,-0.81,0.28,0.0,1.68,-1.0,0.43
0.3,-25.860000000000127,46.16,-0.81,0.28,0.0,1.68,-1.0,0.43
0.3,-25.860000000000127,46.16,-0.81,0.28,0.0,1.68,-1.0,0.43
0.3,-25.860000000000127,46.16,-0.81,0.28,0.0,1.68,-1.0,0.43
0.3,-25.860000000000127,46.16,-0.81,0.28,0.0,1.68,-1.0,0.43
0.3,-25.860000000000127,46.16,-0.81,0.28,0.0,1.68,-1.0,0.43
0.3,-25.860000000000127,46.16,-0.81,0.28,0.0,1.68,-1.0,0.43
0.3,-25.860000000000127,46.16,-0.81,0.28,0.0,1.68,-1.0,0.43
0.3,-25.860000000000127,46.16,-0.81,0.28,0.0,1.68,-1.0,0.43
0.3,-25.860000000000127,46.16,-0.81,0.28,0.0,1.68,-1.0,0.43
0.3,-25.860000000000127,46.16,-0.81,0.28,0.0,1.68,-1.0,0.43
0.31,-0.5599999999999454,156.21,-1.36,-15.41,0.0,14.68,34.95,8.49
0.31,-0.5599999999999454,156.21,-1.36,-15.41,0.0,14.68,34.95,8.49
0.32,4.559999999999945,156.74,6.64,3.06,0.0,6.68,-11.31,-4.15
0.32,4.559999999999945,156.74,6.64,3.06,0.0,6.68,-11.31,-4.15
0.32999999999999996,3.0699999999999363,156.85,1.13,8.7,0.0,-41.17,-2.83,2.69
0.33999999999999997,-0.10000000000013642,156.85,-3.39,-2.85,0.0,-51.43,6.63,5.62
0.35,0.0,156.85,5.35,-2.59,0.0,-73.22,0.16,5.07
0.36,3.0699999999999363,156.85,0.05,-2.51,0.0,-69.37,2.66,0.49
0.37,4.470000000000027,156.85,3.35,2.48,0.0,-61.8,1.38,-4.51
0.38,-1.2100000000000364,156.85,1.09,-1.43,0.0,-61.86,-3.07,-3.84
0.39,1.7699999999999818,156.85,-3.55,-0.98,0.0,-62.11,-3.07,-2.87
0.4,2.230000000000018,156.85,-2.53,-0.74,0.0,-61.86,-5.03,-1.95
0.41,0.08999999999991815,156.85,-0.45,-0.11,0.0,-62.6,-2.83,2.26
0.42,3.5399999999999636,156.85,-4.01,-1.86,0.0,-62.53,3.4,2.69
0.43,1.2999999999999545,156.85,8.46,-4.46,0.0,-63.63,0.53,4.46
0.44,0.1799999999998363,156.85,2.25,-0.57,0.0,-62.47,-3.14,2.26
0.44999999999999996,4.470000000000027,156.85,0.22,1.8,0.0,-61.37,-7.53,-3.11
0.45999999999999996,2.8899999999998727,156.85,2.73,4.3,0.0,-60.28,-3.38,-1.77
0.47,1.2999999999999545,156.85,-0.66,3.99,0.0,-62.23,-3.44,-0.36
0.48,1.8599999999999,156.85,4.51,-0.27,0.0,-62.41,2.18,-1.16
0.49,2.1399999999998727,156.85,3.35,2.3,0.0,-61.86,3.82,-1.89
0.5,2.7899999999999636,156.85,-0.88,2.34,0.0,-62.05,0.34,-3.72
0.51,1.2100000000000364,156.85,0.8,1.85,0.0,-59.73,0.77,-3.48
0.52,5.399999999999864,156.85,0.01,-0.99,0.0,-57.9,-2.89,-1.52
0.53,4.470000000000027,156.85,2.17,0.52,0.0,-57.77,-1.12,-1.28
0.54,5.769999999999982,156.85,1.76,2.96,0.0,-58.75,-1.73,0.06
0.55,6.6099999999999,156.85,1.52,3.86,0.0,-59.36,1.38,-1.4
0.56,4.279999999999973,156.85,2.49,3.01,0.0,-59.54,2.6,-2.13
0.5700000000000001,6.990000000000009,156.85,1.67,-0.51,0.0,-59.06,2.54,-2.99
0.5800000000000001,8.569999999999936,156.85,1.85,-0.22,0.0,-58.38,1.75,-3.23
0.59,7.819999999999936,156.85,0.08,-0.03,0.0,-58.51,-1.37,-2.38
0.6,9.599999999999909,156.85,1.06,3.29,0.0,-58.69,-0.82,-1.95
0.61,11.089999999999918,156.85,1.66,3.02,0.0,-59.42,-1.24,-0.97
0.62,11.269999999999982,156.85,2.63,2.79,0.0,-59.67,2.42,-1.83
0.63,12.389999999999873,156.85,2.63,0.93,0.0,-59.85,2.48,-2.68
0.64,12.579999999999927,156.85,1.57,0.68,0.0,-59.85,3.64,-4.09
0.64,12.579999999999927,156.85,1.57,0.68,0.0,-59.85,3.64,-4.09
0.6499999999999999,13.419999999999845,156.85,1.42,0.88,0.0,-59.91,1.5,-4.15
0.6599999999999999,14.259999999999991,156.85,0.89,0.59,0.0,-59.67,0.53,-3.54
0.6699999999999999,13.419999999999845,156.85,1.29,1.82,0.0,-59.85,-0.45,-2.62
0.6799999999999999,14.909999999999854,156.85,1.9,1.61,0.0,-60.58,0.22,-2.26
0.69,17.24000000000001,156.85,3.04,3.03,0.0,-61.19,1.99,-2.93
0.7,16.220000000000027,156.85,2.56,2.05,0.0,-61.62,2.54,-4.03
0.71,18.269999999999982,156.85,1.79,1.99,0.0,-61.44,3.58,-5.43
0.72,19.579999999999927,156.85,1.07,-0.04,0.0,-61.62,1.75,-5.25
0.73,20.59999999999991,156.85,1.39,0.84,0.0,-61.99,1.75,-4.76
0.74,21.440000000000055,156.85,1.82,1.29,0.0,-62.53,-0.14,-3.72
0.75,21.720000000000027,156.85,2.46,2.94,0.0,-62.96,1.26,-3.84
0.76,23.86999999999989,156.85,2.64,2.72,0.0,-63.94,1.56,-4.57
0.77,23.779999999999973,156.85,2.25,2.1,0.0,-64.37,3.52,-5.86
0.78,25.639999999999873,156.85,2.07,1.02,0.0,-64.79,3.03,-6.83
0.79,24.899999999999864,156.85,1.24,0.66,0.0,-65.22,2.85,-6.59
0.8,26.579999999999927,156.85,1.51,1.58,0.0,-66.01,1.63,-6.04
0.81,28.62999999999988,156.85,1.47,1.47,0.0,-67.17,1.02,-5.49
0.8200000000000001,29.75,156.85,2.3,3.03,0.0,-67.48,1.69,-5.55
0.8300000000000001,31.25,156.85,3.17,2.52,0.0,-67.78,2.3,-6.22
0.8400000000000001,32.74000000000001,156.85,3.1,2.22,0.0,-68.64,3.95,-7.69
0.8500000000000001,33.299999999999955,156.85,2.21,1.15,0.0,-69.25,3.15,-8.6
0.8600000000000001,34.419999999999845,156.85,1.48,1.5,0.0,-69.92,3.7,-8.42
0.8699999999999999,36.75999999999999,156.85,1.97,1.21,0.0,-71.75,1.93,-7.32
0.8799999999999999,37.87999999999988,156.85,2.19,2.46,0.0,-72.36,2.36,-7.14
0.8899999999999999,37.700000000000045,156.85,3.12,2.61,0.0,-73.77,2.05,-7.57
0.8999999999999999,39.84999999999991,156.85,3.56,2.51,0.0,-75.05,3.46,-8.36
0.9099999999999999,41.440000000000055,156.85,3.29,2.33,0.0,-76.02,3.88,-9.7
0.9199999999999999,42.179999999999836,156.85,2.37,1.59,0.0,-77.31,4.07,-10.07
0.9299999999999999,44.429999999999836,156.85,1.82,1.83,0.0,-79.08,3.58,-10.13
0.94,45.460000000000036,156.85,2.19,2.13,0.0,-81.46,2.91,-9.46
0.95,46.8599999999999,156.85,3.08,2.66,0.0,-82.74,2.79,-9.21
0.96,47.6099999999999,156.85,3.53,2.77,0.0,-86.09,3.21,-10.19
0.96,47.6099999999999,156.85,3.53,2.77,0.0,-86.09,3.21,-10.19
0.97,49.48000000000002,156.85,3.97,3.1,0.0,-88.6,3.82,-11.72
0.98,50.98000000000002,156.85,3.28,2.16,0.0,-91.16,4.19,-12.14
0.99,52.569999999999936,156.85,3.37,2.28,0.0,-92.38,4.56,-12.08
1.0,53.50999999999999,156.85,3.11,1.88,0.0,-96.04,3.33,-11.47
1.01,54.72000000000003,156.85,3.97,2.96,0.0,-99.16,3.33,-10.92
1.02,56.77999999999997,156.85,4.4,2.85,0.0,-102.39,2.97,-10.98
1.03,57.909999999999854,156.85,4.53,2.94,0.0,-105.5,3.95,-11.35
1.04,59.77999999999997,156.85,4.62,2.2,0.0,-109.17,3.76,-12.81
1.05,60.159999999999854,156.85,3.51,2.38,0.0,-112.22,4.25,-13.55
1.06,62.02999999999997,156.85,3.85,2.04,0.0,-115.39,3.21,-12.51
1.07,64.08999999999992,156.85,4.26,2.33,0.0,-119.67,3.52,-11.84
1.08,65.77999999999997,156.85,4.55,2.46,0.0,-123.82,2.97,-11.17
1.09,67.47000000000003,156.85,4.99,2.66,0.0,-126.68,3.09,-11.84
1.1,68.39999999999986,156.85,4.77,3.05,0.0,-130.22,3.4,-12.45
1.11,69.72000000000003,156.85,5.25,2.38,0.0,-133.89,3.88,-12.69
1.1199999999999999,71.5,156.85,5.09,2.5,0.0,-136.21,3.95,-12.08
1.13,73.27999999999997,156.85,5.23,2.13,0.0,-141.21,3.7,-11.84
1.14,74.87999999999988,156.85,4.99,2.49,0.0,-145.24,3.88,-10.62
1.15,76.94000000000005,156.85,5.72,2.45,0.0,-149.27,3.52,-10.07
1.16,78.06999999999994,156.85,6.18,2.63,0.0,-152.99,4.01,-10.86
1.17,80.59999999999991,156.85,5.39,2.17,0.0,-156.04,3.76,-10.68
1.18,82.09999999999991,156.85,5.54,2.72,0.0,-159.28,4.49,-10.8
1.19,83.78999999999996,156.85,6.01,1.94,0.0,-163.49,4.13,-8.97
1.2,85.29999999999995,156.85,5.74,2.31,0.0,-166.85,4.8,-8.85
1.21,87.64999999999986,156.85,6.04,2.54,0.0,-171.73,4.62,-7.69
1.22,89.51999999999998,156.85,6.35,2.32,0.0,-174.42,5.23,-7.93
1.23,91.11999999999989,156.85,7.42,2.63,0.0,-177.1,5.23,-6.77
1.24,92.62999999999988,156.85,6.93,2.25,0.0,-180.03,5.9,-5.06
1.25,94.50999999999999,156.85,6.24,1.65,0.0,-182.72,6.08,-7.44
1.26,96.95000000000005,156.85,6.34,1.29,0.0,-186.01,7.06,-5.06
1.27,98.26999999999998,156.85,7.56,2.65,0.0,-188.27,7.12,-3.9
1.28,100.89999999999986,156.85,7.77,2.41,0.0,-191.57,7.24,-3.29
1.28,100.89999999999986,156.85,7.77,2.41,0.0,-191.57,7.24,-3.29
1.29,102.40999999999985,156.85,7.63,3.08,0.0,-194.01,7.36,-4.27
1.3,104.75999999999999,156.85,6.92,1.5,0.0,-197.06,7.61,-3.23
1.31,106.16999999999985,156.85,6.85,2.41,0.0,-201.45,8.28,-3.78
1.32,109.17999999999984,156.85,8.19,1.52,0.0,-206.46,8.83,-2.93
1.33,110.77999999999997,156.85,7.95,1.94,0.0,-212.5,9.38,-1.22
1.34,112.95000000000005,156.85,7.52,1.87,0.0,-218.12,9.13,0.92
1.35,115.01999999999998,156.85,8.23,1.94,0.0,-221.66,9.87,-1.52
1.36,117.65999999999985,156.85,8.43,1.73,0.0,-225.44,10.11,-2.32
1.37,119.53999999999996,156.85,8.56,2.18,0.0,-229.29,10.96,0.8
1.3800000000000001,121.71000000000004,156.85,6.81,2.04,0.0,-234.66,11.45,-0.3
1.3900000000000001,123.97000000000003,156.85,8.32,1.78,0.0,-239.73,12.49,0.06
1.4000000000000001,126.42999999999984,156.85,7.65,1.46,0.0,-245.28,12.8,3.18
1.4100000000000001,127.83999999999992,156.85,8.65,1.1,0.0,-251.63,13.47,3.36
1.4200000000000002,130.38999999999987,156.85,8.94,1.17,0.0,-258.89,13.77,0.74
1.43,131.89999999999986,156.85,8.05,1.92,0.0,-267.68,13.59,-0.73
1.44,133.97000000000003,156.85,8.44,2.94,0.0,-274.27,14.02,0.43
1.45,135.8599999999999,156.85,7.52,2.75,0.0,-280.74,13.96,-2.68
1.46,137.55999999999995,156.85,7.92,1.64,0.0,-288.98,15.3,0.67
1.47,139.53999999999996,156.85,7.18,0.69,0.0,-297.28,15.42,-2.19
1.48,141.6199999999999,156.85,7.73,0.99,0.0,-304.79,15.73,-0.42
1.49,143.41999999999985,156.85,8.39,2.15,0.0,-313.82,15.11,-0.97
1.5,146.44000000000005,156.85,10.51,3.91,0.0,-321.21,14.93,-2.19
1.51,148.71000000000004,156.85,9.64,2.28,0.0,-328.11,14.5,-2.07
1.52,150.98000000000002,156.85,8.16,3.06,0.0,-336.41,15.42,-4.39
1.53,152.96000000000004,156.85,7.99,3.24,0.0,-346.3,15.11,-2.01
1.54,155.70000000000005,156.85,9.04,3.98,0.0,-356.18,15.91,-5.06
1.55,157.22000000000003,156.85,10.47,2.98,0.0,-364.85,14.02,-5.92
1.56,159.76999999999998,156.85,8.43,5.08,0.0,-372.05,13.96,-3.54
1.57,162.13999999999987,156.85,10.45,3.32,0.0,-373.95,11.88,-8.73
1.58,164.69000000000005,156.85,10.75,4.16,0.0,-386.09,12.61,-6.59
1.59,166.21000000000004,156.85,12.42,2.67,0.0,-404.65,13.89,-9.09
1.6,166.67999999999984,156.85,10.08,2.39,0.0,-418.38,13.1,-10.74
1.6,166.67999999999984,156.85,10.08,2.39,0.0,-418.38,13.1,-10.74
1.61,170.55999999999995,156.85,12.91,3.46,0.0,-419.91,11.57,-6.16
1.62,174.82999999999993,156.85,13.19,1.2,0.0,-421.19,9.38,-12.57
1.6300000000000001,174.63999999999987,156.85,11.23,1.7,0.0,-406.42,7.67,-10.62
1.6400000000000001,174.73000000000002,156.85,8.05,3.06,0.0,-402.94,6.75,-13.24
1.6500000000000001,201.49,156.85,13.94,2.6,0.0,-408.13,6.87,-13.67
1.6600000000000001,217.26999999999998,156.85,12.91,1.24,0.0,-428.51,9.19,-9.89
1.6700000000000002,221.64999999999986,156.85,13.18,1.31,0.0,-441.45,8.46,-8.91
1.68,217.75,156.85,13.17,-3.14,0.0,-460.92,7.67,-7.32
1.69,210.23000000000002,156.85,11.72,-0.07,0.0,-467.82,5.9,-5.92
1.7,204.52999999999997,156.85,10.91,-0.39,0.0,-483.26,4.74,-1.4
1.71,205.57999999999993,156.85,9.31,2.2,0.0,-492.66,6.81,-0.3
1.72,206.14999999999986,156.85,10.32,-1.08,0.0,-511.95,9.32,-1.77
1.73,207.19000000000005,156.85,11.73,0.09,0.0,-534.05,14.08,3.54
1.74,209.37999999999988,156.85,13.41,-1.17,0.0,-548.69,13.59,0.13
1.75,210.71000000000004,156.85,8.96,0.03,0.0,-567.92,15.42,-0.85
1.76,211.76,156.85,5.79,0.61,0.0,-584.28,13.1,-0.18
1.77,213.17999999999984,156.85,5.58,0.31,0.0,-597.89,15.73,2.32
1.78,214.31999999999994,156.85,5.8,0.33,0.0,-607.53,18.23,3.48
1.79,214.03999999999996,156.85,5.32,-1.17,0.0,-611.81,19.39,-0.12
1.8,216.31999999999994,156.85,3.36,0.48,0.0,-610.95,20.36,-6.47
1.81,216.6099999999999,156.85,2.75,1.13,0.0,-611.38,17.62,-3.96
1.82,218.12999999999988,156.85,3.34,1.01,0.0,-606.92,18.29,-2.74
1.83,218.79999999999995,156.85,2.77,0.81,0.0,-598.74,15.66,-5.06
1.84,220.31999999999994,156.85,1.78,3.72,0.0,-587.64,17.62,-6.77
1.85,221.46000000000004,156.85,1.95,4.11,0.0,-577.93,15.6,-6.28
1.86,223.83999999999992,156.85,2.52,3.71,0.0,-561.63,16.52,-3.48
1.87,224.78999999999996,156.85,3.03,2.78,0.0,-547.72,13.89,-10.86
1.8800000000000001,226.31999999999994,156.85,4.49,2.43,0.0,-533.86,12.31,-14.1
1.8900000000000001,228.22000000000003,156.85,3.93,4.39,0.0,-520.13,11.03,-9.82
1.9000000000000001,230.12999999999988,156.85,2.84,4.36,0.0,-506.03,9.44,-11.78
1.9100000000000001,232.40999999999985,156.85,3.23,5.32,0.0,-491.93,9.19,-7.02
1.9200000000000002,235.17999999999984,156.85,4.17,4.17,0.0,-478.5,8.16,-12.2
1.9200000000000002,235.17999999999984,156.85,4.17,4.17,0.0,-478.5,8.16,-12.2
1.93,236.6099999999999,156.85,3.48,4.14,0.0,-466.05,8.28,-11.72
1.94,239.17999999999984,156.85,4.3,2.09,0.0,-453.35,6.02,1.83
1.95,241.8499999999999,156.85,4.68,2.98,0.0,-441.51,6.75,0.55
1.96,244.24,156.85,5.4,2.29,0.0,-428.7,4.49,-0.97
1.97,246.33999999999992,156.85,5.53,3.53,0.0,-418.26,5.53,7.57
1.98,248.25,156.85,4.72,4.65,0.0,-405.68,3.33,-1.28
1.99,250.05999999999995,156.85,2.15,3.11,0.0,-394.76,4.74,10.07
2.0,252.3499999999999,156.85,2.62,2.85,0.0,-381.76,2.79,6.72
2.01,254.74,156.85,2.96,0.95,0.0,-368.33,4.13,4.03
2.02,256.75,156.85,3.66,1.07,0.0,-353.99,2.72,8.12
2.03,257.99,156.85,1.92,0.38,0.0,-339.76,4.07,9.77
2.04,261.52,156.85,1.99,2.39,0.0,-324.14,3.4,8.12
2.05,263.6299999999999,156.85,0.06,2.0,0.0,-308.33,2.97,4.03
2.06,266.21000000000004,156.85,-0.6,3.17,0.0,-290.81,1.69,8.61
2.07,268.8899999999999,156.85,-0.75,1.64,0.0,-270.92,2.91,1.28
2.08,269.0799999999999,156.85,-1.36,2.0,0.0,-249.31,2.05,6.66
2.09,269.75,156.85,-3.09,0.78,0.0,-227.4,1.38,1.1
2.1,271.8499999999999,156.85,-4.05,1.87,0.0,-201.27,0.59,19.41
2.11,271.28,156.85,-4.58,0.66,0.0,-175.64,-0.21,8.79
2.12,273.96000000000004,156.85,-6.35,2.51,0.0,-146.83,0.22,1.9
2.13,273.96000000000004,156.85,-6.34,0.68,0.0,-116.43,-1.85,9.34
2.14,275.77,156.85,-7.53,1.92,0.0,-85.97,-1.55,10.75
2.15,276.25,156.85,-7.66,0.49,0.0,-56.98,-4.36,11.48
2.16,278.8399999999999,156.85,-9.12,1.09,0.0,-26.71,-3.87,8.61
2.17,278.74,156.85,-9.83,-0.76,0.0,7.47,-5.76,9.83
2.1799999999999997,282.0,156.85,-10.38,-0.12,0.0,41.59,-6.31,11.91
2.19,284.1099999999999,156.85,-11.83,-0.96,0.0,76.87,-7.29,-4.51
2.1999999999999997,285.3499999999999,156.85,-11.88,-2.1,0.0,111.54,-8.69,7.39
2.21,288.6099999999999,156.85,-12.28,-3.22,0.0,145.11,-8.26,4.64
2.2199999999999998,290.72,156.85,-11.45,-4.17,0.0,173.92,-9.48,2.51
2.23,291.96000000000004,156.85,-11.58,-4.23,0.0,194.92,-9.67,13.92
2.2399999999999998,294.64999999999986,156.85,-10.48,-5.33,0.0,209.57,-8.87,5.19
2.2399999999999998,294.64999999999986,156.85,-10.48,-5.33,0.0,209.57,-8.87,5.19
2.25,293.39999999999986,156.85,-10.63,-4.95,0.0,219.03,-8.63,-2.26
2.26,291.28999999999996,156.85,-8.93,-7.27,0.0,228.92,-7.1,-3.42
2.27,292.6299999999999,156.85,-8.61,-7.04,0.0,224.71,-5.94,-4.88
2.28,293.39999999999986,156.85,-7.41,-7.89,0.0,224.64,-4.72,-9.82
2.29,295.1299999999999,156.85,-7.08,-8.08,0.0,219.52,-3.01,-12.45
2.3,294.54999999999995,156.85,-7.09,-9.01,0.0,214.94,-1.24,-6.41
2.3099999999999996,298.3899999999999,156.85,-4.74,-8.55,0.0,209.93,0.89,-12.27
2.32,303.47,156.85,-2.37,-12.75,0.0,203.1,3.95,-0.85
2.3299999999999996,307.22,156.85,-4.46,-10.9,0.0,190.77,1.99,-6.16
2.34,313.46000000000004,156.85,-3.92,-8.56,0.0,181.98,2.11,-8.66
2.3499999999999996,317.98,156.85,-0.71,-7.83,0.0,173.31,4.62,-2.07
2.36,321.53,156.85,-1.86,-8.23,0.0,159.7,5.9,0.67
2.3699999999999997,323.46000000000004,156.85,-2.29,-8.18,0.0,146.76,6.75,-2.62
2.38,322.98,156.85,-0.44,-8.45,0.0,131.81,5.53,-8.73
2.3899999999999997,326.04999999999995,156.85,-0.05,-7.11,0.0,117.28,5.35,14.22
2.4,333.94000000000005,156.85,-1.26,-6.39,0.0,103.06,5.1,1.77
2.4099999999999997,340.39999999999986,156.85,-2.01,-5.62,0.0,91.71,5.84,1.1
2.42,345.5,156.85,-1.49,-5.6,0.0,82.73,5.1,2.57
2.4299999999999997,353.99,156.85,-3.05,-4.96,0.0,74.68,6.08,8.37
2.44,364.30999999999995,156.85,-2.69,-4.81,0.0,65.77,4.8,-4.09
2.4499999999999997,373.97,156.85,-2.03,-3.99,0.0,62.77,4.37,5.68
2.46,383.6399999999999,156.85,-3.73,-3.66,0.0,61.92,3.46,8.79
2.4699999999999998,393.23,156.85,-5.83,-3.19,0.0,62.53,3.7,8.43
2.48,401.95000000000005,156.85,-6.79,-3.76,0.0,67.29,1.63,1.1
2.4899999999999998,408.73,156.85,-7.34,-3.6,0.0,74.49,1.69,16.18
2.5,415.72,156.85,-7.58,-3.54,0.0,83.34,1.2,13.92
2.51,422.71000000000004,156.85,-8.18,-3.49,0.0,95.8,0.59,-2.26
2.52,429.30999999999995,156.85,-9.68,-3.3,0.0,110.26,-2.89,7.75
2.53,436.1199999999999,156.85,-10.72,-4.5,0.0,129.43,-1.06,16.73
2.54,438.45000000000005,156.85,-10.59,-3.99,0.0,147.98,-2.16,9.59
2.55,441.65999999999985,156.85,-12.2,-4.73,0.0,166.66,-3.81,13.25
2.5599999999999996,442.73,156.85,-11.78,-5.65,0.0,184.48,-3.5,10.81
2.5599999999999996,442.73,156.85,-11.78,-5.65,0.0,184.48,-3.5,10.81
2.57,444.0,156.85,-12.4,-6.25,0.0,200.23,-4.17,6.23
2.5799999999999996,449.05999999999995,156.85,-13.1,-7.63,0.0,214.33,-3.2,4.15
2.59,455.98,156.85,-12.24,-7.95,0.0,223.91,-4.91,5.37
2.5999999999999996,466.21000000000004,156.85,-12.02,-8.62,0.0,230.2,-3.01,6.78
2.61,476.65999999999985,156.85,-12.85,-8.85,0.0,237.1,-2.46,11.17
2.6199999999999997,487.39999999999986,156.85,-11.88,-9.79,0.0,236.85,-1.67,-12.27
2.63,499.53,156.85,-10.82,-10.4,0.0,236.73,-1.06,-5.49
2.6399999999999997,509.80999999999995,156.85,-9.73,-10.61,0.0,234.23,-0.63,-13.18
2.65,518.3399999999999,156.85,-10.41,-10.75,0.0,231.6,0.4,0.06
2.6599999999999997,527.46,156.85,-8.18,-11.99,0.0,225.62,1.44,7.63
2.67,534.04,156.85,-8.73,-11.26,0.0,217.44,3.4,2.2
2.6799999999999997,542.5899999999999,156.85,-7.56,-11.32,0.0,205.36,4.01,-1.4
2.69,548.5799999999999,156.85,-7.02,-11.02,0.0,196.02,4.68,-2.5
2.6999999999999997,554.19,156.85,-6.62,-10.76,0.0,186.74,4.8,-0.12
2.71,560.3899999999999,156.85,-6.21,-10.34,0.0,175.45,5.1,2.81
2.7199999999999998,563.6399999999999,156.85,-6.58,-9.58,0.0,167.09,7.3,6.84
2.73,571.8199999999999,156.85,-6.66,-10.27,0.0,158.66,5.41,-1.77
2.7399999999999998,576.95,156.85,-6.34,-9.14,0.0,148.59,5.41,5.13
2.75,583.26,156.85,-6.48,-8.56,0.0,142.67,3.76,-5.73
2.76,588.69,156.85,-6.13,-8.97,0.0,135.71,4.92,5.74
2.77,594.8199999999999,156.85,-7.03,-8.15,0.0,130.34,4.92,23.01
2.78,600.8399999999999,156.85,-9.02,-7.86,0.0,131.44,2.54,4.03
2.79,606.5799999999999,156.85,-8.76,-8.24,0.0,132.36,0.47,3.36
2.8,612.52,156.85,-9.48,-8.31,0.0,132.84,1.56,13.98
2.8099999999999996,618.8499999999999,156.85,-8.87,-8.71,0.0,138.34,0.95,6.9
2.82,625.8899999999999,156.85,-9.3,-9.03,0.0,141.57,-1.3,9.83
2.8299999999999996,632.73,156.85,-10.7,-8.51,0.0,150.79,-0.75,10.14
2.84,639.0799999999999,156.85,-11.91,-9.04,0.0,158.42,-1.91,5.86
2.8499999999999996,647.3199999999999,156.85,-12.27,-9.87,0.0,166.54,-2.28,11.91
2.86,653.78,156.85,-12.24,-10.25,0.0,176.36,-2.77,11.97
2.8699999999999997,662.4299999999998,156.85,-12.2,-10.91,0.0,185.15,-1.3,0.55
2.88,671.78,156.85,-13.25,-11.85,0.0,191.99,-2.28,7.88
2.88,671.78,156.85,-13.25,-11.85,0.0,191.99,-2.28,7.88
2.8899999999999997,681.74,156.85,-13.32,-11.36,0.0,200.35,-1.12,1.1
2.9,692.51,156.85,-12.46,-12.44,0.0,205.66,-1.12,2.63
2.9099999999999997,704.49,156.85,-12.83,-12.61,0.0,211.4,-1.85,-0.85
2.92,715.99,156.85,-12.3,-12.73,0.0,212.56,-0.33,0.43
2.9299999999999997,726.69,156.85,-12.85,-13.31,0.0,217.99,1.44,3.3
2.94,737.21,156.85,-12.4,-13.8,0.0,215.18,0.4,-13.18
2.9499999999999997,747.24,156.85,-11.31,-13.85,0.0,216.53,2.11,8.12
2.96,756.6699999999998,156.85,-11.36,-13.57,0.0,214.45,3.09,-8.48
2.9699999999999998,764.9099999999999,156.85,-10.99,-14.07,0.0,213.78,2.72,0.37
2.98,774.06,156.85,-10.75,-13.74,0.0,210.97,4.98,20.21
2.9899999999999998,781.0999999999999,156.85,-9.84,-14.0,0.0,206.15,3.46,3.6
3.0,787.75,156.85,-10.44,-12.54,0.0,204.26,3.88,1.83
3.01,794.0,156.85,-10.32,-12.85,0.0,205.66,3.27,0.13
3.02,800.55,156.85,-9.88,-14.44,0.0,200.53,4.92,9.65
3.03,805.8999999999999,156.85,-9.55,-14.44,0.0,196.75,3.76,10.07
3.04,814.0699999999999,156.85,-9.5,-13.55,0.0,194.74,1.81,15.99
3.05,821.05,156.85,-10.18,-12.93,0.0,189.55,0.04,13.92
3.0599999999999996,829.44,156.85,-9.55,-12.97,0.0,186.19,1.93,23.32
3.07,837.6299999999999,156.85,-8.9,-12.25,0.0,182.71,0.04,15.51
3.0799999999999996,846.1399999999999,156.85,-9.75,-12.99,0.0,182.65,0.16,-0.85
3.09,857.3999999999999,156.85,-10.89,-14.11,0.0,182.96,-0.88,18.38
3.0999999999999996,867.8499999999999,156.85,-11.0,-14.58,0.0,182.47,0.22,-11.96
3.11,879.4299999999998,156.85,-10.35,-14.49,0.0,180.64,-0.39,12.33
3.1199999999999997,893.4699999999998,156.85,-11.81,-15.69,0.0,181.74,-1.37,-0.49
3.13,908.96,156.85,-12.38,-16.04,0.0,187.05,-2.65,18.56
3.1399999999999997,926.0,156.85,-12.38,-16.34,0.0,189.79,-1.98,3.6
3.15,942.46,156.85,-11.91,-16.81,0.0,191.81,-2.65,14.29
3.1599999999999997,958.4299999999998,156.85,-12.17,-17.74,0.0,197.67,-1.24,2.63
3.17,973.2999999999997,156.85,-12.53,-17.44,0.0,193.03,-1.49,-4.21
3.1799999999999997,987.8899999999999,155.53,-13.64,-18.9,0.0,199.56,-0.63,-9.21
3.19,1002.1799999999998,156.85,-12.89,-18.78,0.0,204.26,-0.94,19.66
3.1999999999999997,1015.8800000000001,156.85,-12.08,-19.9,0.0,210.24,0.95,4.58
3.1999999999999997,1015.8800000000001,156.85,-12.08,-19.9,0.0,210.24,0.95,4.58
3.21,1029.29,156.85,-12.65,-19.41,0.0,211.4,1.81,10.26
3.2199999999999998,1042.8200000000002,156.85,-11.35,-19.03,0.0,214.02,2.91,-10.37
3.23,1054.4,156.85,-11.85,-18.8,0.0,216.22,4.13,-4.09
3.2399999999999998,1065.17,156.85,-11.19,-18.68,0.0,216.4,4.01,7.21
3.25,1074.6,156.69,-11.52,-18.94,0.0,218.05,6.08,-14.22
3.26,1085.2799999999997,156.85,-11.19,-18.56,0.0,213.35,2.54,15.26
3.27,1095.15,151.11,-12.92,-17.84,0.0,217.99,4.01,2.02
3.28,1102.5299999999997,156.84,-11.18,-17.99,0.0,219.4,5.29,-1.46
3.29,1112.1,155.5,-13.2,-17.8,0.0,217.44,4.98,4.46
3.3,1120.85,154.17,-11.76,-16.95,0.0,218.97,4.01,-7.99
3.3099999999999996,1130.9499999999998,150.77,-11.33,-18.3,0.0,223.61,1.32,8.3
3.32,1141.4899999999998,147.95,-12.34,-17.63,0.0,227.02,1.87,12.94
3.3299999999999996,1152.67,146.58,-14.27,-19.43,0.0,233.49,1.56,27.1
3.34,1163.33,145.29,-15.2,-17.76,0.0,241.0,3.09,10.93
3.3499999999999996,1174.9499999999998,142.21,-16.05,-19.77,0.0,245.46,1.63,12.21
3.36,1186.27,140.98,-16.34,-20.76,0.0,255.96,3.7,17.58
3.3699999999999997,1198.5499999999997,136.72,-16.31,-20.17,0.0,266.82,3.64,2.99
3.38,1209.58,135.44,-16.93,-18.29,0.0,278.17,2.85,7.69
3.3899999999999997,1219.88,134.63,-17.44,-18.06,0.0,289.16,3.7,-0.3
3.4,1231.7799999999997,131.38,-15.11,-19.01,0.0,306.92,2.66,-12.88
3.4099999999999997,1241.37,129.29,-13.66,-18.79,0.0,316.26,4.92,4.34
3.42,1250.3400000000001,128.25,-14.7,-19.49,0.0,320.66,2.91,4.09
3.4299999999999997,1259.7399999999998,127.36,-17.43,-20.08,0.0,324.44,1.14,13.13
3.44,1269.04,123.38,-14.37,-19.16,0.0,328.1,2.36,3.67
3.4499999999999997,1279.83,123.4,-15.1,-19.47,0.0,327.37,2.72,6.17
3.46,1289.79,122.23,-14.19,-20.72,0.0,325.72,2.48,18.44
3.4699999999999998,1299.75,120.68,-13.38,-20.28,0.0,328.96,2.48,12.52
3.48,1309.0900000000001,117.22,-13.36,-20.0,0.0,324.26,2.6,5.37
3.4899999999999998,1318.65,115.86,-14.14,-20.27,0.0,326.7,5.04,12.27
3.5,1328.65,115.06,-13.78,-23.04,0.0,332.56,2.11,3.73
3.51,1339.19,114.86,-12.41,-21.96,0.0,334.57,2.85,-1.22
3.52,1348.7799999999997,111.1,-14.91,-20.7,0.0,335.91,1.69,9.71
3.52,1348.7799999999997,111.1,-14.91,-20.7,0.0,335.91,1.69,9.71
3.53,1357.8400000000001,108.62,-13.56,-20.23,0.0,335.06,1.2,2.69
3.54,1365.21,104.38,-13.92,-20.76,0.0,334.76,3.95,21.18
3.55,1374.6100000000001,88.08,-11.92,-22.12,0.0,334.63,1.81,20.27
3.5599999999999996,1384.98,98.82,-14.03,-21.22,0.0,332.99,1.14,17.22
3.57,1394.4,87.8,-14.33,-20.32,0.0,335.12,2.48,27.41
3.5799999999999996,1405.33,89.17,-16.36,-21.55,0.0,336.95,1.87,9.83
3.59,1416.17,83.08,-17.36,-22.87,0.0,346.23,2.54,9.4
3.5999999999999996,1426.48,79.1,-16.09,-23.36,0.0,353.25,1.56,10.5
3.61,1436.9099999999999,77.81,-16.67,-22.76,0.0,357.64,2.3,10.07
3.6199999999999997,1447.9899999999998,72.77,-16.24,-23.58,0.0,367.72,4.86,14.83
3.63,1458.6599999999999,69.18,-15.33,-22.33,0.0,373.15,2.3,17.7
3.6399999999999997,1467.83,64.2,-16.83,-24.13,0.0,376.57,5.23,8.43
3.65,1478.19,59.76,-16.1,-25.0,0.0,385.29,4.37,14.35
3.6599999999999997,1486.62,55.67,-15.46,-23.73,0.0,392.44,5.23,21.79
3.67,1493.98,52.14,-13.97,-21.4,0.0,397.87,3.46,5.31
3.6799999999999997,1500.69,46.61,-15.7,-22.55,0.0,401.65,5.23,15.14
3.69,1508.92,44.03,-16.91,-20.67,0.0,401.59,3.09,13.06
3.6999999999999997,1516.94,40.49,-18.56,-23.42,0.0,407.57,3.15,24.97
3.71,1527.1399999999999,36.21,-17.04,-22.39,0.0,412.15,1.2,11.29
3.7199999999999998,1536.37,31.49,-17.72,-22.63,0.0,421.43,1.87,16.24
3.73,1548.0099999999998,27.85,-18.87,-22.3,0.0,432.41,2.6,17.28
3.7399999999999998,1557.04,23.04,-19.29,-24.02,0.0,440.59,5.29,15.63
3.75,1565.7599999999998,18.14,-18.62,-25.07,0.0,451.15,4.13,17.22
3.76,1575.6799999999998,13.07,-17.82,-23.98,0.0,459.03,4.37,17.95
3.77,1585.0700000000002,8.44,-19.03,-23.03,0.0,465.98,3.4,19.47
3.78,1593.2599999999998,3.03,-18.17,-23.82,0.0,471.91,4.92,9.65
3.79,1603.0,-1.4,-18.37,-23.74,0.0,480.08,5.78,3.18
3.8,1609.67,-5.82,-16.41,-22.55,0.0,492.66,6.45,19.29
3.8099999999999996,1617.7799999999997,-10.65,-16.76,-22.4,0.0,500.41,5.65,5.5
3.82,1626.0,-15.69,-16.47,-21.87,0.0,502.97,4.92,5.19
3.8299999999999996,1635.3200000000002,-20.8,-15.47,-25.36,0.0,507.86,7.73,21.79
3.84,1643.7799999999997,-26.0,-15.59,-23.22,0.0,512.86,6.02,2.87
3.84,1643.7799999999997,-26.0,-15.59,-23.22,0.0,512.86,6.02,2.87
3.8499999999999996,1651.69,-30.32,-15.45,-23.01,0.0,516.46,5.35,-3.35
3.86,1661.0499999999997,-34.23,-15.9,-22.99,0.0,518.05,5.41,20.21
3.8699999999999997,1668.5299999999997,-39.87,-14.85,-22.3,0.0,528.3,5.29,20.88
3.88,1676.58,-44.24,-14.49,-22.53,0.0,530.56,5.53,14.1
3.8899999999999997,1682.0900000000001,-46.88,-14.33,-23.75,0.0,530.93,5.78,29.79
3.9,1689.81,-49.53,-14.49,-23.37,0.0,530.81,4.43,18.86
3.9099999999999997,1696.44,-51.48,-14.34,-23.36,0.0,531.05,2.72,-2.99
3.92,1704.5099999999998,-52.79,-13.6,-23.23,0.0,527.14,2.48,6.78
3.9299999999999997,1711.58,-54.27,-15.07,-24.91,0.0,535.93,1.2,6.29
3.94,1720.88,-54.6,-14.47,-22.17,0.0,539.29,1.08,4.82
3.94,1720.88,-54.6,-14.47,-22.17,0.0,539.29,1.08,4.82
3.9499999999999997,1730.19,-56.6,-15.28,-23.09,0.0,548.45,0.53,11.54
3.96,1737.5099999999998,-55.95,-15.46,-25.74,0.0,553.63,1.99,-1.58
3.9699999999999998,1746.83,-57.07,-12.41,-24.62,0.0,563.03,2.6,7.45
3.98,1757.0499999999997,-58.08,-14.21,-27.01,0.0,563.52,3.76,20.08
3.9899999999999998,1764.17,-58.4,-10.17,-28.46,0.0,562.18,3.58,31.19
4.0,1772.85,-59.36,-11.47,-26.84,0.0,565.66,1.99,24.6
4.01,1779.8600000000001,-58.73,-12.22,-28.29,0.0,567.37,1.63,26.07
4.0200000000000005,1788.7799999999997,-59.53,-13.01,-29.14,0.0,577.13,-0.82,16.85
4.03,1796.6999999999998,-61.34,-12.66,-27.76,0.0,588.61,-1.55,28.75
4.04,1804.85,-60.38,-12.39,-28.43,0.0,603.99,-2.28,7.14
4.05,1814.35,-60.71,-11.94,-29.24,0.0,614.79,0.16,21.55
4.06,1820.73,-61.12,-11.49,-29.62,0.0,623.64,1.14,3.97
4.07,1829.12,-61.21,-9.88,-29.32,0.0,633.59,2.48,42.12
4.08,1836.85,-58.91,-9.24,-29.37,0.0,635.18,2.36,29.36
4.09,1843.46,-56.47,-8.14,-31.29,0.0,636.34,0.59,21.43
4.1,1853.3400000000001,-57.08,-7.79,-30.84,0.0,632.07,1.81,10.68
4.11,1860.4099999999999,-61.05,-7.86,-33.43,0.0,626.02,0.16,22.34
4.12,1867.15,-64.72,-4.94,-31.84,0.0,629.99,-2.04,47.67
4.13,1871.3200000000002,-71.32,-7.2,-34.02,0.0,644.95,-0.39,28.39
4.14,1875.1399999999999,-64.05,-6.09,-32.91,0.0,683.95,-0.33,41.02
4.15,1877.9499999999998,-62.89,-5.74,-33.77,0.0,712.27,-0.82,23.75
4.16,1883.13,-61.83,-2.44,-32.18,0.0,735.4,-3.14,7.63
4.16,1883.13,-61.83,-2.44,-32.18,0.0,735.4,-3.14,7.63
4.17,1888.4299999999998,-62.24,-1.57,-33.15,0.0,752.19,-6.19,16.67
4.18,1894.29,-62.62,0.59,-30.93,0.0,753.9,-4.97,11.78
4.19,1898.7999999999997,-63.14,1.43,-32.03,0.0,751.03,-5.94,10.07
4.2,1903.1999999999998,-63.22,2.12,-33.38,0.0,739.98,-5.33,34.61
4.21,1907.37,-63.3,2.49,-33.18,0.0,732.23,-9.24,16.54
4.22,1912.1100000000001,-62.53,4.23,-33.12,0.0,728.44,-9.12,14.65
4.23,1916.1799999999998,-62.68,5.34,-34.36,0.0,722.22,-10.95,7.63
4.24,1921.6100000000001,-61.83,5.68,-33.98,0.0,706.47,-10.83,33.88
4.25,1927.0299999999997,-62.26,6.3,-35.04,0.0,702.44,-15.59,43.77
4.26,1935.4099999999999,-62.45,6.36,-35.72,0.0,692.19,-14.79,6.9
4.2700000000000005,1944.35,-62.32,5.65,-37.67,0.0,683.83,-14.0,17.64
4.28,1954.1100000000001,-62.79,6.37,-37.13,0.0,682.61,-15.34,30.34
4.29,1965.1100000000001,-63.05,6.45,-38.44,0.0,677.17,-17.23,48.28
4.3,1973.98,-62.27,7.98,-39.52,0.0,674.73,-17.36,37.91
4.31,1984.67,-62.75,10.22,-39.29,0.0,659.53,-18.64,52.8
4.319999999999999,1993.0900000000001,-62.16,9.77,-40.02,0.0,642.02,-18.03,31.62
4.33,2004.2599999999998,-63.55,9.8,-42.11,0.0,621.2,-15.71,44.74
4.34,2014.6399999999999,-62.57,9.19,-43.66,0.0,613.82,-17.66,36.99
4.35,2025.83,-62.49,9.35,-44.2,0.0,599.72,-18.03,22.16
4.359999999999999,2036.12,-62.32,9.49,-44.87,0.0,592.88,-16.44,21.92
4.37,2048.83,-62.75,9.27,-45.1,0.0,582.26,-16.75,28.51
4.38,2061.89,-62.25,7.88,-47.04,0.0,576.64,-16.99,35.47
4.39,2074.29,-61.81,9.08,-47.42,0.0,577.44,-15.1,36.99
4.3999999999999995,2086.59,-64.34,8.92,-48.33,0.0,579.7,-15.71,25.58
4.41,2099.13,-61.81,9.56,-48.45,0.0,580.25,-14.3,52.07
4.42,2112.96,-61.77,7.49,-49.68,0.0,571.52,-14.06,39.92
4.43,2124.38,-62.41,8.83,-51.52,0.0,570.6,-13.51,41.51
4.4399999999999995,2134.54,-62.01,6.74,-50.57,0.0,573.23,-12.53,26.43
4.45,2144.84,-62.13,5.73,-50.11,0.0,586.11,-13.94,39.01
4.46,2153.2799999999997,-61.7,6.57,-50.13,0.0,596.36,-11.56,37.11
4.47,2161.97,-62.55,8.4,-50.31,0.0,596.24,-11.99,39.25
4.4799999999999995,2172.18,-62.24,9.68,-49.22,0.0,593.61,-10.22,27.84
4.4799999999999995,2172.18,-62.24,9.68,-49.22,0.0,593.61,-10.22,27.84
4.49,2181.0,-61.58,8.38,-50.79,0.0,579.33,-12.6,34.73
4.5,2188.43,-61.38,8.31,-50.23,0.0,575.36,-11.62,16.97
4.51,2195.64,-61.95,8.41,-49.94,0.0,575.18,-11.31,29.12
4.52,2201.23,-61.38,7.76,-49.48,0.0,573.59,-10.76,28.57
4.53,2209.14,-62.43,7.97,-48.94,0.0,579.21,-8.51,43.64
4.54,2215.43,-63.07,7.39,-48.56,0.0,580.86,-9.12,32.11
4.55,2223.13,-61.09,7.76,-49.02,0.0,584.27,-11.07,37.6
4.56,2230.71,-61.09,5.42,-48.24,0.0,590.26,-10.52,45.84
4.569999999999999,2239.7,-61.09,6.18,-49.25,0.0,598.44,-10.03,45.35
4.58,2246.6,-61.45,6.69,-49.35,0.0,606.25,-11.25,15.45
4.59,2254.44,-61.66,3.5,-48.81,0.0,617.11,-10.22,65.74
4.6,2262.4,-61.29,6.44,-48.31,0.0,630.3,-8.38,33.21
4.609999999999999,2269.43,-60.96,5.37,-47.85,0.0,638.35,-8.51,57.56
4.62,2278.22,-61.84,6.45,-50.03,0.0,647.08,-10.22,42.67
4.63,2285.2599999999998,-63.12,6.73,-47.1,0.0,651.6,-9.06,32.05
4.64,2291.72,-62.26,7.6,-48.53,0.0,645.92,-10.28,39.43
4.6499999999999995,2299.36,-62.87,7.41,-48.37,0.0,639.45,-9.24,38.82
4.66,2305.0,-62.8,7.15,-47.34,0.0,632.55,-9.85,33.51
4.67,2312.65,-62.8,7.5,-47.5,0.0,623.83,-8.14,61.65
4.68,2320.66,-61.51,7.41,-48.71,0.0,618.88,-9.79,46.27
4.6899999999999995,2328.44,-61.16,7.48,-47.78,0.0,618.82,-7.84,34.24
4.7,2335.17,-61.21,8.03,-48.14,0.0,616.32,-9.91,43.52
4.71,2342.96,-60.62,6.99,-48.91,0.0,615.83,-10.58,48.95
4.72,2350.64,-62.28,6.97,-47.24,0.0,612.96,-10.03,34.18
4.7299999999999995,2357.02,-61.04,7.46,-47.51,0.0,611.31,-9.61,43.34
4.74,2363.5299999999997,-60.48,6.11,-48.16,0.0,612.53,-10.03,35.83
4.75,2370.04,-60.73,6.13,-46.99,0.0,616.44,-9.91,46.88
4.76,2376.44,-60.94,5.77,-46.95,0.0,622.06,-8.69,30.7
4.77,2381.89,-59.47,6.6,-46.93,0.0,626.94,-8.69,50.3
4.78,2387.7,-57.96,5.76,-45.92,0.0,631.64,-9.12,51.21
4.79,2393.99,-56.22,6.73,-46.22,0.0,630.05,-8.87,20.39
4.8,2399.58,-52.59,7.02,-45.92,0.0,630.24,-9.36,42.73
4.8,2399.58,-52.59,7.02,-45.92,0.0,630.24,-9.36,42.73
4.81,2405.52,-43.31,7.73,-45.0,0.0,628.95,-8.38,55.12
4.819999999999999,2410.99,-37.8,8.54,-45.3,0.0,621.87,-8.32,16.79
4.83,2413.48,-31.98,13.33,-50.29,0.0,614.37,11.82,58.96
4.84,2407.54,-21.06,4.15,-30.11,0.0,601.24,20.3,12.21
4.85,2395.54,-10.83,9.52,-33.1,0.0,596.42,34.77,71.84
4.859999999999999,2378.69,-42.95,-1.48,-11.81,0.0,537.83,34.04,32.6
4.87,2360.45,-50.04,0.56,-30.31,0.0,525.98,50.88,45.84
4.88,2342.72,-50.25,-6.37,-11.15,0.0,523.79,43.01,73.86
4.89,2334.81,-49.53,-7.77,-15.8,0.0,535.75,46.85,64.03
4.8999999999999995,2347.33,-48.75,-9.12,-8.13,0.0,552.11,37.45,43.58
4.91,2371.46,-49.01,-22.8,-9.09,0.0,573.65,29.46,15.38
4.92,2382.48,-49.12,-16.13,0.94,0.0,601.18,22.44,5.19
4.93,2393.16,-48.85,-16.93,-6.95,0.0,619.0,20.06,-2.87
4.9399999999999995,2401.83,-48.54,-15.38,0.94,0.0,634.81,12.19,-16.11
4.95,2410.99,-48.36,-13.04,-6.19,0.0,645.68,9.07,-50.47
4.96,2417.65,-48.17,-9.98,-0.25,0.0,649.28,7.06,15.93
4.97,2421.7,-47.29,-6.24,-4.57,0.0,641.95,2.97,-63.54
4.9799999999999995,2416.46,-47.64,-3.77,-1.07,0.0,626.21,4.25,-49.86
4.99,2397.56,-48.73,-0.65,-1.64,0.0,606.06,2.18,-0.67
5.0,2357.85,-46.91,7.04,-5.23,0.0,578.05,-0.51,-13.43
5.01,2323.02,-47.19,13.84,0.8,0.0,545.94,-5.39,-26.85
5.02,2301.95,-47.04,10.91,-2.32,0.0,513.78,-6.37,24.11
5.03,2288.2,-47.0,11.83,-2.85,0.0,482.46,-11.07,-3.6
5.04,2279.39,-47.23,12.66,-3.74,0.0,452.5,-15.1,-21.36
5.05,2275.52,-46.82,12.01,-4.68,0.0,419.72,-18.21,5.44
5.06,2274.82,-46.55,11.51,-6.57,0.0,395.61,-18.88,5.07
5.069999999999999,2275.52,-46.44,9.36,-7.2,0.0,379.01,-21.87,38.58
5.08,2278.57,-46.1,8.99,-9.58,0.0,366.86,-20.16,35.28
5.09,2282.68,-46.58,6.48,-10.58,0.0,364.42,-17.91,33.39
5.1,2287.38,-45.98,5.78,-12.04,0.0,366.37,-12.78,2.81
5.109999999999999,2295.6,-46.3,4.23,-12.03,0.0,369.49,-9.91,35.65
5.12,2302.2999999999997,-46.21,3.3,-13.75,0.0,373.21,-5.45,23.56
5.12,2302.2999999999997,-46.21,3.3,-13.75,0.0,373.21,-5.45,23.56
5.13,2307.95,-45.52,1.62,-13.07,0.0,381.69,0.16,-16.54
5.14,2314.42,-46.45,2.2,-12.54,0.0,385.78,7.36,-8.85
5.1499999999999995,2319.48,-46.07,1.46,-11.45,0.0,392.56,8.22,-9.09
5.16,2324.79,-45.71,1.68,-10.53,0.0,395.43,10.35,-18.25
5.17,2328.56,-45.39,1.65,-8.87,0.0,397.87,13.16,45.11
5.18,2333.2799999999997,-45.57,2.2,-7.86,0.0,398.23,13.28,47.18
5.1899999999999995,2337.0499999999997,-46.64,2.19,-6.62,0.0,395.98,11.94,4.82
5.2,2341.89,-45.82,2.58,-5.44,0.0,393.66,10.23,5.74
5.21,2346.15,-45.9,3.16,-4.98,0.0,388.59,5.65,-40.16
5.22,2350.52,-46.34,3.39,-4.23,0.0,382.55,1.81,27.53
5.2299999999999995,2357.14,-45.03,4.28,-4.69,0.0,374.25,-1.85,-26.91
5.24,2363.29,-45.78,4.46,-4.69,0.0,368.63,-6.37,-3.66
5.25,2369.21,-45.03,4.95,-5.74,0.0,360.09,-9.67,-2.19
5.26,2376.44,-44.98,5.1,-6.18,0.0,353.8,-10.46,29.42
5.27,2384.74,-44.69,5.82,-7.08,0.0,345.99,-13.45,9.46
5.28,2393.4,-44.55,6.05,-7.35,0.0,342.69,-12.84,5.68
5.29,2401.83,-45.0,6.37,-8.59,0.0,336.4,-11.74,3.24
5.3,2409.56,-44.18,6.48,-8.86,0.0,331.03,-11.31,10.14
5.31,2418.36,-43.99,6.42,-9.53,0.0,327.25,-8.99,-26.49
5.319999999999999,2426.22,-44.48,6.16,-9.39,0.0,328.1,-5.39,-36.13
5.33,2433.37,-44.13,5.65,-9.96,0.0,325.84,-4.11,33.51
5.34,2439.93,-43.9,5.04,-9.41,0.0,326.27,-3.56,-3.23
5.35,2447.57,-44.6,4.74,-9.66,0.0,330.85,-1.06,6.66
5.359999999999999,2453.66,-44.08,3.45,-8.96,0.0,329.99,0.04,9.22
5.37,2460.0,-44.54,3.23,-9.49,0.0,334.57,1.69,69.4
5.38,2464.66,-43.6,2.17,-8.22,0.0,334.21,2.79,29.12
5.39,2470.52,-43.99,1.9,-8.32,0.0,340.25,2.66,42.24
5.3999999999999995,2475.43,-44.36,1.72,-7.81,0.0,343.42,2.24,15.38
5.41,2482.5,-43.6,1.73,-7.43,0.0,347.76,2.91,-49.8
5.42,2486.69,-43.54,2.1,-7.29,0.0,348.37,2.05,15.69
5.43,2492.69,-43.4,2.12,-5.89,0.0,353.01,-0.14,-55.97
5.4399999999999995,2498.81,-42.97,2.87,-7.42,0.0,351.6,0.04,-16.54
5.4399999999999995,2498.81,-42.97,2.87,-7.42,0.0,351.6,0.04,-16.54
5.45,2506.0099999999998,-43.14,3.1,-5.5,0.0,350.26,0.34,-9.15
5.46,2512.62,-43.42,4.11,-7.34,0.0,348.37,-1.85,2.38
5.47,2519.96,-42.87,4.33,-6.12,0.0,342.2,-3.99,-8.36
5.4799999999999995,2527.06,-42.76,5.36,-7.06,0.0,336.4,-1.0,16.3
5.49,2534.41,-42.84,5.34,-6.45,0.0,334.02,-4.97,6.35
5.5,2541.88,-42.97,5.86,-6.98,0.0,331.7,-5.15,7.33
5.51,2549.24,-42.9,5.98,-7.18,0.0,323.28,-4.91,10.56
5.52,2555.7599999999998,-42.51,5.41,-6.75,0.0,321.33,-5.88,45.84
5.53,2562.2799999999997,-43.07,5.65,-7.78,0.0,314.37,-6.43,-21.6
5.54,2569.29,-43.03,4.47,-7.13,0.0,311.93,-4.6,31.86
5.55,2576.19,-42.07,4.34,-8.03,0.0,312.23,-5.88,51.52
5.56,2582.6,-44.18,3.28,-7.73,0.0,313.09,-5.09,17.64
5.569999999999999,2590.11,-42.34,3.25,-8.22,0.0,315.47,-4.91,43.95
5.58,2595.93,-42.33,2.83,-8.39,0.0,318.64,-3.01,-2.56
5.59,2601.75,-42.1,2.62,-8.05,0.0,321.69,-0.82,0.37
5.6,2609.2799999999997,-42.12,2.94,-8.24,0.0,322.91,-0.94,0.98
5.609999999999999,2616.2,-42.37,2.83,-7.8,0.0,326.27,-0.51,8.79
5.62,2621.92,-41.86,3.34,-7.8,0.0,328.22,2.79,21.73
5.63,2628.49,-41.52,2.97,-7.36,0.0,329.26,1.87,5.19
5.64,2634.69,-41.7,4.04,-7.13,0.0,327.19,3.4,-40.1
5.6499999999999995,2641.39,-41.73,3.75,-6.53,0.0,327.55,2.66,-14.83
5.66,2647.24,-41.42,4.21,-6.17,0.0,324.38,1.63,-14.89
5.67,2653.71,-41.34,4.17,-6.0,0.0,322.91,0.22,-2.13
5.68,2660.18,-41.31,4.28,-5.69,0.0,320.11,-1.24,-13.79
5.6899999999999995,2665.5499999999997,-41.29,3.79,-5.82,0.0,316.87,-1.91,-5.12
5.7,2672.02,-41.49,4.06,-5.82,0.0,314.12,-3.56,26.8
5.71,2678.99,-42.0,3.61,-6.34,0.0,313.51,-4.97,16.36
5.72,2686.09,-41.62,3.64,-6.27,0.0,311.99,-6.55,-25.94
5.7299999999999995,2692.46,-41.05,3.26,-7.09,0.0,310.77,-6.55,-13.67
5.74,2700.43,-40.65,3.58,-7.12,0.0,311.99,-6.19,62.93
5.75,2705.82,-40.85,3.35,-7.42,0.0,310.28,-6.19,-42.05
5.76,2712.82,-40.72,3.62,-7.63,0.0,312.6,-4.97,8.12
5.76,2712.82,-40.72,3.62,-7.63,0.0,312.6,-4.97,8.12
5.77,2720.31,-40.62,3.6,-7.47,0.0,315.04,-2.71,-30.88
5.78,2727.31,-40.53,3.54,-7.57,0.0,314.55,-2.34,-28.32
5.79,2733.96,-40.25,3.48,-7.46,0.0,312.97,-1.43,17.95
5.8,2740.36,-40.1,3.58,-7.39,0.0,313.03,1.08,34.31
5.81,2747.62,-40.1,3.28,-6.9,0.0,312.84,-0.08,11.05
5.819999999999999,2752.43,-40.64,3.63,-7.07,0.0,313.94,-0.02,-9.27
5.83,2758.84,-40.44,3.28,-6.32,0.0,312.9,2.3,14.59
5.84,2764.52,-39.95,3.16,-6.42,0.0,313.15,1.14,-8.54
5.85,2771.43,-39.97,3.28,-6.11,0.0,313.15,-0.08,18.19
5.859999999999999,2777.98,-40.78,3.26,-5.93,0.0,311.74,-1.0,1.35
5.87,2783.79,-40.32,2.99,-6.04,0.0,309.85,-1.06,9.65
5.88,2790.1,-40.12,3.04,-5.92,0.0,308.2,-2.04,5.31
5.89,2795.5499999999997,-40.62,2.89,-5.99,0.0,310.4,-2.22,-2.07
5.8999999999999995,2802.86,-40.08,3.2,-6.07,0.0,309.85,-3.75,-8.36
5.91,2809.93,-39.74,3.53,-6.0,0.0,307.84,-3.68,20.15
5.92,2816.13,-39.87,3.55,-6.46,0.0,306.25,-2.77,-23.8
5.93,2823.33,-39.4,3.49,-6.51,0.0,305.7,-4.48,31.56
5.9399999999999995,2829.04,-39.32,3.78,-6.25,0.0,306.13,-3.2,31.13
5.95,2835.63,-39.25,3.56,-6.51,0.0,304.73,-3.99,45.17
5.96,2842.23,-39.11,3.73,-6.56,0.0,304.11,-2.46,-6.65
5.97,2848.7,-39.02,3.63,-6.62,0.0,303.93,-2.77,35.71
5.9799999999999995,2857.17,-39.25,3.85,-6.64,0.0,302.95,-1.85,-28.75
5.99,2862.0299999999997,-38.95,3.52,-6.45,0.0,302.53,-0.88,-9.76
6.0,2868.27,-39.01,3.51,-6.49,0.0,301.86,-0.63,30.34
6.01,2874.5099999999998,-38.87,3.07,-6.36,0.0,301.49,-0.02,2.87
6.02,2881.2599999999998,-39.07,3.15,-6.37,0.0,302.28,-0.75,5.98
6.03,2886.7599999999998,-38.85,2.95,-6.42,0.0,302.89,-1.61,-37.96
6.04,2892.89,-39.03,2.78,-6.2,0.0,302.47,-1.85,-10.25
6.05,2899.77,-38.59,2.65,-6.12,0.0,301.73,-0.45,-26.91
6.06,2905.66,-38.9,2.86,-5.72,0.0,305.4,-0.75,22.1
6.069999999999999,2911.42,-38.51,2.74,-6.3,0.0,304.85,-0.27,-1.77
6.08,2917.82,-38.43,2.72,-5.46,0.0,304.6,-0.94,-15.99
6.08,2917.82,-38.43,2.72,-5.46,0.0,304.6,-0.94,-15.99
6.09,2923.84,-38.58,2.75,-6.25,0.0,304.54,-1.06,29.85
6.1,2930.75,-38.5,3.06,-5.88,0.0,304.6,-0.69,-10.98
6.109999999999999,2936.65,-38.2,3.29,-5.99,0.0,304.6,-0.88,19.17
6.12,2941.56,-38.08,3.25,-5.88,0.0,305.58,-2.1,-11.66
6.13,2949.11,-38.1,3.39,-5.87,0.0,302.89,-0.94,-19.28
6.14,2954.77,-38.36,3.46,-5.73,0.0,301.92,-1.43,10.5
6.1499999999999995,2960.94,-38.02,3.31,-5.75,0.0,299.35,-2.34,-29.42
6.16,2967.9999999999995,-37.97,3.51,-6.11,0.0,298.13,-2.28,4.7
6.17,2975.4500000000003,-38.23,3.46,-5.79,0.0,299.54,-1.73,20.69
6.18,2982.39,-37.88,3.49,-5.92,0.0,296.06,-1.91,19.35
6.1899999999999995,2988.7099999999996,-37.78,3.07,-5.7,0.0,295.08,-2.04,-32.22
6.2,2994.27,-37.63,3.06,-5.99,0.0,297.4,-1.98,-5.86
6.21,3000.3399999999997,-37.69,3.45,-6.02,0.0,296.85,-2.16,22.89
6.22,3007.0499999999997,-37.47,2.84,-5.72,0.0,295.39,-2.65,33.02
6.2299999999999995,3013.77,-37.38,3.3,-6.23,0.0,294.65,-0.57,-4.15
6.24,3020.7400000000002,-37.38,2.68,-5.77,0.0,295.39,-1.85,-12.69
6.25,3027.0800000000004,-37.69,3.46,-6.06,0.0,295.02,-1.49,-7.57
6.26,3032.9199999999996,-37.18,2.64,-5.91,0.0,295.45,-0.63,16.42
6.27,3038.77,-37.05,3.17,-5.94,0.0,295.45,-0.94,18.07
6.28,3045.8799999999997,-37.0,2.8,-5.94,0.0,294.65,-0.63,29.36
6.29,3051.48,-37.54,2.94,-5.7,0.0,296.55,0.59,0.37
6.3,3056.57,-37.2,2.65,-6.0,0.0,295.33,0.28,8.67
6.31,3063.57,-37.23,2.72,-5.55,0.0,296.79,0.71,10.56
6.319999999999999,3069.56,-36.93,2.75,-5.65,0.0,295.81,-0.69,-1.52
6.33,3075.94,-36.93,2.82,-5.38,0.0,296.73,-0.08,7.21
6.34,3081.5499999999997,-36.81,3.14,-5.41,0.0,295.33,-0.14,-25.94
6.35,3088.32,-36.81,2.93,-5.18,0.0,295.94,0.04,-4.03
6.359999999999999,3093.94,-36.59,3.16,-5.17,0.0,295.33,-0.45,-9.89
6.37,3099.7000000000003,-36.64,3.07,-5.16,0.0,294.65,-1.73,1.35
6.38,3105.5800000000004,-36.31,3.12,-5.3,0.0,293.56,-1.24,10.5
6.39,3113.0099999999998,-36.47,3.11,-5.42,0.0,293.07,-2.71,-17.27
6.3999999999999995,3119.4100000000003,-36.75,2.92,-5.18,0.0,292.76,-2.46,-7.44
6.3999999999999995,3119.4100000000003,-36.75,2.92,-5.18,0.0,292.76,-2.46,-7.44
6.41,3125.9500000000003,-36.2,2.98,-5.47,0.0,291.6,-2.22,19.66
6.42,3132.2400000000002,-36.17,3.09,-5.54,0.0,290.69,-2.95,23.2
6.43,3138.27,-36.32,2.97,-5.84,0.0,290.99,-1.55,-3.42
6.4399999999999995,3144.69,-36.25,2.99,-5.64,0.0,290.93,-2.1,3.18
6.45,3152.02,-36.04,3.01,-5.54,0.0,290.14,-0.51,-28.38
6.46,3158.32,-36.13,2.9,-5.61,0.0,289.47,0.04,-12.57
6.47,3163.47,-35.81,3.01,-5.47,0.0,289.59,-0.39,23.69
6.4799999999999995,3169.53,-36.33,2.72,-5.51,0.0,288.67,0.1,6.72
6.49,3176.23,-35.58,2.84,-5.34,0.0,291.17,0.1,18.56
6.5,3182.5499999999997,-35.67,2.78,-5.42,0.0,289.1,-0.21,12.15
6.51,3188.35,-35.59,2.71,-5.2,0.0,289.16,0.1,-14.77
6.52,3194.2899999999995,-35.8,2.61,-5.2,0.0,289.34,-0.63,6.29
6.53,3200.7599999999998,-35.55,2.46,-4.97,0.0,289.95,-0.75,3.48
6.54,3207.35,-35.37,2.52,-5.05,0.0,291.17,-1.24,-13.85
6.55,3212.7899999999995,-35.62,2.51,-5.14,0.0,290.5,-0.39,24.72
6.56,3218.22,-35.49,2.6,-4.86,0.0,289.04,-1.3,-1.1
6.569999999999999,3224.57,-35.35,2.7,-5.1,0.0,288.0,-1.73,-25.27
6.58,3230.7899999999995,-35.16,2.58,-5.06,0.0,288.31,-1.49,-2.56
6.59,3237.6699999999996,-35.09,2.78,-5.14,0.0,288.06,-1.0,16.54
6.6,3242.86,-35.15,2.64,-4.97,0.0,288.25,-1.98,-3.6
6.609999999999999,3249.23,-35.56,2.79,-4.99,0.0,287.94,-2.16,4.76
6.62,3255.9900000000002,-35.06,3.13,-5.1,0.0,286.41,-1.49,-3.23
6.63,3262.7499999999995,-34.96,2.83,-5.0,0.0,285.56,-1.67,-4.09
6.64,3267.0499999999997,-34.94,2.8,-5.18,0.0,285.13,-1.55,2.87
6.6499999999999995,3274.47,-34.99,2.9,-4.57,0.0,284.83,-0.88,19.17
6.66,3280.07,-34.81,2.86,-5.16,0.0,284.22,-0.82,1.96
6.67,3287.5099999999998,-34.74,2.66,-4.86,0.0,284.28,-0.82,7.33
6.68,3292.9900000000002,-34.94,2.92,-4.72,0.0,281.96,-1.3,19.29
6.6899999999999995,3298.6,-34.78,2.66,-4.94,0.0,282.32,-1.3,11.17
6.7,3304.7400000000002,-34.81,2.53,-4.74,0.0,282.14,-0.88,13.8
6.71,3310.4999999999995,-34.66,2.51,-5.05,0.0,282.2,-1.37,5.98
6.72,3316.5099999999998,-34.3,2.51,-4.75,0.0,282.32,-1.85,-0.3
6.72,3316.5099999999998,-34.3,2.51,-4.75,0.0,282.32,-1.85,-0.3
6.7299999999999995,3322.4100000000003,-34.27,2.39,-5.0,0.0,281.59,-0.82,13.98
6.74,3328.56,-34.27,2.35,-4.63,0.0,282.2,-1.3,7.45
6.75,3334.5899999999997,-34.16,2.45,-4.8,0.0,283.48,-1.85,7.39
6.76,3340.36,-34.07,2.36,-4.85,0.0,282.08,-2.16,-9.34
6.77,3345.7499999999995,-34.21,2.46,-4.8,0.0,282.75,-2.34,13.86
6.78,3352.97,-33.99,2.52,-4.88,0.0,283.12,-1.49,-7.14
6.79,3358.6200000000003,-33.87,2.66,-4.64,0.0,284.46,-1.24,11.36
6.8,3366.3799999999997,-33.91,2.63,-4.7,0.0,283.91,-1.18,9.22
6.81,3370.85,-33.75,2.97,-4.56,0.0,281.84,-1.67,20.08
6.819999999999999,3377.8300000000004,-33.78,2.74,-4.69,0.0,281.16,-0.82,6.05
6.83,3383.6299999999997,-33.72,2.71,-4.64,0.0,279.7,-2.1,-12.75
6.84,3389.8300000000004,-33.57,2.68,-4.69,0.0,280.19,-1.67,9.4
6.85,3395.77,-33.88,2.55,-4.75,0.0,278.3,-2.59,-0.79
6.859999999999999,3401.0499999999997,-33.71,2.54,-4.55,0.0,278.66,-1.98,6.29
6.87,3408.31,-33.49,2.53,-4.72,0.0,277.32,-1.49,20.69
6.88,3413.6,-33.51,2.26,-4.57,0.0,277.2,-1.3,-9.21
6.89,3419.82,-33.26,2.57,-4.54,0.0,277.81,-1.24,11.05
6.8999999999999995,3426.1699999999996,-33.27,2.28,-4.64,0.0,276.34,-1.67,-24.59
6.91,3431.8700000000003,-33.38,2.67,-4.7,0.0,276.4,-1.67,15.87
6.92,3438.36,-33.1,2.39,-4.67,0.0,275.85,-1.61,-11.29
6.93,3444.2000000000003,-33.1,2.49,-4.63,0.0,277.14,-1.61,-4.88
6.9399999999999995,3449.77,-33.07,2.55,-4.67,0.0,277.44,-0.82,28.57
6.95,3456.15,-33.07,2.48,-4.5,0.0,277.01,-1.12,7.02
6.96,3461.4599999999996,-32.91,2.41,-4.64,0.0,275.92,-0.63,9.89
6.97,3468.64,-33.32,2.62,-4.56,0.0,275.92,-0.21,15.08
6.9799999999999995,3473.56,-32.93,2.49,-4.31,0.0,274.63,-0.45,-10.62
6.99,3480.7499999999995,-33.06,2.52,-4.51,0.0,274.57,-0.51,-18.0
7.0,3485.68,-32.96,2.28,-4.37,0.0,274.76,-0.94,-11.9
7.01,3491.02,-32.85,2.52,-4.82,0.0,273.72,-0.94,0.67
7.02,3497.28,-33.02,2.17,-4.27,0.0,272.44,-0.45,-24.53
7.03,3504.36,-32.73,2.53,-4.48,0.0,274.15,-1.06,16.24
7.04,3509.2999999999997,-32.52,2.15,-4.73,0.0,273.35,-0.94,-0.91
7.04,3509.2999999999997,-32.52,2.15,-4.73,0.0,273.35,-0.94,-0.91
7.05,3515.85,-32.49,2.4,-4.2,0.0,274.39,-0.82,11.54
7.06,3521.9999999999995,-32.44,2.53,-4.56,0.0,272.31,-0.75,10.81
7.069999999999999,3527.22,-32.39,2.19,-3.91,0.0,272.13,-0.51,-2.19
7.08,3533.3799999999997,-32.26,2.65,-4.42,0.0,272.01,-0.33,-4.51
7.09,3538.8700000000003,-32.55,2.17,-3.69,0.0,272.13,-1.37,1.96
7.1,3545.0399999999995,-32.25,2.39,-4.23,0.0,270.85,-1.79,-7.5
7.109999999999999,3551.0800000000004,-32.24,2.13,-4.06,0.0,270.73,-1.67,-2.26
7.12,3556.5800000000004,-32.11,2.51,-4.32,0.0,269.26,-2.1,2.87
7.13,3563.03,-32.19,2.37,-4.39,0.0,268.29,-2.34,13.74
7.14,3568.81,-31.9,2.14,-4.21,0.0,269.81,-2.89,14.16
7.1499999999999995,3574.4599999999996,-32.26,2.44,-4.62,0.0,268.41,-1.3,0.31
7.16,3580.5099999999998,-31.82,2.05,-4.26,0.0,267.98,-1.49,0.25
7.17,3587.11,-32.12,2.36,-4.51,0.0,267.25,-1.67,13.74
7.18,3592.77,-31.75,2.24,-4.35,0.0,266.76,-1.06,23.99
7.1899999999999995,3598.1699999999996,-31.67,2.15,-4.22,0.0,266.09,-1.3,0.55
7.2,3604.1,-31.69,2.32,-4.43,0.0,266.94,-0.57,5.07
7.21,3609.77,-31.61,2.23,-4.12,0.0,266.88,-0.51,0.25
7.22,3616.6600000000003,-31.78,2.63,-4.23,0.0,265.97,-0.45,3.12
7.2299999999999995,3623.4199999999996,-31.51,2.12,-3.97,0.0,265.54,-0.51,0.0
7.24,3627.35,-31.34,2.61,-3.96,0.0,264.56,-0.94,-3.78
7.25,3634.93,-31.49,2.1,-3.85,0.0,264.07,-0.75,3.97
7.26,3639.7999999999997,-31.55,2.3,-4.02,0.0,263.1,-1.67,18.31
7.27,3645.4999999999995,-31.37,2.18,-3.88,0.0,263.53,-1.61,11.54
7.28,3652.0099999999998,-31.44,2.06,-4.05,0.0,264.32,-2.4,14.9
7.29,3656.6200000000003,-31.29,1.97,-4.06,0.0,262.61,-2.22,2.75
7.3,3663.14,-31.12,2.06,-3.96,0.0,263.4,-2.04,-1.77
7.31,3668.44,-31.06,1.96,-4.01,0.0,263.77,-2.59,0.06
7.319999999999999,3675.1,-31.08,1.95,-4.01,0.0,263.89,-2.28,4.76
7.33,3680.5399999999995,-31.24,2.15,-4.07,0.0,264.38,-2.4,-16.17
7.34,3686.94,-31.11,1.95,-4.29,0.0,263.46,-1.37,-6.83
7.35,3692.6600000000003,-30.76,2.05,-4.14,0.0,264.81,-1.43,4.52
7.359999999999999,3698.6600000000003,-30.75,1.98,-4.25,0.0,264.44,-1.12,13.49
7.359999999999999,3698.6600000000003,-30.75,1.98,-4.25,0.0,264.44,-1.12,13.49
7.37,3705.61,-30.81,2.16,-4.16,0.0,264.93,-0.39,18.07
7.38,3711.48,-30.81,1.99,-4.18,0.0,264.62,0.16,3.24
7.39,3717.0800000000004,-30.74,1.93,-3.98,0.0,264.07,0.47,-2.62
7.3999999999999995,3722.69,-30.64,2.04,-3.93,0.0,264.87,0.71,6.23
7.41,3727.8799999999997,-30.65,2.31,-3.88,0.0,263.65,0.95,10.44
7.42,3732.94,-30.46,2.23,-3.73,0.0,263.53,0.28,12.88
7.43,3738.97,-30.42,2.19,-3.66,0.0,262.79,0.77,1.41
7.4399999999999995,3745.1299999999997,-30.46,2.3,-3.64,0.0,262.67,0.34,0.0
7.45,3750.89,-30.38,2.19,-3.68,0.0,262.3,-0.51,13.13
7.46,3756.5099999999998,-30.43,2.4,-3.48,0.0,260.23,-0.57,2.02
7.47,3762.28,-30.49,2.04,-3.64,0.0,259.37,-1.49,8.79
7.4799999999999995,3768.4599999999996,-30.2,2.14,-3.65,0.0,259.5,-2.4,6.41
7.49,3772.72,-30.19,2.05,-3.75,0.0,260.41,-1.85,-4.27
7.5,3779.32,-30.2,2.09,-3.73,0.0,259.19,-2.1,-0.49
7.51,3784.4100000000003,-30.04,1.96,-3.91,0.0,258.89,-2.4,14.35
7.52,3790.6,-30.05,1.9,-3.77,0.0,259.07,-3.2,0.67
7.53,3796.94,-29.97,1.95,-3.92,0.0,259.44,-2.77,18.01
7.54,3802.4500000000003,-29.95,1.83,-4.0,0.0,258.58,-2.22,-4.82
7.55,3808.94,-29.72,1.88,-4.01,0.0,259.5,-1.61,10.01
7.56,3814.0399999999995,-29.82,1.78,-4.07,0.0,259.5,-1.37,1.53
7.569999999999999,3820.53,-29.77,1.92,-4.03,0.0,259.62,-0.82,8.55
7.58,3825.65,-29.64,2.08,-3.96,0.0,260.11,-0.63,7.14
7.59,3832.8399999999997,-29.53,1.95,-3.71,0.0,260.23,-0.39,7.63
7.6,3839.07,-29.61,2.05,-3.81,0.0,259.5,0.22,-0.06
7.609999999999999,3843.4999999999995,-29.78,1.93,-3.77,0.0,259.56,-0.02,-6.1
7.62,3848.2099999999996,-29.57,2.01,-3.86,0.0,259.44,0.53,4.82
7.63,3854.1699999999996,-29.96,1.82,-3.6,0.0,259.01,0.16,8.67
7.64,3860.4100000000003,-29.77,1.98,-3.62,0.0,257.79,0.16,4.89
7.6499999999999995,3866.1,-29.51,1.93,-3.69,0.0,258.64,0.28,-3.78
7.66,3871.52,-29.34,2.02,-3.44,0.0,258.89,-0.39,7.39
7.67,3877.9100000000003,-29.19,1.81,-3.62,0.0,259.13,-1.18,-2.99
7.68,3883.19,-29.24,1.98,-3.55,0.0,258.64,-1.0,2.87
7.68,3883.19,-29.24,1.98,-3.55,0.0,258.64,-1.0,2.87
7.6899999999999995,3888.9,-29.16,1.91,-3.67,0.0,258.58,-1.12,-8.91
7.7,3894.6,-29.02,1.86,-3.56,0.0,258.7,-1.91,4.82
7.71,3900.6,-29.09,2.06,-3.86,0.0,257.48,-1.43,2.26
7.72,3906.1699999999996,-28.97,1.99,-3.77,0.0,256.38,-0.57,-2.01
7.7299999999999995,3912.5899999999997,-29.1,2.09,-3.89,0.0,256.69,0.1,-3.05
7.74,3917.7499999999995,-29.04,1.88,-3.56,0.0,256.57,0.04,-7.2
7.75,3924.18,-28.99,1.99,-3.83,0.0,256.26,0.28,-0.06
7.76,3930.7499999999995,-28.72,1.79,-3.46,0.0,256.32,0.16,-0.18
7.77,3935.4999999999995,-28.9,2.11,-3.73,0.0,255.83,0.1,3.24
7.78,3941.1,-28.88,1.81,-3.73,0.0,255.96,1.08,13.92
7.79,3946.56,-28.88,1.78,-3.41,0.0,256.32,-0.08,14.47
7.8,3953.14,-29.13,1.99,-3.73,0.0,256.44,-0.39,-10.8
7.81,3958.7499999999995,-28.7,1.68,-3.37,0.0,256.57,-0.45,0.43
7.819999999999999,3964.64,-28.61,1.75,-3.4,0.0,256.38,0.1,2.44
7.83,3970.1200000000003,-28.5,1.7,-3.23,0.0,255.96,-0.82,8.0
7.84,3976.1600000000003,-28.59,1.67,-3.33,0.0,256.51,-0.39,7.88
7.85,3981.36,-28.82,1.72,-3.6,0.0,257.36,-0.63,-4.51
7.859999999999999,3986.4199999999996,-28.38,1.69,-3.19,0.0,257.06,-1.0,0.31
7.87,3993.7400000000002,-28.26,1.73,-3.47,0.0,257.67,-1.67,-10.56
7.88,3997.5399999999995,-28.22,1.65,-3.46,0.0,257.67,-1.43,-3.29
7.89,4003.7400000000002,-28.27,1.73,-3.51,0.0,257.73,-1.3,-5.06
7.8999999999999995,4009.52,-28.16,1.92,-3.28,0.0,257.85,-0.63,-4.33
7.91,4014.31,-28.27,1.53,-3.42,0.0,257.48,-1.37,1.35
7.92,4020.6600000000003,-28.19,1.79,-3.32,0.0,258.21,-1.12,-3.9
7.93,4026.7400000000002,-28.19,1.48,-3.66,0.0,257.18,-1.06,4.82
7.9399999999999995,4032.39,-28.07,1.82,-3.16,0.0,257.24,-1.12,-1.77
7.95,4038.47,-27.97,1.46,-3.43,0.0,256.63,-1.24,-5.55
7.96,4044.8399999999997,-27.9,1.86,-3.4,0.0,256.99,-0.69,-10.13
7.97,4049.3700000000003,-28.02,1.77,-3.34,0.0,257.48,-0.33,-2.93
7.9799999999999995,4055.32,-27.72,1.59,-3.28,0.0,255.65,-0.33,3.18
7.99,4061.4199999999996,-27.72,1.87,-3.11,0.0,256.63,-1.18,6.17
8.0,4066.6699999999996,-27.74,1.71,-3.21,0.0,256.08,-0.75,6.17
8.0,4066.6699999999996,-27.74,1.71,-3.21,0.0,256.08,-0.75,6.17
8.01,4072.77,-27.73,2.05,-3.35,0.0,256.93,-1.0,-6.16
8.02,4078.73,-27.91,1.85,-3.28,0.0,255.22,-1.0,12.33
8.030000000000001,4083.85,-27.71,1.9,-3.14,0.0,256.44,-1.12,4.89
8.040000000000001,4088.8300000000004,-27.51,1.76,-3.2,0.0,254.67,-1.43,3.54
8.05,4095.5099999999998,-27.61,1.97,-3.29,0.0,256.51,-1.43,4.03
8.06,4100.5,-27.5,1.77,-3.34,0.0,256.14,-1.49,5.13
8.07,4105.0599999999995,-27.59,1.81,-3.25,0.0,255.59,-1.91,1.59
8.08,4111.1900000000005,-27.42,1.86,-3.38,0.0,255.41,-1.3,6.47
8.09,4117.75,-27.36,1.79,-3.11,0.0,255.16,-1.61,9.16
8.1,4123.3099999999995,-27.34,1.65,-3.54,0.0,254.67,-1.73,8.79
8.11,4129.030000000001,-27.32,1.57,-3.31,0.0,254.86,-1.24,3.05
8.120000000000001,4134.6,-27.31,1.73,-3.38,0.0,254.67,-1.12,7.69
8.13,4139.6,-27.46,1.3,-3.54,0.0,254.8,-1.18,0.19
8.14,4145.33,-27.19,1.54,-3.11,0.0,255.47,-0.88,-2.5
8.15,4150.48,-27.06,1.27,-3.4,0.0,255.65,-0.21,1.41
8.16,4156.780000000001,-27.1,1.28,-3.1,0.0,256.69,-0.63,-0.79
8.17,4161.51,-27.07,1.47,-3.39,0.0,256.57,-0.75,-5.92
8.18,4167.25,-27.0,1.41,-2.99,0.0,257.24,-0.45,5.07
8.19,4173.129999999999,-26.89,1.61,-3.33,0.0,257.79,0.22,12.27
8.200000000000001,4178.450000000001,-26.83,1.36,-3.23,0.0,257.91,0.28,-2.93
8.21,4184.620000000001,-26.8,1.66,-3.03,0.0,256.87,-0.21,6.96
8.22,4189.51,-26.7,1.66,-2.85,0.0,257.42,-0.45,-9.95
8.23,4195.84,-26.78,1.62,-2.71,0.0,258.21,-0.27,8.06
8.24,4200.299999999999,-26.71,1.85,-3.08,0.0,256.99,-0.51,5.68
8.25,4205.780000000001,-26.79,1.8,-2.69,0.0,256.14,-1.24,0.67
8.26,4211.6900000000005,-26.6,2.0,-3.08,0.0,256.08,-1.67,17.95
8.27,4216.59,-26.67,1.74,-2.62,0.0,256.51,-1.79,5.25
8.280000000000001,4222.07,-26.69,1.92,-2.99,0.0,254.98,-2.22,3.6
8.290000000000001,4227.85,-26.66,1.88,-2.74,0.0,253.64,-2.65,-9.95
8.3,4232.610000000001,-26.65,1.77,-2.97,0.0,253.15,-3.56,2.63
8.31,4239.84,-26.47,1.62,-2.97,0.0,253.15,-3.62,-3.96
8.32,4245.049999999999,-26.32,1.5,-3.17,0.0,253.45,-3.44,-5.61
8.32,4245.049999999999,-26.32,1.5,-3.17,0.0,253.45,-3.44,-5.61
8.33,4250.98,-26.29,1.66,-3.35,0.0,253.64,-3.14,6.59
8.34,4256.92,-26.32,1.32,-3.36,0.0,253.94,-2.65,-4.45
8.350000000000001,4261.700000000001,-26.27,1.68,-3.87,0.0,253.82,-2.04,3.24
8.360000000000001,4267.35,-26.2,1.07,-3.46,0.0,254.61,-0.94,7.88
8.370000000000001,4272.870000000001,-26.09,1.39,-3.95,0.0,254.92,0.4,3.85
8.38,4278.959999999999,-26.1,1.36,-3.15,0.0,255.16,1.32,14.29
8.39,4284.48,-26.07,1.48,-3.57,0.0,255.47,1.69,-0.73
8.4,4290.15,-26.0,1.39,-3.25,0.0,256.57,2.91,8.3
8.41,4295.24,-26.01,1.38,-3.34,0.0,256.63,3.64,6.41
8.42,4300.92,-25.97,1.65,-2.63,0.0,256.57,3.27,1.53
8.430000000000001,4305.58,-25.88,0.91,-2.95,0.0,255.9,3.09,0.43
8.440000000000001,4310.969999999999,-26.02,1.77,-2.46,0.0,256.81,2.6,9.04
8.450000000000001,4316.219999999999,-25.85,0.99,-3.06,0.0,257.42,1.5,10.99
8.46,4320.59,-25.89,1.41,-2.6,0.0,257.91,1.14,4.7
8.47,4326.43,-25.85,1.15,-2.32,0.0,257.54,0.65,2.81
8.48,4330.8099999999995,-25.78,1.04,-2.66,0.0,257.54,-0.63,9.83
8.49,4336.360000000001,-25.88,1.16,-2.52,0.0,257.67,-1.43,2.51
8.5,4342.35,-25.67,1.34,-2.53,0.0,257.91,-2.1,3.54
8.510000000000002,4347.77,-25.54,1.32,-2.64,0.0,258.15,-2.4,-2.13
8.520000000000001,4353.039999999999,-25.63,1.49,-2.46,0.0,256.99,-2.95,-1.34
8.530000000000001,4356.99,-25.57,1.58,-2.86,0.0,257.67,-3.75,2.14
8.540000000000001,4363.4400000000005,-25.48,1.69,-2.49,0.0,256.08,-3.26,3.24
8.55,4369.299999999999,-25.52,1.9,-3.1,0.0,255.04,-3.62,-2.19
8.56,4375.9,-25.46,1.91,-2.83,0.0,254.74,-3.07,2.81
8.57,4381.92,-25.37,1.98,-3.33,0.0,253.45,-3.14,1.16
8.58,4387.51,-25.34,1.92,-2.81,0.0,253.03,-2.16,8.24
8.59,4392.65,-25.3,1.95,-2.98,0.0,251.56,-2.34,1.65
8.600000000000001,4398.83,-25.32,2.04,-2.94,0.0,251.26,-1.91,3.24
8.610000000000001,4404.57,-25.24,1.55,-3.17,0.0,250.52,-1.79,14.59
8.620000000000001,4410.3099999999995,-25.27,1.69,-2.69,0.0,249.79,-1.12,3.6
8.63,4415.469999999999,-25.12,1.31,-3.17,0.0,249.73,-0.82,12.58
8.64,4420.629999999999,-25.02,1.32,-2.72,0.0,250.28,-1.37,18.62
8.64,4420.629999999999,-25.02,1.32,-2.72,0.0,250.28,-1.37,18.62
8.65,4424.91,-25.06,1.14,-3.05,0.0,250.34,-1.06,2.51
8.66,4430.370000000001,-25.08,1.1,-2.73,0.0,251.5,-0.69,6.66
8.67,4435.1,-24.9,0.95,-3.08,0.0,252.48,-0.82,-5.06
8.680000000000001,4441.16,-24.92,0.81,-2.85,0.0,254.0,-0.27,3.54
8.690000000000001,4446.629999999999,-25.09,0.92,-3.05,0.0,254.61,-0.02,6.96
8.700000000000001,4450.92,-24.86,0.88,-2.96,0.0,255.59,-0.27,5.31
8.71,4456.6900000000005,-24.78,1.12,-2.83,0.0,256.69,0.04,2.2
8.72,4461.73,-24.8,0.9,-2.73,0.0,257.67,0.1,1.9
8.73,4467.799999999999,-24.78,1.31,-2.61,0.0,258.52,0.28,4.64
8.74,4472.85,-24.69,1.15,-2.71,0.0,258.46,0.83,0.98
8.75,4478.93,-24.78,1.35,-2.59,0.0,257.85,0.16,-2.26
8.760000000000002,4483.530000000001,-24.68,1.35,-2.52,0.0,258.46,0.4,1.59
8.770000000000001,4490.07,-24.71,1.44,-2.34,0.0,258.21,0.1,3.12
8.780000000000001,4494.530000000001,-24.69,1.5,-2.75,0.0,257.91,0.16,-3.35
8.790000000000001,4500.33,-24.52,1.45,-2.4,0.0,256.81,-0.45,0.55
8.8,4506.280000000001,-24.5,1.41,-2.45,0.0,256.02,-0.94,0.25
8.81,4512.389999999999,-24.41,1.37,-2.49,0.0,255.77,-1.24,4.52
8.82,4516.5599999999995,-24.54,1.52,-2.54,0.0,255.53,-1.61,6.23
8.83,4522.23,-24.35,1.44,-2.37,0.0,255.22,-2.16,8.79
8.84,4527.6,-24.25,1.45,-2.54,0.0,254.13,-2.4,2.75
8.850000000000001,4533.57,-24.31,1.56,-2.55,0.0,253.64,-2.89,0.13
8.860000000000001,4538.65,-24.21,1.34,-2.68,0.0,253.76,-3.07,-0.3
8.870000000000001,4543.58,-24.2,1.41,-2.65,0.0,252.78,-2.95,0.13
8.88,4548.969999999999,-24.16,1.34,-2.67,0.0,253.82,-2.59,3.79
8.89,4553.75,-24.1,1.41,-2.7,0.0,252.84,-2.52,6.11
8.9,4560.1900000000005,-24.08,1.43,-2.59,0.0,253.45,-2.52,4.15
8.91,4565.59,-24.04,1.31,-2.58,0.0,253.27,-2.04,8.06
8.92,4571.879999999999,-24.02,1.19,-2.89,0.0,252.66,-1.85,4.28
8.930000000000001,4576.83,-23.97,1.34,-2.66,0.0,253.39,-1.49,0.61
8.940000000000001,4582.24,-23.91,1.03,-2.78,0.0,252.84,-1.37,1.71
8.950000000000001,4588.24,-23.82,1.3,-2.72,0.0,254.19,-1.24,0.61
8.96,4593.5,-23.86,1.08,-2.6,0.0,254.13,-0.88,2.81
8.96,4593.5,-23.86,1.08,-2.6,0.0,254.13,-0.88,2.81
8.97,4597.5599999999995,-23.89,1.13,-2.67,0.0,254.74,-0.82,4.28
8.98,4602.68,-23.78,1.1,-2.53,0.0,255.22,-0.57,3.42
