time,baro_altitude,accl_x,accl_y,accl_z,gps_altitude,gyro_roll,gyro_pitch,gyro_yaw
0.0,0.0,9.6,-0.24,-0.1,0.0,0.13,0.66,0.31
0.010000000000000009,0.5799999999999983,9.82,0.28,0.15,0.0,-0.18,0.9,0.31
0.019999999999999962,0.0,10.39,0.65,-0.83,0.0,-0.24,0.9,0.68
0.02999999999999997,-0.1600000000000037,10.37,-0.16,-0.61,0.0,-0.11,0.53,0.62
0.03999999999999998,0.1700000000000017,9.86,0.01,-0.63,0.0,-0.18,0.23,0.5
0.04999999999999999,0.1700000000000017,9.38,0.55,0.96,0.0,0.19,0.35,0.56
0.06,0.5,9.93,0.11,-0.64,0.0,0.25,0.53,0.31
0.06999999999999998,-0.5799999999999983,15.35,0.38,-2.5,0.0,-0.66,0.29,0.07
0.07999999999999999,-0.25,30.34,-1.25,0.48,0.0,-0.11,0.17,0.25
0.09,-0.1600000000000037,26.53,1.14,-0.83,0.0,0.01,0.23,0.19
0.09999999999999998,0.1700000000000017,21.62,-0.15,-1.46,0.0,0.5,-0.14,0.56
0.10999999999999999,-0.4100000000000037,20.67,-0.11,-0.36,0.0,0.62,-0.32,0.62
0.12,-0.1600000000000037,21.04,-0.12,-0.92,0.0,1.17,-0.08,0.74
0.12999999999999998,-0.25,21.77,-0.38,-0.54,0.0,1.11,0.29,0.86
0.13999999999999999,0.0,22.92,-0.23,-0.72,0.0,1.05,-0.02,0.86
0.15,-0.0799999999999983,24.24,-0.45,-0.62,0.0,0.92,-0.32,0.8
0.15999999999999998,-0.5,26.19,-0.13,-0.55,0.0,0.92,0.17,1.05
0.16999999999999998,0.25,28.62,-0.53,-1.04,0.0,1.59,-0.2,1.17
0.18,-0.25,31.12,-0.26,-0.34,0.0,1.29,-0.57,1.35
0.19,0.0799999999999983,34.31,-0.42,-1.28,0.0,2.63,-0.14,1.23
0.19999999999999998,0.1700000000000017,39.11,-0.37,-0.53,0.0,2.63,0.59,1.29
0.21,0.0,44.18,-0.68,-1.44,0.0,3.24,-1.48,1.11
0.21999999999999997,0.5799999999999983,50.84,-0.52,-1.28,0.0,4.95,1.08,1.41
0.22999999999999998,-0.3299999999999983,54.68,-0.57,-1.7,0.0,5.13,0.53,0.86
0.24,0.3299999999999983,57.82,-0.42,-1.19,0.0,5.56,-0.14,0.56
0.25,1.0,59.67,-1.47,-1.37,0.0,6.17,1.39,0.68
0.26,0.5799999999999983,60.27,-3.56,-2.22,0.0,7.76,2.67,-0.17
0.27,0.25,60.77,-0.25,0.31,0.0,7.09,4.01,0.44
0.27999999999999997,1.0799999999999983,60.87,-0.56,-1.94,0.0,6.36,1.45,0.19
0.29,1.240000000000002,60.18,-45.21,4.1,0.0,5.87,2.67,-0.97
0.3,0.75,61.86,17.41,9.76,0.0,3.73,-3.37,7.88
0.3,0.75,61.86,17.41,9.76,0.0,3.73,-3.37,7.88
0.3,0.75,61.86,17.41,9.76,0.0,3.73,-3.37,7.88
0.3,0.75,61.86,17.41,9.76,0.0,3.73,-3.37,7.88
0.3,0.75,61.86,17.41,9.76,0.0,3.73,-3.37,7.88
0.3,0.75,61.86,17.41,9.76,0.0,3.73,-3.37,7.88
0.3,0.75,61.86,17.41,9.76,0.0,3.73,-3.37,7.88
0.3,0.75,61.86,17.41,9.76,0.0,3.73,-3.37,7.88
0.3,0.75,61.86,17.41,9.76,0.0,3.73,-3.37,7.88
0.3,0.75,61.86,17.41,9.76,0.0,3.73,-3.37,7.88
0.3,0.75,61.86,17.41,9.76,0.0,3.73,-3.37,7.88
0.3,0.75,61.86,17.41,9.76,0.0,3.73,-3.37,7.88
0.3,0.75,61.86,17.41,9.76,0.0,3.73,-3.37,7.88
0.3,0.75,61.86,17.41,9.76,0.0,3.73,-3.37,7.88
0.3,0.75,61.86,17.41,9.76,0.0,3.73,-3.37,7.88
0.3,0.75,61.86,17.41,9.76,0.0,3.73,-3.37,7.88
0.3,0.75,61.86,17.41,9.76,0.0,3.73,-3.37,7.88
0.3,0.75,61.86,17.41,9.76,0.0,3.73,-3.37,7.88
0.3,0.75,61.86,17.41,9.76,0.0,3.73,-3.37,7.88
0.3,0.75,61.86,17.41,9.76,0.0,3.73,-3.37,7.88
0.3,0.75,61.86,17.41,9.76,0.0,3.73,-3.37,7.88
0.3,0.75,61.86,17.41,9.76,0.0,3.73,-3.37,7.88
0.3,0.75,61.86,17.41,9.76,0.0,3.73,-3.37,7.88
0.3,0.75,61.86,17.41,9.76,0.0,3.73,-3.37,7.88
0.3,0.75,61.86,17.41,9.76,0.0,3.73,-3.37,7.88
0.3,0.75,61.86,17.41,9.76,0.0,3.73,-3.37,7.88
0.3,0.75,61.86,17.41,9.76,0.0,3.73,-3.37,7.88
0.3,0.75,61.86,17.41,9.76,0.0,3.73,-3.37,7.88
0.3,0.75,61.86,17.41,9.76,0.0,3.73,-3.37,7.88
0.3,0.75,61.86,17.41,9.76,0.0,3.73,-3.37,7.88
0.3,0.75,61.86,17.41,9.76,0.0,3.73,-3.37,7.88
0.3,0.75,61.86,17.41,9.76,0.0,3.73,-3.37,7.88
0.3,0.75,61.86,17.41,9.76,0.0,3.73,-3.37,7.88
0.31,1.490000000000002,64.92,-14.89,0.36,0.0,10.69,2.24,8.55
0.31,1.490000000000002,64.92,-14.89,0.36,0.0,10.69,2.24,8.55
0.32,1.240000000000002,67.83,-5.66,7.2,0.0,11.85,2.3,6.05
0.32,1.240000000000002,67.83,-5.66,7.2,0.0,11.85,2.3,6.05
0.32999999999999996,1.240000000000002,65.29,4.99,-4.16,0.0,10.69,-0.99,6.05
0.33999999999999997,1.490000000000002,65.33,-11.26,-8.28,0.0,10.2,1.51,7.94
0.35,2.240000000000002,70.27,-5.02,-4.22,0.0,-28.68,4.99,8.37
0.36,1.490000000000002,71.6,0.16,1.02,0.0,-50.41,6.82,8.92
0.37,1.0,72.98,-3.58,-1.44,0.0,-49.62,6.03,8.49
0.38,2.1599999999999966,76.5,5.4,3.41,0.0,-47.97,5.97,8.86
0.39,1.990000000000002,75.69,-3.51,-0.73,0.0,-46.93,6.51,8.86
0.4,2.979999999999997,78.91,5.08,0.99,0.0,-47.24,8.35,9.96
0.41,3.729999999999997,81.4,-4.51,2.76,0.0,-44.24,3.83,10.26
0.42,1.4099999999999966,83.02,2.24,-1.39,0.0,-44.18,9.44,10.14
0.43,2.8200000000000003,87.05,0.1,-0.19,0.0,-14.58,6.51,11.3
0.44,2.8999999999999986,87.05,0.1,-0.19,0.0,-14.58,6.51,11.3
0.44999999999999996,2.3999999999999986,90.38,-6.52,-3.61,0.0,15.69,7.06,12.46
0.45999999999999996,2.8200000000000003,90.21,-0.95,-1.99,0.0,35.59,1.33,13.62
0.47,3.3200000000000003,91.16,0.53,-2.0,0.0,35.41,5.97,14.6
0.48,4.309999999999995,93.36,-1.58,-1.55,0.0,35.04,7.13,15.15
0.49,3.6499999999999986,94.31,0.64,-1.79,0.0,35.96,2.55,15.76
0.5,3.809999999999995,95.79,-1.18,-1.75,0.0,36.08,7.67,16.43
0.51,4.969999999999999,96.7,0.24,-2.11,0.0,35.1,9.69,16.98
0.52,4.229999999999997,98.13,-1.46,-1.85,0.0,35.65,0.9,18.14
0.53,5.549999999999997,99.8,0.23,-1.69,0.0,36.32,7.86,18.5
0.54,5.640000000000001,101.21,-0.2,-1.86,0.0,38.03,2.43,19.48
0.55,5.469999999999999,101.21,-0.2,-1.86,0.0,38.03,2.43,19.48
0.56,6.219999999999999,101.67,-1.34,-1.61,0.0,38.46,7.0,19.36
0.5700000000000001,6.3799999999999955,102.78,-0.04,-1.44,0.0,39.5,3.52,19.6
0.5800000000000001,6.960000000000001,103.27,-1.33,-2.29,0.0,40.29,0.84,20.58
0.59,7.460000000000001,103.12,0.1,-1.73,0.0,41.21,6.21,20.52
0.6,7.460000000000001,104.26,-1.19,-2.08,0.0,41.88,3.4,20.88
0.61,8.29,105.24,-0.38,-1.4,0.0,42.98,-1.24,21.37
0.62,8.54,105.87,-1.15,-2.02,0.0,43.22,3.71,21.92
0.63,8.29,105.72,-0.39,-1.77,0.0,43.34,0.72,21.92
0.64,9.119999999999997,106.77,-0.8,-1.83,0.0,44.02,0.05,22.53
0.64,9.119999999999997,106.77,-0.8,-1.83,0.0,44.02,0.05,22.53
0.6499999999999999,9.949999999999996,107.34,-0.63,-1.64,0.0,45.36,-1.6,22.96
0.6599999999999999,9.61,107.34,-0.63,-1.64,0.0,45.36,-1.6,22.96
0.6699999999999999,10.439999999999998,107.38,-0.58,-1.82,0.0,46.09,-3.07,22.9
0.6799999999999999,11.269999999999996,108.03,-0.71,-1.52,0.0,46.82,-3.74,23.14
0.69,11.189999999999998,108.04,-0.79,-1.59,0.0,47.74,-3.31,23.39
0.7,11.11,108.1,-0.62,-1.36,0.0,49.26,-6.42,23.26
0.71,12.100000000000001,108.31,-0.32,-1.7,0.0,49.63,-8.19,24.12
0.72,12.68,107.73,-0.87,-1.29,0.0,51.52,-6.18,24.36
0.73,12.93,108.93,-0.74,-1.55,0.0,52.26,-8.44,24.79
0.74,12.93,109.05,-0.82,-1.72,0.0,53.72,-13.57,25.28
0.75,12.850000000000001,109.34,-0.86,-1.59,0.0,55.49,-8.99,25.46
0.76,14.589999999999996,109.35,-0.55,-1.84,0.0,59.21,-13.26,25.83
0.77,14.839999999999996,110.05,-0.73,-1.58,0.0,60.01,-14.3,25.77
0.78,15.0,109.43,-1.14,-1.7,0.0,61.72,-15.15,25.64
0.79,15.829999999999998,110.03,-0.93,-1.59,0.0,63.42,-16.86,25.34
0.8,16.17,109.59,-1.22,-1.9,0.0,65.56,-17.47,25.28
0.81,16.08,109.89,-1.13,-1.65,0.0,67.7,-18.45,24.85
0.8200000000000001,16.5,109.62,-1.06,-1.63,0.0,71.18,-20.22,23.81
0.8300000000000001,16.75,110.18,-1.93,-1.68,0.0,75.14,-20.22,22.78
0.8400000000000001,18.409999999999997,110.47,-1.81,-1.79,0.0,78.38,-25.83,21.92
0.8500000000000001,19.32,110.59,-1.7,-2.37,0.0,81.0,-21.93,20.27
0.8600000000000001,18.990000000000002,111.21,-1.93,-2.34,0.0,82.9,-24.67,18.69
0.8699999999999999,19.57,110.6,-1.49,-2.22,0.0,86.62,-27.06,16.0
0.8799999999999999,20.479999999999997,111.13,-1.59,-2.49,0.0,88.21,-24.31,15.33
0.8899999999999999,21.389999999999997,111.38,-2.16,-3.07,0.0,91.01,-28.15,13.74
0.8999999999999999,22.139999999999997,111.17,-2.64,-2.1,0.0,92.36,-26.87,12.4
0.9099999999999999,22.389999999999997,111.29,-1.5,-2.87,0.0,95.53,-27.67,10.63
0.9199999999999999,23.799999999999997,110.68,-2.14,-3.06,0.0,98.34,-28.28,9.29
0.9299999999999999,24.22,111.37,-1.92,-3.97,0.0,100.84,-28.89,7.46
0.94,25.299999999999997,111.56,-2.56,-3.02,0.0,102.12,-29.19,5.44
0.95,26.54,111.54,-1.48,-3.54,0.0,104.14,-28.7,3.85
0.96,27.95,110.76,-2.62,-4.05,0.0,103.59,-28.89,2.21
0.96,27.95,110.76,-2.62,-4.05,0.0,103.59,-28.89,2.21
0.97,29.45,111.01,-2.15,-4.13,0.0,103.89,-31.14,0.13
0.98,30.279999999999998,111.64,-2.06,-4.22,0.0,102.37,-25.53,-4.08
0.99,30.86,111.64,-2.06,-4.22,0.0,102.37,-25.53,-4.08
1.0,32.599999999999994,110.97,-2.34,-5.53,0.0,101.02,-27.42,-5.67
1.01,33.93,110.35,-1.92,-4.43,0.0,101.15,-19.12,-7.62
1.02,35.43,110.32,-1.71,-5.54,0.0,99.99,-20.1,-9.33
1.03,36.01,109.79,-0.93,-4.5,0.0,102.37,-20.34,-10.55
1.04,37.18,110.1,-1.68,-5.4,0.0,102.73,-13.57,-11.53
1.05,39.17,109.93,-0.28,-5.28,0.0,103.59,-13.51,-12.2
1.06,39.67,110.36,-1.45,-5.87,0.0,103.65,-11.25,-12.2
1.07,40.089999999999996,109.93,0.04,-5.52,0.0,106.64,-9.05,-12.44
1.08,41.0,109.42,-1.45,-6.15,0.0,109.32,-5.69,-12.08
1.09,41.75,109.54,-0.61,-5.94,0.0,111.03,-1.91,-12.14
1.1,42.91,108.61,-1.16,-5.54,0.0,112.01,-1.11,-12.14
1.11,42.58,108.59,-0.03,-5.27,0.0,114.27,2.12,-12.14
1.1199999999999999,42.75,108.76,-0.1,-5.67,0.0,116.71,4.26,-11.47
1.13,44.08,108.73,0.34,-4.41,0.0,121.72,6.82,-10.86
1.14,44.33,107.75,-0.18,-5.51,0.0,125.68,8.59,-9.51
1.15,44.41,106.97,0.89,-3.29,0.0,130.2,10.36,-8.05
1.16,46.32,107.82,-0.36,-5.69,0.0,134.96,11.95,-6.95
1.17,46.739999999999995,106.75,1.98,-3.86,0.0,141.06,13.05,-5.55
1.18,47.489999999999995,105.64,1.09,-6.23,0.0,148.88,13.29,-2.98
1.19,46.66,107.15,1.07,-3.38,0.0,155.53,15.43,-0.36
1.2,47.41,103.78,1.13,-6.27,0.0,165.78,16.83,3.37
1.21,47.9,104.69,0.47,-2.52,0.0,169.26,17.26,4.53
1.22,48.989999999999995,104.1,1.03,-4.28,0.0,176.34,16.65,6.48
1.23,48.82,102.54,1.15,-3.73,0.0,184.77,17.07,9.29
1.24,49.9,101.99,0.73,-3.36,0.0,192.95,15.43,11.54
1.25,50.73,101.03,1.06,-4.04,0.0,201.06,15.73,14.35
1.26,51.48,101.18,-0.28,-2.18,0.0,208.63,13.9,16.37
1.27,52.23,100.52,1.28,-3.53,0.0,216.75,12.25,17.77
1.28,53.4,100.34,-0.65,-1.51,0.0,223.22,10.85,19.78
1.28,53.4,100.34,-0.65,-1.51,0.0,223.22,10.85,19.78
1.29,54.48,98.83,0.48,-3.72,0.0,230.12,8.9,21.37
1.3,54.81,97.49,-1.57,-1.08,0.0,234.82,6.82,22.71
1.31,55.65,97.12,-1.21,-2.01,0.0,241.41,3.46,23.57
1.32,57.15,97.07,-1.65,-0.89,0.0,243.91,2.61,23.57
1.33,58.14,95.43,-1.64,-2.69,0.0,246.84,0.23,23.2
1.34,58.56,96.85,-1.89,-1.81,0.0,249.4,-2.27,22.59
1.35,59.81,94.94,-1.95,-2.77,0.0,250.63,-4.41,21.25
1.36,60.98,93.95,-1.99,-2.01,0.0,251.85,-6.61,20.52
1.37,61.73,92.87,-2.47,-3.7,0.0,254.1,-8.26,19.36
1.3800000000000001,62.39,91.1,-1.92,-2.68,0.0,255.81,-10.03,18.2
1.3900000000000001,64.14,90.35,-3.1,-3.67,0.0,257.46,-11.12,16.43
1.4000000000000001,65.06,88.53,-2.15,-2.93,0.0,259.29,-12.41,14.6
1.4100000000000001,66.39,87.51,-3.01,-3.35,0.0,261.49,-12.89,13.13
1.4200000000000002,67.23,86.49,-3.14,-3.46,0.0,264.66,-13.51,10.26
1.43,68.31,86.06,-3.29,-4.21,0.0,266.5,-13.63,9.1
1.44,69.4,84.96,-2.21,-4.19,0.0,270.83,-13.2,6.66
1.45,70.56,83.19,-3.44,-4.6,0.0,274.61,-12.35,4.46
1.46,71.65,81.4,-2.46,-3.79,0.0,278.46,-10.64,2.02
1.47,72.9,80.0,-3.29,-4.38,0.0,281.21,-10.09,0.01
1.48,74.32,78.54,-2.71,-3.43,0.0,284.07,-9.17,-1.88
1.49,75.9,76.68,-3.03,-4.58,0.0,287.86,-8.13,-3.23
1.5,77.07,74.33,-3.24,-4.08,0.0,292.44,-6.73,-4.87
1.51,77.82,72.68,-2.49,-5.8,0.0,295.18,-4.47,-6.03
1.52,79.32,71.61,-3.71,-5.8,0.0,298.91,-2.15,-7.5
1.53,80.58,69.64,-3.54,-5.78,0.0,304.83,2.36,-10.0
1.54,82.66,69.11,-2.58,-5.63,0.0,306.54,3.95,-10.55
1.55,83.5,68.04,-2.21,-5.63,0.0,308.85,7.06,-11.04
1.56,84.25,66.04,-1.88,-5.69,0.0,310.32,10.18,-11.1
1.57,86.17,64.65,-1.75,-4.51,0.0,311.17,13.53,-10.61
1.58,86.75,62.46,-1.56,-5.47,0.0,313.98,15.98,-9.7
1.59,87.92,60.65,-0.95,-4.87,0.0,316.97,17.5,-8.29
1.6,88.42,57.69,-1.47,-4.67,0.0,318.74,19.82,-6.28
1.6,88.42,57.69,-1.47,-4.67,0.0,318.74,19.82,-6.28
1.61,88.84,55.25,-0.69,-3.87,0.0,321.98,21.41,-4.32
1.62,89.84,54.43,-0.7,-3.93,0.0,326.56,22.57,-2.01
1.6300000000000001,90.85,54.2,-0.64,-3.38,0.0,330.1,22.26,-0.11
1.6400000000000001,92.1,53.28,-1.26,-2.74,0.0,336.02,21.22,3.49
1.6500000000000001,93.02,52.82,-1.0,-1.96,0.0,338.27,21.22,4.34
1.6600000000000001,93.77,53.06,-0.76,-2.34,0.0,343.1,19.82,5.87
1.6700000000000002,94.94,50.34,-0.84,-1.01,0.0,347.8,19.03,7.7
1.68,96.19999999999999,46.09,-1.86,-1.69,0.0,351.28,17.01,9.1
1.69,97.28,41.31,-2.32,-0.92,0.0,354.21,14.63,9.9
1.7,97.53,35.29,-2.67,-1.72,0.0,356.95,11.76,10.2
1.71,98.78999999999999,28.58,-3.52,-1.72,0.0,361.53,9.2,9.71
1.72,99.71000000000001,21.83,-3.35,-1.54,0.0,362.81,7.37,8.49
1.73,100.63,15.28,-3.66,-1.18,0.0,363.18,5.72,6.91
1.74,100.71000000000001,10.08,-3.54,-1.41,0.0,364.28,4.68,4.83
1.75,101.21000000000001,3.89,-4.32,-0.76,0.0,365.38,3.22,1.9
1.76,104.31,2.57,-3.71,-2.76,0.0,365.5,2.91,0.56
1.77,106.07,-0.21,-3.47,-1.58,0.0,365.92,2.55,-1.94
1.78,106.4,-1.99,-3.5,-1.21,0.0,367.08,2.79,-3.96
1.79,106.74000000000001,-3.33,-3.57,-1.7,0.0,366.66,3.22,-5.73
1.8,106.57,-4.26,-3.68,-1.66,0.0,366.53,3.77,-7.32
1.81,107.66,-4.53,-2.32,-2.25,0.0,366.53,4.5,-8.96
1.82,108.91,-4.59,-3.36,-1.52,0.0,366.53,5.36,-9.94
1.83,110.17,-4.58,-2.07,-2.28,0.0,366.47,6.39,-11.1
1.84,111.17,-4.49,-2.96,-1.76,0.0,365.8,6.58,-11.77
1.85,112.50999999999999,-4.39,-2.03,-2.64,0.0,365.62,7.86,-12.08
1.86,113.77,-4.5,-2.04,-1.83,0.0,365.74,9.02,-12.2
1.87,114.69,-4.5,-1.3,-2.43,0.0,366.72,9.57,-12.26
1.8800000000000001,116.28,-4.52,-1.51,-2.34,0.0,368.43,10.73,-11.89
1.8900000000000001,116.94999999999999,-4.4,-2.17,-1.18,0.0,370.69,11.64,-10.86
1.9000000000000001,118.03999999999999,-4.98,-1.45,-2.46,0.0,372.88,14.88,-9.76
1.9100000000000001,119.88,-4.54,-1.41,-1.94,0.0,375.02,9.2,-8.9
1.9200000000000002,120.22,-4.61,-0.91,-3.27,0.0,377.77,14.21,-7.68
1.9200000000000002,120.22,-4.61,-0.91,-3.27,0.0,377.77,14.21,-7.68
1.93,121.63999999999999,-4.53,-1.53,-2.23,0.0,379.72,16.65,-6.71
1.94,122.31,-4.5,-1.39,-1.76,0.0,382.34,11.4,-5.12
1.95,124.32,-4.53,-1.22,-1.65,0.0,385.52,16.16,-3.65
1.96,125.33000000000001,-4.41,-1.17,-1.11,0.0,386.55,16.83,-3.1
1.96,125.33000000000001,-4.41,-1.17,-1.11,0.0,386.55,16.83,-3.1
1.97,126.0,-4.24,-1.7,-1.05,0.0,388.81,13.96,-0.72
1.98,127.43,-4.26,-2.36,-1.56,0.0,389.18,13.35,-0.17
1.99,128.68,-4.15,-1.46,-1.84,0.0,389.42,12.62,0.56
2.0,129.52,-4.09,-2.42,-0.51,0.0,390.46,11.46,1.11
2.01,131.12,-4.08,-1.76,-1.1,0.0,391.32,10.12,1.29
2.02,132.29,-4.14,-2.41,-0.79,0.0,392.17,9.02,1.17
2.03,132.79,-4.13,-2.43,-0.45,0.0,393.15,7.74,0.74
2.04,134.14,-4.42,-3.33,-0.87,0.0,393.02,9.57,0.07
2.05,135.14,-4.23,-3.16,-0.93,0.0,393.82,2.24,-0.66
2.06,136.15,-4.24,-3.51,-0.1,0.0,392.96,3.83,-1.39
2.07,137.91,-4.2,-3.21,-1.31,0.0,391.87,6.33,-3.41
2.08,138.25,-4.2,-3.67,-0.52,0.0,390.52,4.81,-5.36
2.09,139.26,-4.31,-3.06,-1.69,0.0,390.71,1.94,-5.79
2.1,140.68,-4.19,-2.92,-0.39,0.0,390.4,4.2,-7.25
2.11,142.03,-4.1,-2.9,-1.26,0.0,387.59,0.66,-8.11
2.12,143.45,-4.11,-1.45,-1.0,0.0,388.14,1.14,-8.9
2.13,144.46,-4.05,-2.12,-2.01,0.0,389.67,1.27,-9.39
2.14,145.64,-3.97,-1.78,-0.96,0.0,390.46,1.08,-10.0
2.15,145.64,-4.23,-1.93,-2.28,0.0,391.99,1.08,-10.12
2.16,147.82,-4.1,-1.67,-0.64,0.0,391.74,1.39,-10.25
2.17,148.24,-4.18,-1.54,-2.17,0.0,392.66,1.63,-10.43
2.1799999999999997,149.5,-4.35,-1.2,-1.18,0.0,392.84,-0.02,-10.37
2.19,151.1,-4.22,-1.17,-1.32,0.0,393.27,-1.24,-9.94
2.1999999999999997,151.94,-4.08,-1.87,-0.87,0.0,394.12,5.23,-10.06
2.21,153.03,-4.15,-1.31,-2.1,0.0,394.55,-1.42,-9.39
2.2199999999999998,154.46,-4.22,-1.79,-1.12,0.0,394.06,2.79,-8.54
2.23,155.39,-4.15,-1.1,-2.16,0.0,394.12,4.56,-8.41
2.2399999999999998,156.31,-4.08,-1.38,-1.33,0.0,394.18,-1.36,-7.8
2.2399999999999998,156.31,-4.08,-1.38,-1.33,0.0,394.18,-1.36,-7.8
2.25,157.49,-4.11,-2.06,-2.04,0.0,395.04,3.28,-7.38
2.26,158.92,-4.1,-1.44,-1.27,0.0,394.98,3.77,-7.25
2.27,159.25,-4.16,-1.8,-2.31,0.0,395.77,-0.87,-6.22
2.28,161.02,-4.1,-1.74,-0.61,0.0,395.53,4.07,-6.22
2.29,161.60999999999999,-4.19,-1.29,-1.95,0.0,395.34,4.5,-6.34
2.3,162.79,-4.12,-1.62,-1.39,0.0,395.04,3.95,-6.03
2.3099999999999996,163.63,-4.16,-1.04,-1.61,0.0,395.04,4.13,-5.73
2.32,165.23,-4.04,-2.09,-1.35,0.0,395.04,3.71,-5.48
2.3299999999999996,166.32,-4.11,-1.17,-0.96,0.0,395.16,-1.24,-4.81
2.34,167.25,-4.03,-2.25,-2.11,0.0,395.28,4.07,-4.75
2.3499999999999996,168.59,-4.13,-1.34,-0.58,0.0,394.79,2.79,-4.32
2.36,169.27,-4.07,-1.76,-2.31,0.0,395.59,-2.03,-4.08
2.3699999999999997,170.03,-4.01,-1.76,-0.75,0.0,395.77,3.04,-4.02
2.38,171.79,-3.91,-2.49,-2.13,0.0,395.83,0.66,-4.26
2.3899999999999997,172.64,-3.93,-1.71,-1.2,0.0,395.65,0.29,-4.39
2.4,173.48,-3.89,-2.58,-1.84,0.0,396.14,-0.57,-5.06
2.4099999999999997,174.83,-3.99,-1.9,-0.93,0.0,394.86,-0.5,-6.03
2.42,176.26,-3.91,-2.09,-1.88,0.0,394.18,-0.75,-6.22
2.4299999999999997,176.09,-3.91,-1.86,-1.58,0.0,394.18,0.23,-6.64
2.44,178.35999999999999,-3.97,-2.21,-2.15,0.0,393.76,0.29,-7.25
2.4499999999999997,178.87,-3.89,-1.12,-1.36,0.0,392.9,0.78,-7.56
2.46,179.96,-4.15,-2.18,-2.06,0.0,393.02,-2.21,-7.5
2.4699999999999998,180.89000000000001,-3.88,-1.7,-1.12,0.0,392.48,4.81,-7.8
2.48,182.58,-4.13,-1.84,-1.48,0.0,392.05,0.35,-7.74
2.4899999999999998,183.34,-4.07,-1.19,-1.1,0.0,392.17,-0.63,-7.44
2.5,184.85,-3.81,-2.42,-1.67,0.0,392.48,4.87,-7.74
2.51,185.53,-3.88,-1.55,-1.32,0.0,392.29,-0.14,-7.68
2.52,186.79,-3.97,-2.4,-2.25,0.0,392.29,-0.93,-7.93
2.53,187.81,-3.83,-1.64,-1.47,0.0,391.93,1.45,-8.29
2.54,188.31,-3.82,-2.65,-1.35,0.0,391.25,1.57,-8.6
2.55,189.24,-3.61,-0.87,-1.96,0.0,390.77,1.45,-9.39
2.5599999999999996,190.5,-3.87,-1.85,-1.58,0.0,391.68,1.94,-9.45
2.5599999999999996,190.5,-3.87,-1.85,-1.58,0.0,391.68,1.94,-9.45
2.57,191.77,-3.79,-2.03,-1.9,0.0,390.89,2.36,-9.76
2.5799999999999996,192.70000000000002,-3.74,-1.27,-1.47,0.0,390.03,2.43,-9.82
2.59,194.3,-3.76,-1.42,-1.85,0.0,390.52,2.85,-9.57
2.5999999999999996,195.23000000000002,-3.74,-1.75,-1.2,0.0,390.16,3.16,-9.21
2.61,195.99,-3.84,-1.34,-2.44,0.0,390.03,3.28,-8.6
2.6199999999999997,196.92000000000002,-3.66,-1.32,-1.16,0.0,389.06,4.13,-8.41
2.63,198.61,-3.6,-1.56,-1.52,0.0,389.24,4.13,-7.44
2.6399999999999997,198.94,-3.69,-1.82,-1.76,0.0,389.24,4.56,-7.19
2.65,200.46,-3.79,-1.22,-1.66,0.0,389.36,4.99,-6.52
2.6599999999999997,200.97,-3.74,-1.76,-1.77,0.0,389.0,5.6,-5.97
2.67,202.32,-3.45,-1.09,-1.37,0.0,388.63,5.84,-5.48
2.6799999999999997,203.08,-3.67,-2.0,-1.36,0.0,388.2,5.17,-5.12
2.69,204.77,-3.61,-1.54,-0.96,0.0,388.81,5.05,-5.12
2.6999999999999997,205.36,-3.6,-1.85,-1.61,0.0,389.3,4.38,-4.63
2.71,206.46,-3.51,-1.4,-1.24,0.0,389.36,4.38,-4.51
2.7199999999999998,207.81,-3.61,-2.8,-1.8,0.0,389.67,3.71,-4.14
2.73,208.91,-3.45,-1.57,-0.63,0.0,390.16,3.28,-4.69
2.7399999999999998,209.33,-3.42,-2.6,-1.63,0.0,390.03,2.61,-5.0
2.75,210.77,-3.5,-1.48,-0.78,0.0,389.67,2.67,-5.0
2.76,210.94,-3.5,-1.96,-1.8,0.0,389.61,2.06,-5.18
2.77,212.55,-3.48,-1.39,-1.5,0.0,389.36,2.18,-5.3
2.78,213.73000000000002,-3.57,-2.3,-1.44,0.0,389.12,1.45,-5.79
2.79,215.08,-3.57,-1.82,-2.0,0.0,389.12,2.0,-6.03
2.8,215.84,-3.39,-1.83,-1.14,0.0,388.63,1.57,-6.34
2.8099999999999996,216.52,-3.47,-1.54,-2.19,0.0,388.2,1.75,-6.58
2.82,217.45000000000002,-3.52,-1.6,-1.46,0.0,387.71,2.18,-6.71
2.8299999999999996,218.8,-3.54,-2.03,-1.99,0.0,386.98,2.12,-6.83
2.84,219.57,-3.42,-1.42,-1.42,0.0,386.43,2.18,-6.77
2.8499999999999996,220.83,-3.44,-1.51,-1.44,0.0,386.07,2.49,-6.77
2.86,221.77,-3.44,-1.63,-1.67,0.0,385.52,2.67,-6.77
2.8699999999999997,222.78,-3.49,-1.8,-1.7,0.0,384.54,3.04,-6.77
2.88,223.71,-3.47,-1.36,-1.67,0.0,383.81,3.65,-6.77
2.88,223.71,-3.47,-1.36,-1.67,0.0,383.81,3.65,-6.77
2.8899999999999997,224.56,-3.48,-2.01,-1.58,0.0,383.01,4.26,-6.52
2.9,225.91,-3.57,-1.23,-2.14,0.0,382.16,4.38,-6.22
2.9099999999999997,226.84,-3.48,-1.9,-1.81,0.0,381.31,5.05,-5.97
2.92,227.94,-3.43,-1.11,-1.55,0.0,380.21,5.05,-5.55
2.9299999999999997,228.11,-3.44,-2.16,-2.24,0.0,379.72,5.78,-5.18
2.94,229.81,-3.38,-1.39,-1.24,0.0,378.74,5.78,-5.06
2.9499999999999997,230.74,-3.43,-1.76,-2.27,0.0,378.44,6.33,-4.45
2.96,231.92000000000002,-3.36,-1.12,-2.1,0.0,377.34,6.51,-3.71
2.9699999999999998,232.69,-3.55,-1.67,-2.6,0.0,377.22,3.83,-3.1
2.98,234.3,-3.52,-1.85,-0.91,0.0,376.24,10.12,-2.92
2.9899999999999998,234.38,-3.44,-1.2,-2.05,0.0,376.36,5.11,-2.62
3.0,236.24,-3.43,-2.09,-1.43,0.0,376.85,4.44,-1.82
3.01,237.09,-3.52,-1.66,-1.68,0.0,377.16,9.38,-2.13
3.02,238.02,-3.46,-1.98,-1.19,0.0,377.28,3.95,-1.52
3.03,238.62,-3.44,-1.75,-1.61,0.0,377.77,3.52,-1.39
3.04,239.8,-3.43,-1.98,-1.76,0.0,378.01,8.35,-1.64
3.05,240.82,-3.41,-1.75,-1.24,0.0,377.52,2.79,-1.52
3.0599999999999996,242.18,-3.28,-1.62,-1.63,0.0,377.58,2.91,-1.15
3.07,242.77,-3.39,-1.76,-2.06,0.0,377.09,2.85,-1.64
3.0799999999999996,243.70000000000002,-3.41,-1.94,-2.2,0.0,376.3,1.02,-1.52
3.09,245.06,-3.38,-2.54,-1.48,0.0,374.59,2.91,-1.64
3.0999999999999996,245.48000000000002,-3.28,-1.88,-2.45,0.0,372.76,6.45,-2.25
3.11,246.93,-3.41,-2.89,-1.24,0.0,371.05,0.41,-2.19
3.1199999999999997,247.44,-3.27,-1.96,-1.85,0.0,369.28,2.85,-3.16
3.13,248.28,-3.38,-2.52,-1.82,0.0,368.43,5.9,-4.08
3.1399999999999997,249.73000000000002,-3.39,-1.72,-1.68,0.0,366.29,0.11,-3.96
3.15,250.07,-3.29,-2.58,-1.97,0.0,364.76,3.52,-4.45
3.1599999999999997,251.25,-3.41,-1.69,-1.73,0.0,363.61,6.09,-5.18
3.17,252.27,-3.29,-2.7,-1.58,0.0,362.26,0.47,-5.06
3.1799999999999997,253.12,-3.13,-1.46,-1.53,0.0,359.64,4.2,-6.03
3.19,253.63,-3.21,-2.02,-1.58,0.0,359.82,4.32,-5.91
3.1999999999999997,255.07,-3.08,-0.97,-1.29,0.0,359.09,4.44,-5.73
3.1999999999999997,255.07,-3.08,-0.97,-1.29,0.0,359.09,4.44,-5.73
3.21,255.92000000000002,-3.18,-2.01,-1.69,0.0,359.64,4.38,-5.55
3.2199999999999998,257.11,-3.02,-1.71,-1.21,0.0,360.25,4.81,-5.42
3.23,258.71999999999997,-3.07,-2.22,-1.72,0.0,359.64,4.68,-5.36
3.2399999999999998,259.57,-3.03,-1.96,-1.46,0.0,357.99,4.99,-5.67
3.25,260.76,-3.2,-2.17,-1.33,0.0,357.07,1.27,-5.73
3.26,261.61,-3.15,-2.3,-1.06,0.0,355.79,8.1,-6.22
3.27,261.7,-3.31,-2.12,-1.16,0.0,354.75,5.17,-6.58
3.28,262.89,-3.22,-1.7,-1.53,0.0,353.59,1.94,-6.71
3.29,263.56,-3.15,-2.12,-1.89,0.0,352.13,2.12,-7.13
3.3,265.94,-3.25,-1.99,-1.58,0.0,351.64,5.17,-7.62
3.3099999999999996,266.37,-3.1,-1.95,-1.1,0.0,350.05,2.67,-7.38
3.32,266.78999999999996,-3.0,-2.31,-1.05,0.0,349.75,6.09,-7.93
3.3299999999999996,268.24,-2.93,-1.27,-1.08,0.0,350.85,5.54,-7.93
3.34,269.51,-2.88,-1.81,-0.73,0.0,351.7,4.62,-8.35
3.3499999999999996,270.62,-2.75,-1.59,-0.88,0.0,352.56,4.32,-8.23
3.36,271.21,-2.98,-1.54,-1.27,0.0,353.96,4.2,-8.35
3.3699999999999997,272.74,-3.0,-1.25,-1.05,0.0,354.82,4.13,-8.54
3.38,273.93,-2.82,-1.54,-0.21,0.0,355.06,3.65,-8.35
3.3899999999999997,274.7,-2.9,-0.9,-1.42,0.0,356.1,6.21,-8.35
3.4,275.13,-2.93,-1.99,-0.29,0.0,357.44,5.78,-8.41
3.4099999999999997,275.98,-2.99,-1.18,-1.09,0.0,358.05,-0.81,-8.35
3.42,276.74,-2.89,-1.89,-0.99,0.0,359.09,4.81,-8.54
3.4299999999999997,278.7,-2.85,-1.7,-0.94,0.0,359.58,0.72,-8.66
3.44,280.14,-3.09,-1.81,-1.13,0.0,360.37,-1.48,-8.48
3.4499999999999997,280.4,-3.04,-1.44,-1.33,0.0,360.86,4.87,-9.21
3.46,281.17,-2.87,-1.92,-0.94,0.0,361.71,0.53,-9.33
3.4699999999999998,281.51,-2.83,-1.55,-1.23,0.0,362.87,-1.3,-9.57
3.48,282.02,-2.96,-1.9,-1.43,0.0,363.79,4.2,-9.94
3.4899999999999998,283.03999999999996,-2.93,-1.74,-1.63,0.0,364.03,-0.75,-10.31
3.5,284.65999999999997,-2.94,-1.71,-1.63,0.0,364.76,-0.44,-10.12
3.51,285.25,-2.88,-1.24,-1.4,0.0,364.95,-0.44,-10.31
3.52,286.09999999999997,-2.9,-1.42,-1.64,0.0,364.83,-0.44,-10.55
3.52,286.09999999999997,-2.9,-1.42,-1.64,0.0,364.83,-0.44,-10.55
3.53,286.7,-2.97,-1.67,-1.47,0.0,365.92,0.23,-10.25
3.54,288.06,-2.84,-1.73,-1.25,0.0,366.41,5.48,-10.67
3.55,288.74,-2.85,-1.28,-1.72,0.0,366.29,0.35,-10.18
3.5599999999999996,290.36,-2.86,-1.74,-1.69,0.0,366.53,1.45,-10.06
3.57,290.02,-2.93,-1.49,-1.69,0.0,366.66,6.27,-10.31
3.5799999999999996,291.55,-2.83,-1.48,-1.47,0.0,365.74,1.08,-9.7
3.59,292.32,-2.87,-1.68,-1.64,0.0,364.76,3.71,-9.15
3.5999999999999996,293.34,-2.68,-1.04,-1.92,0.0,363.97,3.95,-9.21
3.61,294.11,-2.62,-1.24,-1.92,0.0,363.48,5.05,-8.6
3.6199999999999997,295.13,-2.42,-0.59,-1.34,0.0,363.67,4.81,-7.38
3.63,296.33,-2.58,-1.31,-1.86,0.0,363.73,5.05,-7.07
3.6399999999999997,297.01,-2.59,-1.33,-1.09,0.0,363.06,5.05,-6.28
3.65,298.2,-2.52,-0.93,-1.83,0.0,362.81,5.23,-5.61
3.6599999999999997,298.8,-2.47,-1.39,-0.95,0.0,361.83,4.99,-4.81
3.67,300.15999999999997,-2.66,-0.92,-1.79,0.0,361.29,7.67,-4.75
3.6799999999999997,301.7,-2.52,-1.4,-1.02,0.0,360.55,1.39,-3.59
3.69,301.95,-2.6,-1.29,-1.26,0.0,360.31,6.15,-3.47
3.6999999999999997,302.03999999999996,-2.51,-0.95,-1.4,0.0,360.19,6.27,-3.35
3.71,303.06,-2.55,-1.85,-1.12,0.0,360.49,0.47,-2.86
3.7199999999999998,305.11,-2.49,-1.39,-1.81,0.0,360.86,5.84,-2.98
3.73,305.53,-2.76,-1.77,-1.68,0.0,358.36,5.36,-2.98
3.7399999999999998,305.87,-2.55,-1.57,-2.1,0.0,357.75,3.1,-2.8
3.75,306.56,-2.38,-2.21,-1.72,0.0,355.24,2.61,-3.1
3.76,307.84,-2.4,-1.56,-1.23,0.0,352.74,2.49,-3.35
3.77,309.03,-2.38,-2.12,-1.59,0.0,351.09,2.79,-3.59
3.78,309.37,-2.37,-1.67,-1.31,0.0,348.59,3.04,-4.02
3.79,310.31,-2.39,-1.72,-1.98,0.0,346.39,3.04,-4.32
3.8,311.59,-2.27,-1.94,-1.26,0.0,344.26,3.4,-4.69
3.8099999999999996,312.78999999999996,-2.22,-1.86,-2.03,0.0,341.39,3.77,-5.06
3.82,313.46999999999997,-2.29,-1.81,-1.11,0.0,339.01,4.5,-5.3
3.8299999999999996,313.81,-2.34,-1.93,-2.14,0.0,337.79,4.5,-5.67
3.84,315.09,-2.27,-1.44,-1.08,0.0,333.45,5.36,-6.09
3.84,315.09,-2.27,-1.44,-1.08,0.0,333.45,5.36,-6.09
3.8499999999999996,316.2,-2.24,-1.84,-1.71,0.0,332.96,5.42,-6.22
3.86,317.22999999999996,-2.29,-1.56,-1.37,0.0,332.84,5.78,-6.09
3.8699999999999997,317.47999999999996,-2.34,-1.92,-1.74,0.0,331.26,5.9,-6.46
3.88,318.67999999999995,-2.29,-1.6,-2.12,0.0,330.58,6.7,-6.58
3.8899999999999997,320.13,-2.34,-1.93,-1.11,0.0,330.1,7.06,-6.46
3.9,320.64,-2.36,-1.44,-2.47,0.0,329.18,7.55,-6.52
3.9099999999999997,321.75,-2.26,-2.23,-1.21,0.0,327.65,8.04,-6.64
3.92,322.60999999999996,-2.26,-1.42,-1.85,0.0,324.3,8.16,-6.52
3.9299999999999997,323.71999999999997,-2.3,-1.54,-1.41,0.0,323.63,8.9,-6.64
3.94,324.73999999999995,-2.15,-1.33,-1.95,0.0,323.5,8.83,-6.4
3.9499999999999997,325.59999999999997,-2.22,-1.63,-1.68,0.0,323.2,9.69,-5.97
3.96,326.28,-2.16,-1.13,-1.48,0.0,323.02,9.75,-5.67
3.9699999999999998,326.96999999999997,-2.27,-1.1,-1.21,0.0,322.28,10.12,-5.18
3.98,327.82,-2.18,-1.02,-1.51,0.0,321.49,10.3,-4.63
3.9899999999999998,328.92999999999995,-2.15,-1.24,-1.13,0.0,321.0,10.36,-3.96
4.0,330.03999999999996,-2.18,-1.02,-1.4,0.0,320.94,10.6,-3.59
4.01,330.29999999999995,-2.1,-0.91,-0.87,0.0,320.63,10.73,-2.74
4.0200000000000005,332.01,-2.15,-1.43,-1.23,0.0,321.12,10.67,-2.07
4.03,332.52,-2.14,-0.89,-1.02,0.0,321.25,10.24,-1.64
4.04,333.64,-2.22,-1.79,-0.93,0.0,320.21,9.81,-1.21
4.05,334.75,-2.03,-0.66,-1.21,0.0,320.15,9.69,-0.91
4.06,335.34999999999997,-2.18,-1.24,-1.01,0.0,320.76,8.41,-0.54
4.07,336.03,-2.15,-0.95,-1.63,0.0,320.94,8.29,-0.36
4.08,336.79999999999995,-2.17,-1.76,-0.36,0.0,320.57,8.35,0.25
4.09,336.89,-2.24,-1.44,-1.31,0.0,320.7,7.43,0.01
4.1,338.59999999999997,-2.28,-1.89,-0.65,0.0,321.55,7.06,-0.11
4.11,339.10999999999996,-2.15,-1.53,-0.3,0.0,321.79,6.33,-0.6
4.12,340.98999999999995,-2.17,-2.03,-0.68,0.0,321.79,5.42,-0.66
4.13,340.57,-2.28,-1.75,-0.71,0.0,321.0,4.44,-0.85
4.14,341.84999999999997,-2.15,-2.54,-0.51,0.0,321.25,3.28,-1.33
4.15,342.62,-2.15,-3.02,-0.71,0.0,319.72,2.55,-2.37
4.16,343.47999999999996,-2.1,-2.61,-0.78,0.0,317.89,1.88,-4.08
4.16,343.47999999999996,-2.1,-2.61,-0.78,0.0,317.89,1.88,-4.08
4.17,344.25,-2.16,-2.36,-0.18,0.0,314.53,0.96,-6.58
4.18,345.45,-2.18,-2.66,-0.81,0.0,313.49,0.78,-7.32
4.19,345.62,-2.2,-2.9,-0.91,0.0,311.78,0.66,-9.09
4.2,347.41999999999996,-2.21,-2.43,-0.83,0.0,310.08,0.59,-10.79
4.21,347.76,-2.17,-2.66,-1.0,0.0,307.51,0.59,-12.32
4.22,348.87,-2.29,-2.43,-0.93,0.0,305.5,0.78,-13.6
4.23,349.72999999999996,-2.22,-2.12,-1.27,0.0,304.46,1.45,-14.7
4.24,350.59,-2.2,-2.03,-0.49,0.0,304.28,2.18,-15.8
4.25,351.44,-2.17,-1.51,-1.71,0.0,304.28,2.67,-16.72
4.26,351.96,-2.31,-1.84,-0.74,0.0,304.15,3.46,-17.26
4.2700000000000005,353.15999999999997,-2.23,-1.38,-1.53,0.0,303.67,4.32,-17.87
4.28,354.60999999999996,-2.22,-1.27,-0.84,0.0,303.79,5.23,-17.87
4.29,354.78,-2.23,-0.69,-1.73,0.0,304.09,5.29,-17.87
4.3,356.33,-2.15,-1.52,-0.16,0.0,304.46,5.9,-17.81
4.31,356.84,-2.23,-0.69,-1.62,0.0,304.46,6.33,-17.57
4.319999999999999,358.13,-2.13,-0.8,-0.64,0.0,304.09,6.94,-16.84
4.33,358.64,-2.08,-0.77,-0.75,0.0,304.95,7.13,-16.04
4.34,358.9,-2.15,-0.75,-0.52,0.0,306.23,7.37,-15.19
4.35,360.27,-2.15,-0.82,-0.54,0.0,307.02,7.31,-14.33
4.359999999999999,361.56,-2.13,-0.75,-0.06,0.0,308.0,7.13,-13.6
4.37,361.98999999999995,-2.13,-0.76,-0.96,0.0,309.16,7.13,-13.05
4.38,363.27,-2.05,-0.95,0.64,0.0,309.59,6.88,-12.38
4.39,363.7,-2.14,-0.38,-0.34,0.0,311.11,5.84,-11.47
4.3999999999999995,365.5,-2.02,-0.94,0.35,0.0,311.72,5.72,-11.04
4.41,364.9,-2.07,-0.6,-0.91,0.0,313.01,4.44,-10.49
4.42,366.88,-1.93,-0.7,0.11,0.0,314.65,4.07,-9.94
4.43,367.98999999999995,-2.07,-0.75,-0.61,0.0,315.69,3.4,-9.33
4.4399999999999995,368.25,-2.06,-0.91,0.37,0.0,317.64,2.97,-8.96
4.45,368.94,-2.05,-0.53,-0.12,0.0,320.39,1.82,-8.6
4.46,370.04999999999995,-2.16,-0.64,0.37,0.0,323.14,1.08,-8.17
4.47,370.04999999999995,-2.06,-0.71,-0.68,0.0,325.64,0.23,-7.86
4.4799999999999995,371.34,-2.11,-1.08,0.18,0.0,327.41,-0.75,-7.74
4.4799999999999995,371.34,-2.11,-1.08,0.18,0.0,327.41,-0.75,-7.74
4.49,372.37,-2.13,-1.02,-0.42,0.0,328.26,-1.66,-7.8
4.5,373.48999999999995,-2.19,-1.19,-0.72,0.0,327.59,-2.52,-8.05
4.51,374.52,-2.15,-1.22,-0.45,0.0,327.17,-2.7,-8.11
4.52,374.85999999999996,-2.15,-1.5,-0.42,0.0,326.13,-3.07,-8.35
4.53,376.22999999999996,-2.22,-0.91,-0.6,0.0,326.19,-3.01,-9.09
4.54,377.17999999999995,-2.08,-1.15,-0.21,0.0,327.17,-3.01,-9.21
4.55,376.91999999999996,-2.17,-1.09,-0.44,0.0,327.17,-3.01,-9.33
4.56,378.54999999999995,-2.14,-1.76,-0.73,0.0,326.25,-3.31,-9.7
4.569999999999999,378.97999999999996,-2.13,-1.03,-0.21,0.0,325.27,-3.25,-10.12
4.58,379.92999999999995,-2.14,-1.56,-1.21,0.0,324.91,-3.31,-10.43
4.59,380.53,-1.95,-1.01,-0.71,0.0,324.42,-3.01,-10.55
4.6,381.46999999999997,-2.17,-1.85,-1.26,0.0,324.42,-2.58,-10.79
4.609999999999999,382.67999999999995,-2.11,-1.5,-0.57,0.0,322.65,-1.73,-11.34
4.62,383.45,-2.06,-1.98,-1.06,0.0,322.16,-1.54,-11.53
4.63,384.04999999999995,-2.04,-0.8,-0.41,0.0,320.94,-1.05,-11.77
4.64,384.90999999999997,-2.14,-1.55,-1.13,0.0,319.6,-0.99,-11.89
4.6499999999999995,385.94,-2.01,-0.84,-0.95,0.0,318.19,-0.32,-12.02
4.66,386.28999999999996,-2.04,-1.9,-0.62,0.0,316.97,0.17,-11.95
4.67,386.54999999999995,-2.08,-1.13,-1.1,0.0,314.78,0.9,-12.02
4.68,387.40999999999997,-2.01,-1.58,-0.59,0.0,314.35,1.27,-12.32
4.6899999999999995,388.09,-2.04,-0.88,-1.19,0.0,313.8,0.96,-12.56
4.7,389.21,-2.0,-1.42,-1.2,0.0,313.07,1.39,-12.56
4.71,390.15999999999997,-1.96,-1.01,-0.63,0.0,312.76,1.69,-12.63
4.72,390.40999999999997,-2.01,-1.7,-1.13,0.0,311.48,1.69,-12.75
4.7299999999999995,392.14,-2.0,-1.06,-0.7,0.0,310.87,1.57,-12.87
4.74,392.73999999999995,-1.9,-1.05,-1.28,0.0,309.95,1.88,-12.81
4.75,393.16999999999996,-1.9,-1.25,-0.69,0.0,309.53,1.75,-12.69
4.76,394.53999999999996,-1.91,-1.11,-0.8,0.0,308.55,1.88,-12.63
4.77,394.71999999999997,-1.97,-0.79,-1.07,0.0,307.63,2.55,-12.44
4.78,394.89,-1.93,-1.05,-0.53,0.0,306.6,2.91,-12.14
4.79,396.7,-1.9,-0.5,-0.91,0.0,305.44,3.04,-11.53
4.8,397.21,-1.95,-0.98,-0.25,0.0,304.89,2.85,-11.22
4.8,397.21,-1.95,-0.98,-0.25,0.0,304.89,2.85,-11.22
4.81,398.5,-2.01,-0.98,-0.96,0.0,304.34,2.43,-10.86
4.819999999999999,399.10999999999996,-1.9,-1.04,-0.32,0.0,303.42,2.67,-10.98
4.83,399.35999999999996,-1.88,-0.53,-0.9,0.0,303.18,2.3,-10.55
4.84,400.31,-1.86,-1.02,-0.53,0.0,303.0,2.61,-10.25
4.85,401.69,-1.85,-0.57,-0.83,0.0,302.63,2.18,-10.0
4.859999999999999,401.95,-1.87,-1.2,-0.22,0.0,302.75,2.12,-9.39
4.87,403.23999999999995,-1.91,-0.67,-0.77,0.0,303.24,2.12,-9.09
4.88,403.23999999999995,-1.91,-0.83,-1.13,0.0,302.81,2.12,-8.72
4.89,404.78999999999996,-1.84,-0.75,-0.12,0.0,302.93,2.24,-8.29
4.8999999999999995,405.65,-1.86,-0.66,-1.1,0.0,303.18,2.24,-7.86
4.91,405.21999999999997,-1.92,-1.0,-0.52,0.0,302.57,2.55,-7.32
4.92,407.2,-1.8,-0.71,-1.44,0.0,301.65,2.06,-7.13
4.93,407.2,-1.75,-1.12,-0.69,0.0,301.04,2.18,-6.58
4.9399999999999995,407.37,-1.78,-1.25,-0.67,0.0,301.23,1.94,-6.4
4.95,409.17999999999995,-1.76,-1.16,-0.52,0.0,300.74,1.69,-6.34
4.96,409.27,-1.8,-0.64,-0.97,0.0,300.61,1.27,-6.4
4.97,410.56,-1.81,-1.02,-1.05,0.0,300.68,0.84,-6.22
4.9799999999999995,410.98999999999995,-1.91,-0.8,-0.87,0.0,300.19,0.72,-6.16
4.99,412.28,-1.83,-1.26,-1.02,0.0,298.97,0.84,-6.09
5.0,412.37,-1.81,-0.54,-0.57,0.0,297.5,1.27,-5.79
5.01,413.4,-1.89,-1.25,-1.37,0.0,296.77,0.84,-5.55
5.02,413.75,-1.72,-0.82,-0.72,0.0,295.85,1.27,-5.3
5.03,414.96,-1.79,-1.01,-1.36,0.0,295.43,0.96,-5.3
5.04,415.46999999999997,-1.78,-0.53,-0.96,0.0,293.05,1.08,-4.75
5.05,416.77,-1.81,-0.57,-1.53,0.0,289.99,1.57,-4.32
5.06,417.2,-1.65,-0.74,-0.72,0.0,288.83,1.51,-4.14
5.069999999999999,418.4,-1.77,-0.99,-1.08,0.0,287.0,1.45,-3.96
5.08,419.09,-1.72,-0.56,-0.88,0.0,285.11,1.57,-3.59
5.09,419.78,-1.69,-1.22,-0.91,0.0,283.1,1.39,-3.35
5.1,420.65,-1.7,-0.39,-0.86,0.0,281.45,1.2,-3.1
5.109999999999999,420.90999999999997,-1.69,-1.34,-1.22,0.0,280.35,0.96,-2.86
5.12,422.46,-1.71,-0.35,-1.06,0.0,277.97,1.08,-2.8
5.12,422.46,-1.71,-0.35,-1.06,0.0,277.97,1.08,-2.8
5.13,423.06,-1.74,-1.08,-0.73,0.0,275.96,0.66,-2.25
5.14,423.32,-1.7,-0.55,-1.24,0.0,273.94,0.59,-2.31
5.1499999999999995,423.48999999999995,-1.76,-1.13,-0.82,0.0,272.48,0.53,-2.07
5.16,424.62,-1.7,-0.43,-0.78,0.0,270.95,0.72,-1.76
5.17,425.47999999999996,-1.78,-1.11,-1.02,0.0,270.83,0.66,-1.64
5.18,426.16999999999996,-1.67,-0.67,-1.37,0.0,271.5,0.35,-1.94
5.1899999999999995,426.85999999999996,-1.66,-0.99,-0.91,0.0,272.42,0.59,-2.01
5.2,428.33,-1.73,-0.87,-1.25,0.0,273.21,0.05,-2.31
5.21,428.07,-1.75,-0.99,-1.22,0.0,273.82,0.11,-2.49
5.22,429.53,-1.67,-1.01,-0.9,0.0,273.88,-0.02,-2.62
5.2299999999999995,430.04999999999995,-1.7,-1.04,-1.02,0.0,273.33,0.23,-2.55
5.24,430.73999999999995,-1.7,-0.74,-0.8,0.0,273.33,0.29,-2.68
5.25,431.60999999999996,-1.73,-0.82,-1.09,0.0,272.17,0.47,-2.43
5.26,432.21,-1.74,-0.96,-0.95,0.0,271.81,0.41,-2.43
5.27,432.46999999999997,-1.67,-0.97,-0.63,0.0,271.38,0.47,-2.37
5.28,433.84999999999997,-1.79,-1.15,-0.68,0.0,271.19,0.41,-2.37
5.29,434.89,-1.64,-0.39,-1.39,0.0,269.61,0.47,-2.43
5.3,435.22999999999996,-1.68,-1.07,-0.81,0.0,268.08,0.35,-2.31
5.31,436.09999999999997,-1.67,-0.13,-1.75,0.0,266.86,0.59,-2.19
5.319999999999999,436.78999999999996,-1.71,-1.08,-0.39,0.0,266.13,0.96,-1.82
5.33,436.7,-1.7,-0.48,-1.37,0.0,265.64,0.78,-1.7
5.34,438.85999999999996,-1.63,-1.06,-0.54,0.0,265.27,0.96,-1.27
5.35,438.85999999999996,-1.7,-0.26,-1.59,0.0,263.93,0.66,-1.33
5.359999999999999,439.28999999999996,-1.59,-0.9,0.04,0.0,263.75,0.78,-0.97
5.37,440.15999999999997,-1.66,-0.56,-1.6,0.0,263.5,0.29,-1.15
5.38,440.94,-1.69,-1.16,-1.04,0.0,262.77,-0.26,-0.97
5.39,442.32,-1.63,-0.54,-1.33,0.0,263.14,-0.2,-0.97
5.3999999999999995,442.15,-1.55,-0.7,-0.43,0.0,263.26,-0.44,-1.03
5.41,442.91999999999996,-1.66,-0.6,-1.52,0.0,262.89,-0.44,-1.03
5.42,443.96,-1.63,-0.91,-0.4,0.0,261.92,-0.26,-0.85
5.43,444.21999999999997,-1.7,-0.81,-1.63,0.0,261.06,0.05,-0.78
5.4399999999999995,445.0,-1.63,-0.88,0.27,0.0,259.84,-0.38,-0.78
5.4399999999999995,445.0,-1.63,-0.88,0.27,0.0,259.84,-0.38,-0.78
5.45,445.78,-1.68,-0.88,-1.86,0.0,260.64,-0.5,-1.15
5.46,446.72999999999996,-1.57,-0.79,0.1,0.0,260.45,-0.87,-1.09
5.47,447.33,-1.51,-1.01,-1.82,0.0,261.31,-1.05,-1.27
5.4799999999999995,447.94,-1.58,-0.74,-0.34,0.0,261.12,-1.11,-1.39
5.49,449.32,-1.59,-0.53,-0.97,0.0,261.25,-1.3,-1.76
5.5,449.92999999999995,-1.59,-0.75,-0.47,0.0,261.37,-1.3,-1.76
5.51,450.88,-1.64,-1.11,-1.34,0.0,261.67,-1.6,-1.94
5.52,451.57,-1.63,-0.84,-0.52,0.0,261.61,-1.54,-2.37
5.53,451.48999999999995,-1.65,-1.06,-1.53,0.0,262.71,-1.79,-2.49
5.54,452.52,-1.7,-0.59,-0.34,0.0,263.14,-1.54,-2.68
5.55,453.21999999999997,-1.59,-1.04,-1.34,0.0,264.48,-1.73,-2.86
5.56,453.56,-1.55,-0.75,-0.45,0.0,264.91,-1.48,-3.04
5.569999999999999,454.77,-1.53,-1.18,-1.01,0.0,264.73,-1.73,-3.29
5.58,455.03,-1.6,-0.5,-1.12,0.0,265.34,-1.66,-3.65
5.59,455.9,-1.66,-1.21,-0.98,0.0,265.27,-1.42,-3.9
5.6,457.28,-1.61,-1.0,-0.98,0.0,266.8,-1.42,-3.96
5.609999999999999,457.2,-1.6,-1.41,-0.81,0.0,267.41,-1.24,-4.08
5.62,458.15,-1.64,-0.24,-1.4,0.0,267.23,-1.3,-4.51
5.63,459.19,-1.54,-1.52,-0.94,0.0,266.8,-1.05,-4.75
5.64,459.53999999999996,-1.61,-0.19,-1.26,0.0,267.41,-0.99,-4.94
5.6499999999999995,459.79999999999995,-1.52,-1.47,-0.99,0.0,267.96,-0.93,-4.81
5.66,461.17999999999995,-1.52,-0.26,-1.47,0.0,268.88,-0.99,-4.94
5.67,461.78999999999996,-1.54,-1.7,-0.85,0.0,269.42,-0.75,-4.94
5.68,462.04999999999995,-1.49,-0.35,-1.23,0.0,269.67,-0.75,-5.42
5.6899999999999995,462.73999999999995,-1.61,-1.3,-1.03,0.0,270.46,-0.5,-5.3
5.7,463.69,-1.57,-0.57,-1.25,0.0,270.89,-0.32,-5.67
5.71,464.64,-1.5,-1.2,-1.15,0.0,271.62,0.11,-5.79
5.72,465.85999999999996,-1.56,-1.06,-1.21,0.0,271.87,0.23,-5.97
5.7299999999999995,466.46,-1.58,-0.98,-1.0,0.0,271.5,0.47,-6.03
5.74,466.71999999999997,-1.55,-0.9,-1.08,0.0,271.07,0.72,-6.16
5.75,467.67999999999995,-1.49,-0.85,-0.75,0.0,271.81,1.08,-5.97
5.76,468.28,-1.52,-1.26,-1.09,0.0,272.11,1.33,-6.03
5.76,468.28,-1.52,-1.26,-1.09,0.0,272.11,1.33,-6.03
5.77,468.10999999999996,-1.52,-0.99,-1.08,0.0,271.62,1.63,-6.16
5.78,469.40999999999997,-1.53,-1.12,-1.0,0.0,270.89,1.57,-6.28
5.79,470.09999999999997,-1.49,-0.74,-1.06,0.0,269.97,1.88,-6.58
5.8,470.96999999999997,-1.51,-1.16,-1.12,0.0,270.34,2.12,-6.58
5.81,470.88,-1.43,-1.14,-0.77,0.0,269.67,2.43,-6.77
5.819999999999999,472.53,-1.46,-1.12,-0.84,0.0,268.81,2.49,-7.01
5.83,472.27,-1.45,-0.98,-1.02,0.0,268.69,2.61,-7.01
5.84,473.21999999999997,-1.49,-1.11,-1.04,0.0,268.33,2.67,-7.19
5.85,473.73999999999995,-1.43,-0.96,-0.59,0.0,268.27,2.73,-7.32
5.859999999999999,474.52,-1.49,-0.96,-0.83,0.0,267.84,2.85,-7.25
5.87,475.31,-1.38,-1.06,-0.89,0.0,267.59,2.79,-7.62
5.88,476.42999999999995,-1.47,-0.93,-1.33,0.0,266.86,2.73,-7.44
5.89,476.78,-1.46,-1.28,-1.04,0.0,265.76,3.28,-7.5
5.8999999999999995,476.60999999999996,-1.45,-0.99,-0.73,0.0,264.79,3.52,-7.74
5.91,477.65,-1.42,-1.06,-1.19,0.0,264.18,3.89,-7.86
5.92,478.59999999999997,-1.48,-0.97,-0.75,0.0,263.57,4.01,-7.99
5.93,479.46999999999997,-1.39,-1.1,-0.59,0.0,262.71,4.32,-7.74
5.9399999999999995,480.15999999999997,-1.39,-1.11,-0.79,0.0,262.34,4.38,-7.8
5.95,480.85999999999996,-1.45,-1.01,-0.95,0.0,261.25,4.32,-7.86
5.96,480.67999999999995,-1.39,-1.29,-0.31,0.0,260.33,4.5,-7.86
5.97,481.9,-1.4,-0.76,-1.11,0.0,260.27,4.56,-7.93
5.9799999999999995,482.59,-1.35,-1.04,-0.42,0.0,260.27,4.81,-7.68
5.99,483.03,-1.43,-0.66,-1.59,0.0,259.9,4.74,-7.56
6.0,483.81,-1.43,-0.89,-0.38,0.0,259.11,4.81,-7.44
6.01,484.33,-1.35,-0.73,-0.97,0.0,258.56,4.87,-7.32
6.02,485.63,-1.36,-0.99,-0.77,0.0,258.68,4.87,-7.07
6.03,485.63,-1.39,-0.73,-1.03,0.0,259.05,4.87,-7.01
6.04,486.66999999999996,-1.44,-1.17,-0.78,0.0,258.5,4.87,-6.52
6.05,487.19,-1.45,-0.91,-0.93,0.0,258.26,4.81,-6.4
6.06,487.96999999999997,-1.33,-0.6,-0.78,0.0,257.95,4.74,-6.22
6.069999999999999,488.58,-1.36,-1.07,-0.66,0.0,257.22,4.62,-6.03
6.08,489.02,-1.36,-0.72,-0.59,0.0,256.36,4.68,-5.97
6.08,489.02,-1.36,-0.72,-0.59,0.0,256.36,4.68,-5.97
6.09,489.62,-1.36,-1.18,-0.86,0.0,255.63,4.81,-5.85
6.1,490.4,-1.35,-0.77,-0.79,0.0,255.02,4.56,-5.91
6.109999999999999,491.53,-1.35,-1.27,-0.63,0.0,254.23,4.5,-5.61
6.12,491.88,-1.32,-0.73,-0.73,0.0,253.62,4.5,-5.73
6.13,492.48999999999995,-1.36,-1.28,-0.79,0.0,252.82,4.32,-5.55
6.14,493.44,-1.34,-0.59,-0.79,0.0,252.09,4.2,-5.55
6.1499999999999995,493.35999999999996,-1.27,-1.04,-0.27,0.0,250.93,4.5,-5.36
6.16,494.48999999999995,-1.29,-0.72,-0.56,0.0,250.63,4.26,-5.3
6.17,494.91999999999996,-1.33,-1.11,-1.04,0.0,249.59,4.38,-5.12
6.18,495.27,-1.4,-0.82,-0.8,0.0,248.55,4.62,-5.3
6.1899999999999995,496.04999999999995,-1.3,-1.33,-0.99,0.0,248.0,4.38,-5.3
6.2,496.83,-1.32,-0.76,-0.59,0.0,247.88,4.44,-5.42
6.21,497.7,-1.35,-1.0,-1.04,0.0,247.63,4.56,-5.18
6.22,498.91999999999996,-1.33,-0.95,-0.25,0.0,248.12,4.5,-5.48
6.2299999999999995,498.57,-1.41,-0.6,-1.48,0.0,247.88,4.38,-5.67
6.24,499.60999999999996,-1.3,-1.01,-0.4,0.0,247.33,4.68,-5.42
6.25,500.65999999999997,-1.38,-0.91,-1.05,0.0,247.57,4.87,-5.42
6.26,500.65999999999997,-1.23,-0.77,-0.34,0.0,247.33,4.99,-5.48
6.27,501.44,-1.25,-1.21,-1.02,0.0,247.51,4.93,-5.61
6.28,501.96,-1.3,-0.59,-0.41,0.0,247.63,4.87,-5.55
6.29,502.73999999999995,-1.35,-1.19,-0.88,0.0,248.12,4.74,-5.55
6.3,503.53,-1.29,-0.51,-0.82,0.0,248.67,4.74,-5.67
6.31,503.78999999999996,-1.32,-1.11,-0.66,0.0,249.04,4.68,-5.85
6.319999999999999,504.65999999999997,-1.28,-0.5,-1.06,0.0,249.71,4.81,-5.79
6.33,505.09,-1.28,-1.08,-0.68,0.0,249.95,4.74,-5.73
6.34,505.44,-1.28,-0.61,-1.13,0.0,250.99,4.74,-5.97
6.35,506.31,-1.28,-1.27,-0.81,0.0,251.05,4.74,-5.67
6.359999999999999,506.4,-1.25,-0.64,-1.13,0.0,251.54,4.87,-5.73
6.37,507.44,-1.19,-1.09,-0.88,0.0,251.79,5.29,-5.85
6.38,508.47999999999996,-1.33,-0.75,-0.9,0.0,251.85,5.23,-5.79
6.39,508.91999999999996,-1.24,-0.96,-0.86,0.0,251.97,5.23,-5.73
6.3999999999999995,509.53,-1.2,-0.7,-0.76,0.0,252.46,5.42,-5.79
6.3999999999999995,509.53,-1.2,-0.7,-0.76,0.0,252.46,5.42,-5.79
6.41,509.60999999999996,-1.34,-0.92,-0.93,0.0,252.88,5.42,-5.61
6.42,510.83,-1.23,-0.76,-0.37,0.0,252.76,5.36,-5.55
6.43,510.91999999999996,-1.26,-0.68,-1.37,0.0,253.19,5.66,-5.36
6.4399999999999995,511.88,-1.19,-0.91,-0.59,0.0,253.07,5.72,-5.24
6.45,511.96,-1.24,-0.97,-1.24,0.0,253.07,5.66,-5.12
6.46,513.01,-1.23,-0.92,-0.53,0.0,251.66,5.54,-4.81
6.47,513.18,-1.22,-0.7,-1.15,0.0,250.44,5.48,-4.57
6.4799999999999995,514.14,-1.24,-0.79,-0.59,0.0,248.25,5.36,-4.26
6.49,514.84,-1.16,-0.48,-0.77,0.0,247.57,5.17,-4.08
6.5,515.88,-1.24,-0.9,-0.28,0.0,245.8,5.05,-3.78
6.51,516.32,-1.26,-0.33,-1.02,0.0,244.64,4.81,-3.59
6.52,516.84,-1.19,-1.11,-0.39,0.0,243.48,4.87,-3.16
6.53,516.93,-1.12,-0.57,-0.79,0.0,242.32,4.62,-3.16
6.54,517.36,-1.22,-0.95,-0.58,0.0,241.16,4.44,-2.86
6.55,518.58,-1.17,-0.73,-0.73,0.0,239.82,4.26,-2.62
6.56,519.36,-1.18,-0.73,-0.71,0.0,238.05,3.95,-2.49
6.569999999999999,520.0600000000001,-1.15,-0.8,-0.79,0.0,236.95,3.95,-2.37
6.58,520.84,-1.14,-0.47,-0.43,0.0,235.37,3.71,-2.01
6.59,520.84,-1.18,-0.77,-0.59,0.0,233.17,3.46,-1.64
6.6,521.28,-1.18,-0.56,-0.64,0.0,232.44,3.34,-1.58
6.609999999999999,521.98,-1.18,-1.02,-0.57,0.0,231.03,3.16,-1.33
6.62,522.85,-1.21,-0.5,-0.81,0.0,229.99,2.85,-1.33
6.63,522.76,-1.15,-0.58,-0.86,0.0,228.47,2.85,-1.15
6.64,524.15,-1.15,-0.73,-0.58,0.0,227.07,2.67,-1.03
6.6499999999999995,524.42,-1.18,-0.47,-0.89,0.0,225.23,2.3,-0.72
6.66,524.68,-1.14,-0.72,-0.51,0.0,223.28,2.3,-0.6
6.67,525.2,-1.16,-0.69,-0.65,0.0,221.82,1.94,-0.48
6.68,525.64,-1.09,-0.62,-0.31,0.0,220.96,1.63,-0.3
6.6899999999999995,526.59,-1.22,-0.54,-0.9,0.0,219.86,1.33,-0.11
6.7,527.03,-1.09,-0.68,-0.27,0.0,217.36,1.33,0.07
6.71,527.73,-1.13,-0.46,-1.1,0.0,216.93,1.08,0.13
6.72,528.6,-1.13,-0.86,-0.28,0.0,215.9,1.02,0.25
6.72,528.6,-1.13,-0.86,-0.28,0.0,215.9,1.02,0.25
6.7299999999999995,528.86,-1.21,-0.46,-1.11,0.0,214.43,0.66,0.38
6.74,529.21,-1.07,-0.93,-0.64,0.0,214.0,0.66,0.25
6.75,529.99,-1.15,-0.75,-0.76,0.0,214.25,0.41,0.13
6.76,530.52,-1.14,-0.71,-0.67,0.0,214.25,0.17,0.19
6.77,531.13,-1.09,-0.78,-0.56,0.0,215.1,0.11,-0.11
6.78,532.26,-1.12,-0.84,-0.68,0.0,215.53,0.05,-0.48
6.79,532.35,-1.13,-0.86,-0.89,0.0,215.71,-0.26,-0.54
6.8,532.78,-1.09,-0.67,-0.83,0.0,216.26,-0.08,-0.78
6.81,533.48,-1.09,-0.79,-0.69,0.0,216.51,-0.26,-1.15
6.819999999999999,534.53,-1.1,-0.75,-0.97,0.0,216.32,-0.44,-1.27
6.83,534.88,-1.14,-0.79,-0.4,0.0,216.57,-0.5,-1.27
6.84,534.96,-1.14,-0.58,-0.88,0.0,216.69,-0.75,-1.52
6.85,535.57,-1.1,-0.98,-0.47,0.0,216.75,-0.75,-1.82
6.859999999999999,536.8,-1.08,-0.66,-0.9,0.0,216.87,-0.87,-2.19
6.87,537.49,-1.14,-0.9,-0.47,0.0,216.93,-0.93,-2.31
6.88,537.23,-1.11,-0.56,-0.6,0.0,216.57,-0.99,-2.43
6.89,538.02,-1.06,-0.9,-0.62,0.0,216.2,-0.87,-2.43
6.8999999999999995,539.24,-1.07,-0.86,-0.72,0.0,215.77,-1.11,-2.74
6.91,539.33,-1.12,-0.73,-0.8,0.0,215.77,-1.24,-2.86
6.92,540.11,-1.07,-0.61,-0.96,0.0,215.35,-1.54,-3.23
6.93,540.55,-1.1,-0.72,-1.01,0.0,215.16,-1.48,-3.29
6.9399999999999995,541.25,-1.09,-0.65,-0.32,0.0,214.92,-1.36,-3.41
6.95,541.42,-1.1,-0.67,-1.02,0.0,214.67,-1.42,-3.71
6.96,541.59,-1.09,-0.8,-0.27,0.0,213.94,-1.42,-3.84
6.97,542.21,-1.08,-0.68,-0.91,0.0,212.9,-1.54,-3.84
6.9799999999999995,543.08,-0.99,-0.81,-0.22,0.0,211.32,-1.48,-3.9
6.99,543.86,-1.04,-0.67,-0.36,0.0,209.97,-1.66,-3.96
7.0,544.3,-1.06,-0.65,-0.33,0.0,208.45,-1.91,-4.08
7.01,544.74,-1.01,-0.67,-0.78,0.0,206.92,-1.85,-4.08
7.02,545.7,-1.06,-0.85,-0.33,0.0,205.34,-2.15,-4.08
7.03,546.4,-1.03,-0.6,-0.38,0.0,203.2,-2.21,-4.2
7.04,546.74,-1.09,-0.73,-0.31,0.0,202.41,-2.27,-4.26
7.04,546.74,-1.09,-0.73,-0.31,0.0,202.41,-2.27,-4.26
7.05,547.01,-1.04,-0.74,-0.92,0.0,200.88,-2.52,-4.39
7.06,547.36,-1.01,-0.76,-0.23,0.0,199.72,-2.58,-4.51
7.069999999999999,547.62,-1.01,-0.76,-0.64,0.0,198.32,-2.76,-4.63
7.08,549.19,-1.01,-0.73,-0.19,0.0,196.91,-2.7,-4.81
7.09,549.02,-1.04,-0.74,-0.71,0.0,195.63,-2.82,-4.87
7.1,549.63,-1.03,-0.6,-0.49,0.0,195.08,-2.88,-5.06
7.109999999999999,550.41,-1.09,-0.82,-0.44,0.0,194.78,-3.07,-5.18
7.12,550.59,-1.06,-0.66,-0.76,0.0,194.53,-2.95,-5.42
7.13,551.72,-0.96,-0.91,-0.34,0.0,193.62,-3.19,-5.55
7.14,552.33,-1.01,-0.97,-0.61,0.0,192.21,-3.13,-5.91
7.1499999999999995,552.16,-1.02,-0.68,-0.28,0.0,192.15,-3.19,-6.03
7.16,552.77,-0.98,-0.66,-1.06,0.0,191.72,-3.37,-6.16
7.17,553.03,-0.96,-0.68,-0.11,0.0,191.3,-3.25,-6.34
7.18,553.91,-1.06,-0.47,-0.93,0.0,190.75,-3.13,-6.4
7.1899999999999995,554.69,-0.93,-0.69,-0.47,0.0,190.26,-2.95,-6.64
7.2,555.3100000000001,-0.99,-0.51,-0.54,0.0,189.95,-3.01,-6.83
7.21,555.74,-1.04,-0.94,-0.44,0.0,189.53,-2.95,-6.89
7.22,556.35,-0.94,-0.45,-0.53,0.0,189.04,-3.01,-7.01
7.2299999999999995,556.53,-0.97,-0.89,-0.46,0.0,187.94,-2.52,-7.07
7.24,556.97,-0.97,-0.37,-0.54,0.0,187.15,-2.52,-7.19
7.25,557.58,-0.97,-0.97,-0.38,0.0,186.05,-2.4,-7.19
7.26,558.45,-1.0,-0.26,-0.68,0.0,185.74,-2.34,-7.19
7.27,558.71,-0.96,-0.84,-0.42,0.0,184.95,-2.21,-7.32
7.28,559.24,-0.98,-0.5,-0.78,0.0,183.97,-2.03,-7.44
7.29,559.68,-1.0,-0.8,-0.35,0.0,182.57,-2.21,-7.25
7.3,560.38,-0.93,-0.56,-0.58,0.0,180.37,-1.85,-7.19
7.31,560.64,-0.96,-0.4,-0.42,0.0,178.6,-1.85,-7.07
7.319999999999999,561.51,-1.01,-0.54,-0.36,0.0,177.01,-1.79,-6.89
7.33,562.04,-0.98,-0.54,-0.34,0.0,175.43,-1.79,-6.95
7.34,562.39,-0.92,-0.5,-0.48,0.0,174.7,-1.79,-6.89
7.35,562.65,-0.9,-0.57,-0.47,0.0,172.62,-1.85,-6.83
7.359999999999999,563.17,-0.92,-0.49,-0.35,0.0,170.3,-1.79,-6.71
7.359999999999999,563.17,-0.92,-0.49,-0.35,0.0,170.3,-1.79,-6.71
7.37,563.6999999999999,-0.92,-0.49,-0.35,0.0,170.3,-1.79,-6.71
7.38,563.9599999999999,-0.95,-0.67,-0.36,0.0,168.77,-1.85,-6.77
7.39,564.84,-0.95,-0.54,-0.52,0.0,167.31,-1.79,-6.58
7.3999999999999995,565.4499999999999,-0.89,-0.66,-0.22,0.0,165.66,-1.73,-6.4
7.41,565.89,-1.0,-0.51,-0.52,0.0,164.08,-1.91,-6.34
7.42,566.3199999999999,-0.92,-0.67,-0.26,0.0,162.85,-1.91,-6.46
7.43,566.85,-0.95,-0.53,-0.46,0.0,161.76,-1.66,-6.34
7.4399999999999995,567.72,-0.9,-0.46,-0.46,0.0,160.6,-1.54,-6.09
7.45,567.81,-0.86,-0.65,-0.48,0.0,159.99,-1.6,-6.22
7.46,568.68,-0.9,-0.49,-0.34,0.0,159.19,-1.48,-6.09
7.47,569.3,-0.92,-0.54,-0.35,0.0,156.75,-1.6,-6.16
7.4799999999999995,569.56,-0.92,-0.54,-0.35,0.0,156.75,-1.6,-6.16
7.49,570.0,-0.91,-0.92,-0.61,0.0,155.53,-1.73,-6.28
7.5,570.26,-0.93,-0.53,-0.47,0.0,155.04,-1.85,-6.34
7.51,571.14,-0.91,-0.88,-0.15,0.0,154.13,-1.85,-6.52
7.52,571.22,-0.91,-0.61,-0.62,0.0,153.27,-1.91,-6.58
7.53,571.92,-0.9,-0.64,-0.44,0.0,153.03,-1.79,-6.95
7.54,571.92,-0.88,-0.65,-0.5,0.0,152.72,-1.73,-7.13
7.55,573.06,-0.94,-0.6,-0.71,0.0,152.84,-1.48,-7.38
7.56,573.41,-0.88,-0.36,-0.31,0.0,152.66,-1.24,-7.56
7.569999999999999,574.29,-0.9,-0.77,-0.53,0.0,152.29,-1.11,-7.68
7.58,574.72,-0.91,-0.67,-0.45,0.0,151.32,-0.75,-7.8
7.59,574.99,-0.91,-0.67,-0.45,0.0,151.32,-0.75,-7.8
7.6,576.13,-0.82,-0.41,-0.58,0.0,150.89,-0.38,-7.8
7.609999999999999,576.3,-0.91,-0.74,-0.39,0.0,150.4,-0.38,-7.86
7.62,576.3,-0.85,-0.13,-0.57,0.0,149.91,-0.08,-7.93
7.63,576.65,-0.9,-0.67,-0.67,0.0,149.12,0.23,-7.74
7.64,577.53,-0.88,-0.18,-0.55,0.0,148.14,0.41,-7.62
7.6499999999999995,577.61,-0.89,-0.59,-0.63,0.0,147.6,0.78,-7.32
7.66,578.23,-0.86,-0.4,-0.43,0.0,147.05,1.14,-7.25
7.67,578.93,-0.81,-0.68,-0.59,0.0,146.19,1.33,-7.25
7.68,579.54,-0.83,-0.29,-0.41,0.0,145.21,1.51,-6.95
7.68,579.54,-0.83,-0.29,-0.41,0.0,145.21,1.51,-6.95
7.6899999999999995,579.8,-0.78,-0.17,-0.22,0.0,142.28,1.75,-6.64
7.7,579.54,-0.78,-0.17,-0.22,0.0,142.28,1.75,-6.64
7.71,580.77,-0.81,-0.55,-0.65,0.0,141.25,1.63,-6.34
7.72,580.86,-0.82,-0.37,-0.39,0.0,140.21,2.06,-6.16
7.7299999999999995,581.8199999999999,-0.8,-0.66,-0.81,0.0,139.29,2.24,-5.97
7.74,582.52,-0.85,-0.65,-0.26,0.0,138.44,2.36,-5.97
7.75,582.26,-0.83,-0.45,-0.58,0.0,137.95,2.36,-5.97
7.76,583.48,-0.83,-0.8,-0.32,0.0,137.16,2.36,-5.91
7.77,584.1,-0.83,-0.25,-0.44,0.0,136.61,2.61,-5.79
7.78,584.4499999999999,-0.86,-0.79,-0.84,0.0,135.88,2.73,-5.79
7.79,584.62,-0.85,-0.36,-0.29,0.0,135.57,2.79,-5.91
7.8,584.4499999999999,-0.81,-0.66,-0.71,0.0,135.63,3.22,-5.85
7.81,585.9399999999999,-0.84,-0.26,-0.53,0.0,135.75,3.4,-5.85
7.819999999999999,585.76,-0.77,-0.85,-0.54,0.0,136.24,3.59,-5.85
7.83,586.11,-0.79,-0.42,-0.39,0.0,136.12,3.77,-5.91
7.84,586.9,-0.8,-0.91,-0.57,0.0,135.39,3.89,-6.16
7.85,587.6,-0.81,-0.3,-0.34,0.0,134.96,4.32,-6.28
7.859999999999999,587.43,-0.87,-0.87,-0.58,0.0,134.59,4.38,-6.28
7.87,588.8299999999999,-0.77,-0.31,-0.37,0.0,134.17,4.56,-6.4
7.88,588.74,-0.82,-0.66,-0.73,0.0,133.68,4.93,-6.16
7.89,589.01,-0.77,-0.4,-0.26,0.0,133.68,5.11,-6.03
7.8999999999999995,589.62,-0.82,-0.82,-0.79,0.0,133.5,5.17,-6.09
7.91,590.06,-0.77,-0.54,-0.16,0.0,132.34,5.36,-5.97
7.92,590.67,-0.81,-0.64,-0.79,0.0,132.34,5.42,-6.03
7.93,590.93,-0.83,-0.51,0.16,0.0,132.4,5.6,-6.22
7.9399999999999995,591.4599999999999,-0.84,-0.66,-0.74,0.0,132.52,5.54,-6.28
7.95,591.55,-0.78,-0.45,-0.22,0.0,131.36,5.6,-6.22
7.96,592.6899999999999,-0.71,-0.55,-0.41,0.0,130.63,5.48,-6.22
7.97,592.51,-0.79,-0.31,-0.38,0.0,129.77,5.72,-6.09
7.9799999999999995,594.0,-0.77,-0.6,-0.47,0.0,128.98,5.72,-6.16
7.99,594.0,-0.75,-0.33,-0.45,0.0,127.94,5.66,-5.91
8.0,594.09,-0.77,-0.63,-0.49,0.0,126.78,5.72,-5.61
8.0,594.09,-0.77,-0.63,-0.49,0.0,126.78,5.72,-5.61
8.01,595.06,-0.76,-0.45,-0.54,0.0,125.32,5.78,-5.3
8.02,594.79,-0.7,-0.44,-0.68,0.0,122.75,6.09,-4.69
8.030000000000001,595.67,-0.7,-0.44,-0.68,0.0,122.75,6.09,-4.69
8.040000000000001,595.76,-0.74,-0.5,-0.19,0.0,121.84,5.97,-4.45
8.05,596.1999999999999,-0.75,-0.49,-0.87,0.0,121.1,6.03,-4.45
8.06,596.99,-0.75,-0.48,-0.25,0.0,120.19,6.15,-4.26
8.07,597.16,-0.75,-0.52,-0.55,0.0,119.46,6.39,-4.14
8.08,597.78,-0.66,-0.49,-0.11,0.0,118.72,6.15,-3.9
8.09,598.3,-0.76,-0.32,-0.6,0.0,117.93,6.27,-3.84
8.1,598.5699999999999,-0.63,-0.29,-0.21,0.0,117.2,6.27,-3.59
8.11,599.27,-0.78,-0.55,-0.5,0.0,116.47,5.9,-3.35
8.120000000000001,599.62,-0.7,-0.23,-0.04,0.0,115.0,5.9,-3.04
8.13,600.15,-0.76,-0.3,-0.5,0.0,115.0,5.84,-2.8
8.14,600.67,-0.68,-0.32,-0.02,0.0,114.76,5.78,-2.74
8.15,600.85,-0.69,-0.54,-0.37,0.0,114.7,5.6,-2.74
8.16,601.4599999999999,-0.68,-0.34,-0.16,0.0,114.51,5.29,-2.55
8.17,602.17,-0.69,-0.43,-0.46,0.0,114.64,4.81,-2.62
8.18,601.99,-0.65,-0.18,-0.06,0.0,114.21,4.62,-2.31
8.19,603.13,-0.64,-0.33,-0.39,0.0,112.86,4.62,-1.94
8.200000000000001,603.31,-0.68,-0.28,-0.36,0.0,111.09,4.44,-1.58
8.21,603.5699999999999,-0.64,-0.49,-0.21,0.0,109.87,4.38,-1.27
8.22,604.1,-0.66,-0.19,-0.27,0.0,108.78,4.2,-0.97
8.23,604.4499999999999,-0.69,-0.44,-0.3,0.0,107.25,4.07,-0.66
8.24,604.62,-0.62,-0.24,-0.52,0.0,105.05,3.83,-0.11
8.25,604.89,-0.72,-0.59,-0.32,0.0,104.26,3.95,0.01
8.26,605.3299999999999,-0.64,-0.14,-0.28,0.0,102.67,3.83,0.25
8.27,605.85,-0.66,-0.54,-0.44,0.0,101.33,3.83,0.62
8.280000000000001,606.64,-0.65,-0.18,-0.45,0.0,99.74,3.83,0.74
8.290000000000001,607.26,-0.64,-0.52,-0.41,0.0,98.83,3.77,1.17
8.3,607.6999999999999,-0.63,-0.32,-0.59,0.0,97.79,3.83,1.29
8.31,608.14,-0.62,-0.35,-0.37,0.0,96.75,3.89,1.53
8.32,608.05,-0.62,-0.34,-0.44,0.0,95.53,3.83,1.66
8.32,608.05,-0.62,-0.34,-0.44,0.0,95.53,3.83,1.66
8.33,608.31,-0.7,-0.49,-0.28,0.0,94.07,3.95,2.08
8.34,609.1,-0.68,-0.27,-0.71,0.0,92.97,4.01,2.27
8.350000000000001,608.5799999999999,-0.71,-0.53,-0.22,0.0,91.14,4.32,2.51
8.360000000000001,609.72,-0.65,-0.48,-0.67,0.0,90.59,4.44,2.51
8.370000000000001,609.98,-0.68,-0.63,-0.48,0.0,89.43,4.62,2.69
8.38,610.25,-0.61,-0.61,-0.47,0.0,88.33,4.81,2.63
8.39,610.6,-0.69,-0.56,-0.57,0.0,88.76,4.74,2.57
8.4,611.04,-0.65,-0.66,-0.63,0.0,89.98,4.81,2.21
8.41,611.8299999999999,-0.67,-0.48,-0.57,0.0,92.05,4.87,1.84
8.42,612.0,-0.66,-0.76,-0.51,0.0,94.19,4.68,1.66
8.430000000000001,612.27,-0.65,-0.56,-0.39,0.0,96.14,4.81,1.23
8.440000000000001,612.35,-0.62,-0.77,-0.51,0.0,97.36,4.81,1.17
8.450000000000001,613.41,-0.65,-0.65,-0.52,0.0,98.77,4.62,0.8
8.46,613.5799999999999,-0.62,-0.7,-0.47,0.0,101.82,4.5,0.25
8.47,614.55,-0.63,-0.53,-0.39,0.0,103.04,4.56,0.07
8.48,614.4599999999999,-0.61,-0.71,-0.52,0.0,105.42,4.56,-0.24
8.49,614.9,-0.62,-0.46,-0.4,0.0,107.62,4.56,-0.66
8.5,615.25,-0.68,-0.75,-0.58,0.0,109.57,4.5,-1.03
8.510000000000002,615.78,-0.65,-0.66,-0.44,0.0,111.95,4.44,-1.46
8.520000000000001,615.87,-0.64,-0.61,-0.67,0.0,113.9,4.38,-1.88
8.530000000000001,616.5699999999999,-0.64,-0.77,-0.45,0.0,115.73,4.32,-2.25
8.540000000000001,616.5699999999999,-0.66,-0.6,-0.72,0.0,117.81,4.13,-2.62
8.55,617.28,-0.66,-0.73,-0.55,0.0,119.88,4.32,-2.98
8.56,617.28,-0.64,-0.52,-0.77,0.0,121.47,4.38,-3.41
8.57,617.98,-0.65,-0.69,-0.55,0.0,123.18,4.93,-3.9
8.58,618.77,-0.66,-0.53,-0.83,0.0,123.61,5.05,-3.9
8.59,619.2099999999999,-0.57,-0.56,-0.71,0.0,123.61,5.42,-4.14
8.600000000000001,618.68,-0.65,-0.6,-0.74,0.0,123.12,5.84,-4.14
8.610000000000001,619.65,-0.61,-0.45,-0.71,0.0,123.0,6.33,-4.08
8.620000000000001,619.91,-0.64,-0.6,-0.62,0.0,122.33,6.45,-4.14
8.63,620.27,-0.6,-0.36,-0.61,0.0,121.53,6.76,-4.08
8.64,620.7099999999999,-0.59,-0.49,-0.62,0.0,120.49,7.06,-3.71
8.64,620.7099999999999,-0.59,-0.49,-0.62,0.0,120.49,7.06,-3.71
8.65,621.3199999999999,-0.51,-0.33,-0.59,0.0,119.4,7.31,-3.59
8.66,621.59,-0.57,-0.66,-0.52,0.0,118.05,7.49,-3.41
8.67,622.03,-0.62,-0.29,-0.74,0.0,116.41,7.74,-3.29
8.680000000000001,622.64,-0.59,-0.34,-0.39,0.0,114.09,7.86,-2.86
8.690000000000001,622.73,-0.56,-0.25,-0.69,0.0,113.29,7.98,-2.74
8.700000000000001,623.17,-0.58,-0.5,-0.57,0.0,111.95,8.1,-2.49
8.71,623.0799999999999,-0.62,-0.25,-0.6,0.0,110.18,8.22,-2.25
8.72,623.34,-0.55,-0.45,-0.32,0.0,108.78,8.22,-1.82
8.73,623.87,-0.53,-0.22,-0.73,0.0,107.25,8.35,-1.33
8.74,624.66,-0.58,-0.35,-0.43,0.0,105.85,8.59,-1.03
8.75,624.5799999999999,-0.52,-0.37,-0.56,0.0,104.62,8.71,-0.54
8.760000000000002,624.75,-0.53,-0.43,-0.33,0.0,103.4,8.96,-0.11
8.770000000000001,625.81,-0.55,-0.1,-0.41,0.0,101.94,8.83,0.07
8.780000000000001,626.16,-0.51,-0.45,-0.43,0.0,100.29,8.65,0.44
8.790000000000001,626.6,-0.57,-0.26,-0.5,0.0,97.85,8.83,1.11
8.8,626.6,-0.51,-0.37,-0.58,0.0,97.3,8.83,1.41
8.81,627.04,-0.56,-0.25,-0.23,0.0,95.84,8.83,1.66
8.82,627.48,-0.58,-0.38,-0.43,0.0,94.13,8.65,2.08
8.83,627.74,-0.57,-0.22,-0.13,0.0,92.78,8.71,2.39
8.84,628.27,-0.52,-0.36,-0.47,0.0,91.38,8.53,2.94
8.850000000000001,628.62,-0.57,-0.15,-0.15,0.0,89.73,8.22,3.18
8.860000000000001,628.36,-0.51,-0.27,-0.51,0.0,88.21,8.22,3.67
8.870000000000001,629.15,-0.48,-0.35,-0.09,0.0,86.5,7.92,3.98
8.88,629.5,-0.52,-0.36,-0.51,0.0,85.09,7.92,4.28
8.89,630.74,-0.5,-0.38,-0.07,0.0,83.87,7.74,4.65
8.9,630.2099999999999,-0.5,-0.38,-0.19,0.0,81.98,7.61,5.14
8.91,630.91,-0.51,-0.34,-0.06,0.0,81.25,7.55,5.26
8.92,631.09,-0.53,-0.4,-0.46,0.0,80.82,7.31,5.5
8.930000000000001,631.53,-0.46,-0.24,-0.02,0.0,80.09,7.0,5.69
8.940000000000001,631.97,-0.51,-0.32,-0.52,0.0,79.36,6.7,5.99
8.950000000000001,632.41,-0.47,-0.36,0.04,0.0,79.23,6.51,6.11
8.96,632.3199999999999,-0.51,-0.24,-0.48,0.0,79.05,5.84,6.3
8.96,632.3199999999999,-0.51,-0.24,-0.48,0.0,79.05,5.84,6.3
8.97,633.1999999999999,-0.45,-0.28,0.16,0.0,78.26,6.03,6.36
8.98,633.47,-0.51,-0.31,-0.34,0.0,78.62,5.42,6.36
8.99,633.47,-0.47,-0.23,-0.03,0.0,79.05,4.93,6.42
9.0,633.73,-0.49,-0.36,-0.3,0.0,79.36,4.56,6.48
9.010000000000002,633.99,-0.43,-0.53,0.02,0.0,79.48,4.26,6.66
9.020000000000001,634.52,-0.47,-0.37,-0.03,0.0,79.72,4.07,6.6
9.030000000000001,634.88,-0.43,-0.1,-0.37,0.0,79.78,3.46,6.66
9.040000000000001,635.49,-0.46,-0.46,-0.05,0.0,79.84,3.28,6.85
9.05,636.02,-0.49,-0.17,-0.18,0.0,79.17,2.85,6.97
9.06,635.93,-0.44,-0.4,-0.24,0.0,78.56,2.55,7.15
9.07,636.11,-0.52,-0.21,-0.32,0.0,77.89,2.06,7.21
9.08,636.64,-0.44,-0.52,-0.05,0.0,77.22,1.88,7.58
9.09,637.61,-0.45,-0.19,-0.32,0.0,76.36,1.63,7.46
9.100000000000001,637.43,-0.46,-0.62,-0.02,0.0,75.63,1.45,7.58
9.110000000000001,637.6899999999999,-0.41,-0.17,-0.33,0.0,75.33,1.27,7.64
9.120000000000001,637.6899999999999,-0.45,-0.33,-0.05,0.0,74.47,0.72,7.76
9.13,637.61,-0.46,-0.31,-0.23,0.0,74.23,0.59,7.82
9.14,638.93,-0.45,-0.52,-0.05,0.0,74.11,0.35,8.07
9.15,639.02,-0.44,-0.24,-0.29,0.0,74.78,-0.14,7.88
9.16,639.81,-0.48,-0.5,-0.23,0.0,74.96,-0.32,7.82
9.17,639.63,-0.44,-0.28,-0.22,0.0,75.39,-0.69,7.46
9.180000000000001,639.4599999999999,-0.43,-0.46,-0.34,0.0,75.82,-0.75,7.52
9.190000000000001,640.51,-0.43,-0.3,-0.18,0.0,76.36,-1.11,7.39
9.200000000000001,640.78,-0.48,-0.47,-0.38,0.0,76.91,-1.36,7.21
9.21,641.13,-0.44,-0.47,-0.1,0.0,77.59,-1.54,6.97
9.22,640.9499999999999,-0.49,-0.34,-0.34,0.0,77.65,-1.73,6.91
9.23,642.01,-0.45,-0.53,-0.48,0.0,78.13,-2.09,6.54
9.24,642.01,-0.45,-0.44,-0.31,0.0,78.26,-2.15,6.48
9.25,641.92,-0.43,-0.47,-0.29,0.0,78.2,-2.34,6.42
9.260000000000002,642.72,-0.41,-0.46,-0.37,0.0,78.5,-2.58,6.17
9.270000000000001,642.98,-0.48,-0.45,-0.19,0.0,78.32,-2.7,5.99
9.280000000000001,642.89,-0.45,-0.3,-0.5,0.0,78.13,-2.88,5.87
9.280000000000001,642.89,-0.45,-0.3,-0.5,0.0,78.13,-2.88,5.87
9.290000000000001,643.51,-0.41,-0.51,-0.11,0.0,78.87,-3.01,5.81
9.3,643.6899999999999,-0.47,-0.36,-0.5,0.0,79.17,-3.25,5.56
9.31,644.3,-0.39,-0.5,-0.15,0.0,79.36,-3.43,5.44
9.32,644.74,-0.45,-0.53,-0.48,0.0,79.48,-3.56,5.32
9.33,645.1,-0.4,-0.52,-0.2,0.0,79.36,-3.74,5.14
9.34,645.01,-0.38,-0.43,-0.28,0.0,79.48,-3.98,4.71
9.350000000000001,646.0699999999999,-0.42,-0.6,-0.32,0.0,79.48,-4.04,4.59
9.360000000000001,645.4499999999999,-0.41,-0.42,-0.44,0.0,79.78,-4.23,4.46
9.370000000000001,645.8,-0.45,-0.58,-0.24,0.0,79.6,-4.35,4.16
9.38,646.6,-0.44,-0.46,-0.56,0.0,79.66,-4.35,3.79
9.39,646.15,-0.45,-0.54,-0.18,0.0,78.93,-4.41,3.73
9.4,647.3,-0.48,-0.39,-0.47,0.0,78.5,-4.41,3.37
9.41,647.5699999999999,-0.44,-0.52,-0.35,0.0,77.77,-4.23,3.24
9.42,647.48,-0.42,-0.39,-0.51,0.0,77.04,-4.29,3.18
9.430000000000001,647.5699999999999,-0.45,-0.57,-0.4,0.0,76.18,-4.11,2.94
9.440000000000001,648.18,-0.4,-0.37,-0.36,0.0,75.69,-3.98,2.76
9.450000000000001,648.09,-0.41,-0.38,-0.36,0.0,75.14,-3.8,2.57
9.46,648.4499999999999,-0.39,-0.33,-0.13,0.0,74.84,-3.92,2.69
9.47,649.06,-0.43,-0.47,-0.57,0.0,74.17,-3.74,2.39
9.48,648.98,-0.41,-0.31,-0.37,0.0,73.44,-3.74,2.33
9.49,649.9499999999999,-0.45,-0.5,-0.54,0.0,73.07,-3.68,2.27
9.5,650.12,-0.47,-0.34,-0.3,0.0,72.52,-3.56,2.21
9.510000000000002,650.39,-0.41,-0.42,-0.43,0.0,71.91,-3.43,2.08
9.520000000000001,650.8299999999999,-0.39,-0.34,-0.24,0.0,71.24,-3.43,1.9
9.530000000000001,651.18,-0.43,-0.4,-0.52,0.0,70.87,-3.43,1.96
9.540000000000001,651.36,-0.41,-0.18,-0.3,0.0,70.38,-3.19,1.84
9.55,651.4499999999999,-0.42,-0.42,-0.52,0.0,69.59,-3.19,2.02
9.56,652.15,-0.4,-0.34,-0.2,0.0,68.61,-3.07,2.02
9.57,652.06,-0.4,-0.41,-0.53,0.0,68.49,-3.13,2.02
9.58,652.68,-0.43,-0.21,-0.22,0.0,67.94,-3.13,2.02
9.59,653.12,-0.38,-0.45,-0.48,0.0,67.39,-3.07,2.21
9.600000000000001,653.12,-0.43,-0.21,-0.24,0.0,67.03,-3.07,2.21
9.600000000000001,653.12,-0.43,-0.21,-0.24,0.0,67.03,-3.07,2.21
9.610000000000001,653.39,-0.4,-0.26,-0.37,0.0,66.6,-3.19,2.33
9.620000000000001,653.2099999999999,-0.37,-0.14,-0.34,0.0,66.05,-3.07,2.27
9.63,654.27,-0.41,-0.35,-0.41,0.0,65.62,-3.01,2.39
9.64,654.4499999999999,-0.41,-0.22,-0.41,0.0,65.13,-3.25,2.39
9.65,654.18,-0.35,-0.23,-0.38,0.0,64.34,-3.19,2.63
9.66,655.15,-0.39,-0.23,-0.38,0.0,64.04,-3.25,2.82
9.67,654.89,-0.37,-0.31,-0.38,0.0,63.3,-3.37,3.0
9.680000000000001,655.77,-0.36,-0.06,-0.36,0.0,62.88,-3.31,2.94
9.690000000000001,655.68,-0.38,-0.09,-0.28,0.0,62.08,-3.37,3.24
