time,baro_altitude,accl_x,accl_y,accl_z,gps_altitude,gyro_roll,gyro_pitch,gyro_yaw
0.0,0.0,-0.421237627,9.69803797,1.392956239,0.0,0.004856016,0.003793577,-0.003827341
0.251,0.027294824,-0.430811189,9.702826047,1.412103435,0.0,-0.001000976,0.004329864,-0.000645375
0.762,-0.025061548,-0.210618814,9.674105179,1.503052363,0.0,-0.001000976,0.004329864,-0.000645375
0.782,-0.025061548,-0.210618814,9.674105179,1.503052363,0.0,-0.001000976,0.004329864,-0.000645375
0.8290000000000001,-0.162113234,-0.320714992,9.683677828,1.498265454,0.0,0.00325856,-0.01005404,-0.002232548
0.879,-0.162113234,-0.397303668,9.669318271,1.512626034,0.0,0.004856457,0.03735023,0.005224303
0.928,-0.093463555,-0.354222549,9.707612956,1.421676961,0.0,0.002725928,0.000598604,-0.000634652
0.981,-0.043836992,-0.397303668,9.688465905,1.455184591,0.0,0.002725928,0.039480757,0.007354832
1.0299999999999998,-0.043836992,-0.368582947,9.69803797,1.349875084,0.0,-0.002600394,0.000598604,0.001495877
1.0799999999999998,-0.043836992,-0.311141431,9.688465905,1.488692075,0.0,-0.005796188,-0.047338296,-0.006493606
1.142,0.024813473,-0.382943308,9.67889092,1.440824157,0.0,-0.002600394,-0.020174053,-0.000102019
1.1849999999999998,0.066996515,-0.248913134,9.659744453,1.579641002,0.0,-0.002600795,-0.010054786,-9.91973e-05
1.234,0.066996515,-0.426024427,9.69803797,1.498265454,0.0,-0.002068163,-0.03242534,-0.003827623
1.279,0.038874466,-0.301567851,9.654958129,1.598788199,0.0,0.002725527,0.022968413,0.005759757
1.331,0.038874466,-0.359009349,9.683677828,1.464758116,0.0,0.004856056,-0.02763165,-0.004360255
1.38,0.038874466,-0.339862152,9.669318271,1.550920281,0.0,0.003790792,0.006456813,0.000433435
1.432,-0.002481344,-0.363796148,9.693251646,1.383382568,0.0,0.002192895,6.52263e-05,-0.002762358
1.48,0.024813473,-0.387730107,9.683677828,1.479118404,0.0,0.001660263,0.007522077,-0.000631829
1.533,0.024813473,-0.306354631,9.69803797,1.388169476,0.0,-0.003133427,0.001130491,-0.001164462
1.579,0.011579613,-0.382943308,9.669318271,1.541346756,0.0,-0.003133427,-0.01591374,-0.005425519
1.631,0.011579613,-0.411664029,9.683677828,1.455184591,0.0,-0.002067562,0.029361118,0.002027099
1.68,0.011579613,-0.359009349,9.688465905,1.455184591,0.0,-0.000469665,0.044274822,0.003624995
1.73,-0.02067785,-0.464318746,9.669318271,1.517412797,0.0,-0.000469665,-0.008988403,-0.001701327
1.787,0.020677891,-0.34943575,9.674105179,1.560493952,0.0,-0.00153493,-0.016977886,0.002559731
1.8359999999999999,0.020677891,-0.31592823,9.683677828,1.455184591,0.0,0.001660864,-0.005259977,0.002559731
1.879,-0.02067785,-0.368582947,9.674105179,1.426463723,0.0,6.29668e-05,0.033089545,0.007353421
1.9309999999999998,-0.02067785,-0.354222549,9.683677828,1.455184591,0.0,-0.000469665,0.014980047,0.005222892
1.98,-0.0401977,-0.397303668,9.683677828,1.421676961,0.0,-0.003132827,-0.036152646,-0.003831856
2.033,-0.0401977,-0.287207472,9.674105179,1.507839271,0.0,-0.004730723,-0.002064184,0.000961834
2.08,-0.060379203,-0.258486732,9.669318271,1.522199559,0.0,-0.004198091,0.009121093,0.002027099
2.1430000000000002,-0.060379203,-0.397303668,9.67889092,1.550920281,0.0,-0.001002298,-0.011118932,-0.00489712
2.182,-0.107524365,-0.359009349,9.67889092,1.565280715,0.0,0.001660864,0.013382151,0.000961834
2.2390000000000003,-0.107524365,-0.320714992,9.654958129,1.574854386,0.0,0.002193496,-0.012716829,-0.003831856
2.2800000000000002,-0.111659899,-0.33028859,9.693251646,1.455184591,0.0,0.004856657,-0.002596816,-0.001168695
2.331,-0.111659899,-0.301567851,9.669318271,1.507839271,0.0,0.003791392,0.032024279,0.003092363
2.3800000000000003,-0.131510422,-0.421237627,9.69803797,1.402529764,0.0,0.00325876,-0.000466287,-0.000636063
2.432,-0.131510422,-0.325501791,9.674105179,1.455184591,0.0,-0.002067562,0.011784255,0.002559731
2.48,-0.152188003,-0.387730107,9.683677828,1.402529764,0.0,-0.003665459,-0.02283684,-0.002766591
2.531,-0.152188003,-0.382943308,9.67889092,1.464758116,0.0,-0.003132827,-0.02283684,-0.002766591
2.58,-0.068981148,-0.306354631,9.659744453,1.517412797,0.0,-0.004730723,0.021904267,0.00469026
2.6310000000000002,-0.068981148,-0.426024427,9.659744453,1.536559993,0.0,-0.002601155,-0.011653353,-9.66574e-05
2.68,-0.062446978,-0.311141431,9.67889092,1.53177323,0.0,6.20059e-05,0.004325613,0.004697033
2.7310000000000003,-0.062446978,-0.339862152,9.683677828,1.503052363,0.0,0.00112727,-0.009522825,0.000435975
2.7800000000000002,-0.038874321,-0.344648951,9.674105179,1.526986322,0.0,0.003790431,-0.013251251,0.000435975
2.8360000000000003,-0.038874321,-0.34943575,9.683677828,1.469544879,0.0,0.002725167,0.011782465,0.000968607
2.8800000000000003,-0.030603202,-0.378156509,9.688465905,1.412103435,0.0,0.001659903,-0.009522825,-0.003292451
2.93,-0.030603202,-0.287207472,9.674105179,1.459971207,0.0,0.000594638,0.006988774,-0.001161922
2.98,-0.003308459,-0.368582947,9.669318271,1.474331641,0.0,-0.002068523,-0.005794399,-0.003825083
3.032,-0.037220098,-0.325501791,9.659744453,1.522199559,0.0,-0.002068523,0.01817405,-9.66574e-05
3.081,-0.037220098,-0.449958349,9.659744453,1.503052363,0.0,0.00112727,0.005390877,-0.001694554
3.1310000000000002,-0.037220098,-0.416450792,9.664530778,1.498265454,0.0,-0.001003259,-0.008457561,-0.00062929
3.1830000000000003,0.017865695,-0.368582947,9.67889092,1.517412797,0.0,0.00112675,-0.014317485,-9.29887e-05
3.236,0.017865695,-0.306354631,9.674105179,1.498265454,0.0,0.002724647,0.004857275,0.000972276
3.2800000000000002,0.039701585,-0.382943308,9.683677828,1.464758116,0.0,0.002192014,0.020303611,0.004700701
3.3320000000000003,0.039701585,-0.378156509,9.693251646,1.426463723,0.0,0.002192014,0.005389907,0.001504908
3.3810000000000002,0.054176159,-0.344648951,9.683677828,1.469544879,0.0,-0.003134308,-0.010056427,-0.001158253
3.431,0.054176159,-0.339862152,9.683677828,1.450397682,0.0,-0.002601676,-0.013784852,-0.003288782
3.48,0.090569459,-0.27763391,9.659744453,1.536559993,0.0,-0.005264837,0.004324643,-9.29887e-05
3.5300000000000002,0.090569459,-0.354222549,9.674105179,1.522199559,0.0,-0.001003779,0.004857275,-0.000625621
3.579,0.112488218,-0.373369709,9.669318271,1.560493952,0.0,0.002724647,0.018173082,0.000439644
3.6300000000000003,0.099254243,-0.397303668,9.659744453,1.488692075,0.0,0.002192014,0.007520436,0.000439644
3.68,0.099254243,-0.421237627,9.669318271,1.488692075,0.0,0.002192014,-0.002066944,-0.000625621
3.7310000000000003,0.099254243,-0.34943575,9.683677828,1.44561092,0.0,0.004322543,-0.001001679,0.001504908
3.779,0.076094836,-0.368582947,9.69803797,1.440824157,0.0,0.00112675,-0.002066944,-0.001158253
3.8320000000000003,0.035979554,-0.378156509,9.688465905,1.388169476,0.0,-0.002069043,0.018705714,0.002570172
3.8840000000000003,0.035979554,-0.373369709,9.674105179,1.498265454,0.0,-0.004732205,0.008053069,0.000972276
3.931,0.004135575,-0.359009349,9.683677828,1.469544879,0.0,-0.005264837,-0.022306968,-0.001158253
3.979,0.004135575,-0.459531911,9.683677828,1.450397682,0.0,-0.005264837,-0.020176439,-0.001158253
4.031,0.004135575,-0.335075353,9.650170636,1.594001436,0.0,-0.003134308,-0.017513279,0.000439644
4.08,0.046318531,-0.27763391,9.659744453,1.507839271,0.0,-0.001536411,-0.030296452,-0.001690885
4.1290000000000004,0.011248767,-0.291994252,9.674105179,1.536559993,0.0,0.003257279,0.018173082,0.003102805
4.179,0.011248767,-0.296781052,9.688465905,1.440824157,0.0,0.001126109,0.006453979,0.000444159
4.232,0.011248767,-0.421237627,9.688465905,1.479118404,0.0,0.002724006,0.002192921,-0.000621106
4.28,-0.009925373,-0.268060293,9.683677828,1.431250632,0.0,0.002724006,-0.003133402,-0.00168637
4.3340000000000005,-0.046814591,-0.392516869,9.683677828,1.455184591,0.0,0.001126109,0.00432345,-0.002219002
4.38,-0.046814591,-0.339862152,9.688465905,1.416890198,0.0,-0.002069684,0.024563475,0.000976791
4.431,-0.026054082,-0.397303668,9.659744453,1.522199559,0.0,-0.001537052,-0.005796563,-0.002751634
4.479,-0.026054082,-0.411664029,9.67889092,1.469544879,0.0,-0.00100442,0.002725553,-8.84734e-05
4.533,-0.038874321,-0.397303668,9.659744453,1.560493952,0.0,-0.002069684,-0.00526393,0.000976791
4.581,-0.038874321,-0.363796148,9.683677828,1.493478838,0.0,6.08447e-05,-0.014851311,0.000444159
4.631,-0.0115796,-0.359009349,9.664530778,1.483905312,0.0,0.000593477,0.009649772,0.005770481
4.68,-0.0115796,-0.325501791,9.688465905,1.402529764,0.0,-0.001005181,-0.003134819,0.004177946
4.73,0.011579613,-0.363796148,9.674105179,1.469544879,0.0,-0.001537813,-0.004732715,0.002047417
4.781,0.011579613,-0.320714992,9.688465905,1.464758116,0.0,6.00839e-05,-0.007928509,0.002047417
4.829,0.011579613,-0.311141431,9.674105179,1.450397682,0.0,-0.003668342,0.001126239,0.000982153
4.881,0.006203363,-0.296781052,9.67889092,1.488692075,0.0,-0.002070445,-0.002602187,-0.00221364
4.93,-0.048303392,-0.378156509,9.645383728,1.546133518,0.0,-0.001005181,0.012844147,0.000982153
4.981,-0.048303392,-0.34943575,9.683677828,1.517412797,0.0,0.002190613,-0.00579798,-0.00221364
5.03,-0.037220098,-0.382943308,9.67889092,1.517412797,0.0,0.001657981,0.002724136,-0.003278905
5.08,-0.037220098,-0.368582947,9.659744453,1.517412797,0.0,0.005386406,0.021366263,0.001514785
5.13,-0.092636444,-0.368582947,9.688465905,1.44561092,0.0,0.003788509,0.021898896,0.000449521
5.18,-0.092636444,-0.387730107,9.693251646,1.407316673,0.0,-0.000471948,-0.001535803,-8.73446e-05
5.234,-0.030106934,-0.397303668,9.688465905,1.36902228,0.0,0.002191213,-0.0031337,-0.000619977
5.279,-0.030106934,-0.387730107,9.67889092,1.44561092,0.0,-0.003135109,-0.005264229,0.002043184
5.33,-0.053762324,-0.397303668,9.67889092,1.474331641,0.0,-0.002602477,0.008051577,0.004173713
5.388,-0.053762324,-0.373369709,9.669318271,1.507839271,0.0,-0.002602477,-0.006862125,0.001510552
5.429,-0.073612958,-0.373369709,9.67889092,1.493478838,0.0,-0.002602477,-0.021243196,0.000445288
5.48,-0.073612958,-0.287207472,9.664530778,1.536559993,0.0,-0.000471948,-0.014318977,0.001510552
5.531,-0.083124705,-0.291994252,9.650170636,1.522199559,0.0,0.001125949,-0.004198964,-8.73446e-05
5.582,-0.083124705,-0.378156509,9.67889092,1.517412797,0.0,0.002191213,0.025095807,0.002575817
5.633,-0.11662253,-0.301567851,9.683677828,1.464758116,0.0,0.001658581,-0.017514771,-0.001685241
5.68,-0.11662253,-0.387730107,9.683677828,1.464758116,0.0,0.001125348,-0.034027487,-0.007539962
5.731,-0.078079343,-0.282420672,9.674105179,1.483905312,0.0,0.001125348,0.004854665,-0.000615744
5.781,-0.078079343,-0.33028859,9.664530778,1.479118404,0.0,6.00839e-05,0.019768367,-0.00221364
5.831,-0.060379203,-0.426024427,9.683677828,1.440824157,0.0,-0.002070445,0.009648355,-0.001148376
5.8790000000000004,-0.060379203,-0.382943308,9.669318271,1.536559993,0.0,-0.001005181,-0.028701166,-0.00221364
5.929,-0.059882939,-0.382943308,9.664530778,1.512626034,0.0,-0.001005181,-0.028168533,-0.002746273
5.979,-0.059882939,-0.416450792,9.664530778,1.483905312,0.0,-0.001537813,0.026692586,0.005243211
6.031,-0.12456274,-0.402090468,9.67889092,1.436037394,0.0,6.00839e-05,-0.014852729,0.00258005
6.077,-0.12456274,-0.382943308,9.674105179,1.469544879,0.0,-0.001537813,-0.026570637,0.00258005
6.131,-0.090155125,-0.263273513,9.669318271,1.459971207,0.0,6.00839e-05,-0.007395876,0.003112682
6.179,-0.090155125,-0.291994252,9.659744453,1.512626034,0.0,-0.001007383,-0.00047576,0.000997674
6.231,-0.075267173,-0.33028859,9.674105179,1.488692075,0.0,-0.002605279,0.009644252,0.000997674
6.279,-0.075267173,-0.335075353,9.669318271,1.493478838,0.0,-0.001007383,-0.007399979,-0.002730751
6.332,-0.071545184,-0.291994252,9.659744453,1.555707189,0.0,-0.000474751,-0.008997876,-0.001665487
6.389,-0.071545184,-0.382943308,9.645383728,1.517412797,0.0,0.003786307,0.018166369,-0.003263383
6.434,-0.102561727,-0.421237627,9.67889092,1.512626034,0.0,0.002188411,0.02349269,-0.000600222
6.482,-0.12960808,-0.354222549,9.674105179,1.517412797,0.0,0.002721043,-0.016454726,-0.002198119
6.531,-0.12960808,-0.344648951,9.669318271,1.450397682,0.0,0.002188411,-0.013791566,-0.001665487
6.58,-0.12960808,-0.387730107,9.683677828,1.459971207,0.0,0.001123146,0.014970574,0.003128203
6.63,-0.151774451,-0.320714992,9.69803797,1.412103435,0.0,5.78817e-05,0.011774781,0.002595571
6.679,-0.181963667,-0.402090468,9.669318271,1.479118404,0.0,-0.004203497,-0.015922692,0.0004673
6.73,-0.181963667,-0.306354631,9.659744453,1.464758116,0.0,-0.004203497,-0.027640602,-6.53325e-05
6.779,-0.181963667,-0.287207472,9.640597987,1.555707189,0.0,-0.005801393,-0.005802679,0.002065196
6.831,-0.153263241,-0.335075353,9.669318271,1.536559993,0.0,-0.003138232,0.01070892,0.002597829
6.883,-0.155496418,-0.359009349,9.654958129,1.541346756,0.0,0.003785987,5.62753e-05,0.0004673
6.93,-0.155496418,-0.34943575,9.67889092,1.483905312,0.0,0.001655458,-0.002074254,-0.000597965
6.98,-0.155496418,-0.335075353,9.654958129,1.507839271,0.0,0.002720722,-0.010596369,-0.00432639
7.031,-0.123487502,-0.359009349,9.650170636,1.479118404,0.0,0.003253355,0.01550261,-6.53325e-05
7.08,-0.123487502,-0.335075353,9.659744453,1.459971207,0.0,0.002720722,0.002719436,-0.000597965
7.13,-0.15053381,-0.368582947,9.674105179,1.479118404,0.0,0.001122826,0.018165771,0.001532564
7.187,-0.15053381,-0.339862152,9.674105179,1.450397682,0.0,5.75614e-05,0.006447862,0.000999932
7.232,-0.165917903,-0.392516869,9.659744453,1.493478838,0.0,-0.003672266,5.36646e-05,0.000477177
7.282,-0.165917903,-0.378156509,9.674105179,1.440824157,0.0,-0.001009105,-0.002609496,0.002607706
7.33,-0.153015107,-0.387730107,9.659744453,1.53177323,0.0,-0.001009105,-0.010066348,-5.54552e-05
7.3790000000000004,-0.217528924,-0.33028859,9.669318271,1.488692075,0.0,-0.001541737,0.002716826,0.00367297
7.444,-0.217528924,-0.335075353,9.635810494,1.574854386,0.0,-0.001009105,-0.003674761,0.002075074
7.479,-0.217528924,-0.34943575,9.669318271,1.479118404,0.0,0.001121424,0.002184194,0.001542441
7.53,-0.240687624,-0.325501791,9.664530778,1.483905312,0.0,0.001121424,-0.006337922,0.000477177
7.578,-0.242672652,-0.335075353,9.688465905,1.479118404,0.0,0.001121424,-0.015925301,-0.002185984
7.631,-0.242672652,-0.272847111,9.659744453,1.479118404,0.0,5.616e-05,0.001651561,-0.000588087
7.681,-0.242672652,-0.306354631,9.664530778,1.517412797,0.0,5.616e-05,0.009641045,-0.001653352
7.732,-0.184444964,-0.416450792,9.669318271,1.469544879,0.0,-0.001541737,0.010173677,0.000477177
7.779,-0.234897956,-0.354222549,9.659744453,1.560493952,0.0,-0.000476472,-0.012196877,-0.001653352
7.831,-0.234897956,-0.344648951,9.664530778,1.488692075,0.0,-0.000476472,-0.028708475,-0.003251249
7.881,-0.285019845,-0.344648951,9.659744453,1.570067477,0.0,0.001121424,0.016565263,0.002607706
7.93,-0.285019845,-0.359009349,9.683677828,1.503052363,0.0,5.616e-05,0.024554748,0.004205603
7.98,-0.261861265,-0.397303668,9.664530778,1.498265454,0.0,-0.001009105,-0.008468452,0.002075074
8.03,-0.261861265,-0.296781052,9.674105179,1.431250632,0.0,-0.000476472,-0.027643211,-5.54552e-05
8.08,-0.238619879,-0.320714992,9.669318271,1.503052363,0.0,-0.002074369,-0.011664244,0.001009809
8.130999999999998,-0.238619879,-0.31592823,9.67889092,1.474331641,0.0,-0.001541737,0.019228425,0.00367297
8.178999999999998,-0.164925382,-0.397303668,9.659744453,1.541346756,0.0,-0.002607001,-0.007403186,-0.00112072
8.229999999999999,-0.164925382,-0.301567851,9.659744453,1.517412797,0.0,-0.001543218,-0.023917545,-0.002175543
8.28,-0.12902911,-0.306354631,9.650170636,1.603574961,0.0,-0.001543218,0.001648801,0.000487619
8.33,-0.12902911,-0.31592823,9.659744453,1.507839271,0.0,0.003783104,0.022421459,-4.50136e-05
8.379,-0.164925382,-0.411664029,9.669318271,1.474331641,0.0,0.001119943,0.026149884,0.001552883
8.431,-0.164925382,-0.397303668,9.664530778,1.526986322,0.0,0.003783104,-0.003144889,0.001020251
8.479999999999999,-0.127044052,-0.335075353,9.67889092,1.512626034,0.0,0.000587311,-0.005275418,-0.001110278
8.530999999999999,-0.127044052,-0.306354631,9.67889092,1.459971207,0.0,0.002185207,0.013899343,0.001020251
8.58,-0.177497327,-0.373369709,9.674105179,1.436037394,0.0,5.46785e-05,0.019758297,-4.50136e-05
8.630999999999998,-0.177497327,-0.426024427,9.67889092,1.488692075,0.0,-0.001543218,0.010703549,0.000487619
8.681999999999999,-0.213393435,-0.34943575,9.659744453,1.507839271,0.0,-0.004739012,-0.023917545,-0.000577646
8.731,-0.213393435,-0.34943575,9.659744453,1.546133518,0.0,-0.001544059,-0.001015926,0.003156706
8.780999999999999,-0.237379238,-0.344648951,9.669318271,1.512626034,0.0,-0.001011427,0.004843028,0.003156706
8.831,-0.237379238,-0.34943575,9.669318271,1.517412797,0.0,-0.001544059,0.006973557,0.00155881
8.879,-0.27344057,-0.34943575,9.664530778,1.517412797,0.0,0.002184367,0.003245132,0.003156706
8.93,-0.27344057,-0.31592823,9.669318271,1.512626034,0.0,5.38376e-05,-0.00421172,0.00155881
8.979999999999999,-0.234070852,-0.282420672,9.664530778,1.483905312,0.0,0.00058647,0.008571453,0.000493545
9.032,-0.234070852,-0.335075353,9.674105179,1.464758116,0.0,-0.002076691,0.001114603,-0.002169616
9.08,-0.181963667,-0.33028859,9.683677828,1.503052363,0.0,-0.001544059,-0.001548558,-0.002169616
9.129999999999999,-0.181963667,-0.344648951,9.654958129,1.560493952,0.0,-0.001011427,-0.006342249,-0.003767513
9.181,-0.181136563,-0.368582947,9.669318271,1.493478838,0.0,-0.000478795,-0.001015926,-0.002169616
9.229999999999999,-0.181136563,-0.382943308,9.669318271,1.555707189,0.0,0.00111746,0.017090511,0.000505115
9.28,-0.172038451,-0.373369709,9.650170636,1.541346756,0.0,0.001650093,-0.01433479,-0.002158046
9.331,-0.193543062,-0.359009349,9.669318271,1.526986322,0.0,0.002182725,0.018155776,0.004233541
9.379999999999999,-0.193543062,-0.34943575,9.683677828,1.455184591,0.0,0.001650093,-0.013269526,-0.000560149
9.431,-0.193543062,-0.392516869,9.67889092,1.455184591,0.0,-0.002078333,0.012296821,0.002635644
9.479,-0.162113234,-0.320714992,9.669318271,1.517412797,0.0,5.21959e-05,0.006970499,0.002103012
9.533,-0.199332759,-0.368582947,9.650170636,1.541346756,0.0,-0.004208862,0.007503131,0.002103012
9.58,-0.199332759,-0.258486732,9.674105179,1.517412797,0.0,-0.002078333,0.003774706,0.002635644
9.629,-0.199332759,-0.373369709,9.683677828,1.503052363,0.0,-0.00367623,-0.010073733,-0.00322331
9.678999999999998,-0.159383804,-0.387730107,9.640597987,1.594001436,0.0,-0.000480436,0.018155776,0.003168277
9.729,-0.159383804,-0.291994252,9.669318271,1.498265454,0.0,0.00111746,0.009101028,0.00157038
9.78,-0.181963667,-0.344648951,9.693251646,1.479118404,0.0,0.002714957,-0.002084995,-2.46947e-05
9.828,-0.181963667,-0.296781052,9.67889092,1.474331641,0.0,0.003780221,0.014959236,0.001573202
9.880999999999998,-0.20628038,-0.382943308,9.674105179,1.503052363,0.0,0.002182324,-0.002617627,-0.002155224
9.931,-0.20628038,-0.378156509,9.683677828,1.416890198,0.0,0.002182324,0.005904489,0.001573202
9.979999999999999,-0.229108274,-0.34943575,9.664530778,1.512626034,0.0,-0.002611366,-0.006346053,-0.002687856
10.03,-0.229108274,-0.339862152,9.683677828,1.464758116,0.0,-0.001013469,-0.009009214,-0.001089959
10.08,-0.183121607,-0.378156509,9.664530778,1.541346756,0.0,-0.002078733,-0.009541846,-0.000557327
10.129999999999999,-0.136142209,-0.325501791,9.664530778,1.503052363,0.0,-0.003143998,-0.019661857,-0.001089959
10.18,-0.136142209,-0.382943308,9.664530778,1.560493952,0.0,-0.000480837,0.002708695,0.002638466
10.229999999999999,-0.136142209,-0.325501791,9.659744453,1.507839271,0.0,0.00111706,0.012296075,0.003171099
10.282,-0.145240352,-0.339862152,9.659744453,1.503052363,0.0,0.000583026,0.003771349,0.000517815
10.33,-0.119434692,-0.272847111,9.669318271,1.459971207,0.0,5.03941e-05,-0.00794656,0.000517815
10.379,-0.119434692,-0.325501791,9.669318271,1.483905312,0.0,0.000583026,-0.016468676,-0.002677978
10.43,-0.119434692,-0.335075353,9.669318271,1.469544879,0.0,-0.00101487,0.016554521,0.002115712
10.484,-0.110419236,-0.306354631,9.669318271,1.498265454,0.0,0.000583026,0.015489258,-1.48175e-05
10.533999999999999,-0.105870157,-0.378156509,9.67889092,1.483905312,0.0,-0.00101487,0.00164082,-1.48175e-05
10.598999999999998,-0.105870157,-0.378156509,9.664530778,1.574854386,0.0,-0.001547503,-0.018599205,-0.002145346
10.633999999999999,-0.115464583,-0.382943308,9.669318271,1.512626034,0.0,0.001648291,0.005369246,0.001050447
10.681,-0.115464583,-0.335075353,9.669318271,1.512626034,0.0,0.001115659,0.015489258,0.001583079
10.729999999999999,-0.164594546,-0.397303668,9.659744453,1.507839271,0.0,0.001648291,0.00164082,0.002115712
10.780999999999999,-0.164594546,-0.378156509,9.693251646,1.469544879,0.0,0.001115098,-0.003686547,0.002652294
10.831,-0.215047628,-0.311141431,9.669318271,1.483905312,0.0,-0.000482799,0.001639776,0.002652294
10.880999999999998,-0.215047628,-0.33028859,9.67889092,1.464758116,0.0,-0.002080695,-0.002621282,0.000521766
10.928999999999998,-0.191061765,-0.373369709,9.669318271,1.512626034,0.0,-0.00314596,0.003770305,0.00158703
10.979,-0.191061765,-0.306354631,9.67889092,1.498265454,0.0,-0.001548063,-0.000490753,0.00158703
11.04,-0.184444964,-0.344648951,9.654958129,1.546133518,0.0,-0.001015431,0.013357685,0.001054398
11.078999999999999,-0.184444964,-0.296781052,9.650170636,1.522199559,0.0,4.98336e-05,0.008563994,0.000521766
11.130999999999998,-0.153015107,-0.435597988,9.669318271,1.541346756,0.0,0.00164773,-0.007414971,-0.002141396
11.181,-0.153015107,-0.339862152,9.669318271,1.517412797,0.0,0.003778259,0.008563994,0.001054398
11.229,-0.153015107,-0.268060293,9.674105179,1.507839271,0.0,0.00164773,-0.005284443,-1.08666e-05
11.282,-0.106366418,-0.363796148,9.688465905,1.440824157,0.0,0.002711553,0.027203439,0.002129822
11.328999999999999,-0.106366418,-0.354222549,9.683677828,1.426463723,0.0,0.001113657,0.029333966,0.002662454
11.379999999999999,-0.015963303,-0.392516869,9.683677828,1.474331641,0.0,-0.002082137,0.006963413,0.002662454
11.43,-0.055416543,-0.354222549,9.669318271,1.488692075,0.0,-0.002082137,0.000571826,0.000531925
11.479999999999999,-0.055416543,-0.392516869,9.669318271,1.522199559,0.0,-0.002082137,-0.039908223,-0.004794397
11.532,-0.009925373,-0.34943575,9.654958129,1.560493952,0.0,-0.002614769,-0.000493439,0.002662454
11.58,-0.009925373,-0.325501791,9.650170636,1.541346756,0.0,-0.001549505,-0.001558703,0.002662454
11.636,0.022332123,-0.359009349,9.674105179,1.517412797,0.0,0.002711553,0.016550792,0.004792983
11.68,0.022332123,-0.301567851,9.664530778,1.507839271,0.0,0.001646289,-0.009548186,0.002662454
11.731,0.015715193,-0.339862152,9.664530778,1.507839271,0.0,0.000581024,-0.023396624,0.000531925
11.78,0.015715193,-0.31592823,9.674105179,1.436037394,0.0,4.64301e-05,-0.015943429,1.31211e-05
11.828999999999999,-0.014060942,-0.134030147,9.659744453,1.555707189,0.0,0.001644327,-0.003160255,-0.00265004
11.882,-0.014060942,-0.392516869,9.688465905,1.474331641,0.0,0.001111695,0.030395575,-0.000519511
11.928999999999998,0.018196542,-0.354222549,9.674105179,1.498265454,0.0,0.001111695,-0.015410795,-0.005845834
11.979999999999999,0.018196542,-0.354222549,9.654958129,1.584427911,0.0,-0.001018834,-0.01168237,-0.000519511
12.049,0.063688032,-0.33028859,9.654958129,1.517412797,0.0,0.001644327,0.014416609,0.000545753
12.081,0.063688032,-0.33028859,9.654958129,1.517412797,0.0,0.001644327,0.014416609,0.000545753
12.133,0.076094836,-0.435597988,9.683677828,1.498265454,0.0,0.002709591,0.037319794,0.005872075
12.18,0.076094836,-0.392516869,9.683677828,1.493478838,0.0,-0.000486202,-0.021802384,-0.000519511
12.232,0.095118634,-0.210618814,9.688465905,1.469544879,0.0,-0.001551467,0.010688183,0.003208914
12.279,0.095118634,-0.354222549,9.669318271,1.464758116,0.0,-0.001552187,0.022937384,0.003213994
12.331999999999999,0.161702201,-0.378156509,9.674105179,1.455184591,0.0,-0.002617452,-0.005292126,0.002681362
12.379,0.161702201,-0.402090468,9.669318271,1.560493952,0.0,-0.005280613,-0.023934253,-0.001047064
12.427999999999999,0.181387857,-0.272847111,9.664530778,1.603574961,0.0,-0.003150084,-0.017010035,0.00214873
12.481,0.181387857,-0.335075353,9.645383728,1.603574961,0.0,-0.000486923,0.034122661,0.004279259
12.53,0.191478834,-0.344648951,9.669318271,1.517412797,0.0,0.00270887,0.000566828,0.00214873
12.58,0.191478834,-0.378156509,9.674105179,1.474331641,0.0,0.001643606,-0.013814242,-0.001047064
12.632,0.198095873,-0.234552773,9.683677828,1.450397682,0.0,0.003774135,0.029861601,0.002681362
12.68,0.198095873,-0.306354631,9.688465905,1.474331641,0.0,0.002176238,0.02453528,1.82008e-05
12.734,0.175349802,-0.421237627,9.659744453,1.517412797,0.0,0.001110974,0.02453528,0.001083465
12.783,0.175349802,-0.373369709,9.683677828,1.498265454,0.0,-0.002086621,-0.034057621,-0.006360687
12.83,0.144746095,-0.258486732,9.659744453,1.536559993,0.0,-0.002086621,-0.004762851,3.09001e-05
12.880999999999998,0.144746095,-0.382943308,9.693251646,1.459971207,0.0,-0.002086621,0.008552955,-0.001566997
12.931,0.16377002,-0.387730107,9.650170636,1.589214674,0.0,-0.001021357,0.025064554,0.001628797
12.979,0.175846085,-0.402090468,9.669318271,1.526986322,0.0,-0.001553989,-0.00955654,0.002161429
13.03,0.175846085,-0.368582947,9.669318271,1.546133518,0.0,0.001109172,-0.034057621,-0.001034364
13.081,0.175846085,-0.229765974,9.67889092,1.483905312,0.0,0.001109172,-0.004762851,0.004291958
13.136,0.23697108,-0.33028859,9.659744453,1.546133518,0.0,0.00057654,0.016542438,0.003226693
13.18,0.189410999,-0.287207472,9.683677828,1.459971207,0.0,-0.002086621,0.019738233,0.002694061
13.226999999999999,0.189410999,-0.359009349,9.688465905,1.503052363,0.0,-0.001553989,-0.004230218,-0.001566997
13.279,0.189410999,-0.272847111,9.659744453,1.474331641,0.0,-0.003153848,-0.036191806,-0.005281594
13.331,0.19520092,-0.258486732,9.659744453,1.594001436,0.0,-0.003153848,0.027724059,4.47282e-05
13.379999999999999,0.19520092,-0.335075353,9.659744453,1.498265454,0.0,0.000574578,0.023463001,-0.001020536
13.431,0.177004069,-0.478679107,9.654958129,1.550920281,0.0,0.000574578,-0.00103808,-0.001553169
13.482,0.177004069,-0.373369709,9.664530778,1.555707189,0.0,0.002705107,-0.025539164,-0.002618433
13.529,0.10587123,-0.378156509,9.654958129,1.550920281,0.0,0.002172475,0.024528267,0.003773154
13.58,0.119932331,-0.397303668,9.688465905,1.392956239,0.0,0.003237739,0.024528267,0.004305786
13.629999999999999,0.119932331,-0.378156509,9.674105179,1.44561092,0.0,-0.002088583,0.015473519,0.003773154
13.68,0.119932331,-0.387730107,9.683677828,1.498265454,0.0,-0.001023319,-0.015419149,0.002175257
13.729999999999999,0.064515151,-0.325501791,9.659744453,1.584427911,0.0,-0.004751745,-0.008494931,0.001642625
13.783999999999999,0.064515151,-0.33028859,9.669318271,1.550920281,0.0,-0.004219112,-0.003168609,0.001109993
13.832999999999998,0.021918565,-0.373369709,9.650170636,1.589214674,0.0,-0.002622176,-0.002637767,0.001116766
13.882,0.047641922,-0.359009349,9.669318271,1.570067477,0.0,0.001106249,-0.003703031,0.001116766
13.943999999999999,0.047641922,-0.34943575,9.654958129,1.589214674,0.0,0.002704146,2.53942e-05,-0.001013763
13.981,-0.002894901,-0.291994252,9.669318271,1.546133518,0.0,0.005367307,0.011743303,0.000584133
14.03,-0.002894901,-0.33028859,9.683677828,1.440824157,0.0,0.00376941,0.015471729,0.00218203
14.081999999999999,-0.002894901,-0.378156509,9.67889092,1.503052363,0.0,0.002704146,-0.002637767,-0.002079028
14.133,-0.03109947,-0.306354631,9.67889092,1.483905312,0.0,-0.00102428,0.012275935,-0.001546395
14.181999999999999,-0.037220098,-0.397303668,9.683677828,1.517412797,0.0,-0.000491648,0.011210671,-0.002079028
14.229999999999999,-0.037220098,-0.368582947,9.664530778,1.450397682,0.0,-0.001556912,0.007482246,-0.001013763
14.280999999999999,-0.06534186,-0.397303668,9.659744453,1.565280715,0.0,-0.002622176,0.005351717,5.15011e-05
14.328999999999999,-0.06534186,-0.382943308,9.669318271,1.541346756,0.0,-0.001025761,-0.020217391,-0.001535954
14.380999999999998,-0.115464583,-0.363796148,9.654958129,1.603574961,0.0,3.95031e-05,0.011207911,0.005388265
14.43,-0.115464583,-0.359009349,9.664530778,1.483905312,0.0,0.0016374,0.005348957,0.004323001
14.479999999999999,-0.176504806,-0.363796148,9.669318271,1.526986322,0.0,3.95031e-05,0.002153163,0.003790368
14.53,-0.176504806,-0.301567851,9.664530778,1.493478838,0.0,0.001104768,-0.000509998,0.004323001
14.578999999999999,-0.15797773,-0.320714992,9.669318271,1.512626034,0.0,-0.001025761,-0.002107895,-0.001003322
14.630999999999998,-0.15797773,-0.244126334,9.664530778,1.479118404,0.0,-0.001025761,0.026654245,0.001127207
14.681,-0.186926261,-0.378156509,13.91998799,1.751965624,0.0,-0.00315629,0.01813213,0.000594575
14.745,-0.186926261,4.116640657,64.6456151,1.60836187,0.0,0.107098579,-0.452182114,0.062912546
14.787999999999998,-0.201235086,-3.116200995,74.85104961,14.52791078,0.0,-0.007417348,-0.021815289,-0.02923283
14.831,-0.201235086,3.202363306,79.31712379,7.400379074,0.0,0.066617608,0.758489192,0.160923362
14.880999999999998,-0.058724985,-1.766325912,78.25924911,9.382110763,0.0,0.01868071,-0.559242904,-0.083022192
14.93,-0.058724985,3.379474545,77.34018135,8.338590384,0.0,-0.094769955,-0.020219106,-0.028161073
14.985999999999999,0.237963632,0.40687723,76.68439531,5.514383221,0.0,-0.045235157,0.252488583,0.07250642
15.034999999999998,0.237963632,-0.617496099,72.38106318,9.190639675,0.0,-0.004222475,0.817078769,0.082093798
15.087,1.610516906,-0.296781052,75.44940443,8.994379926,0.0,0.066617608,0.723868132,0.033624262
15.130999999999998,1.610516906,-0.31592823,74.5111867,8.975232875,0.0,0.04744285,0.73505342,-0.126698032
15.183,2.861382723,-0.325501791,75.28186789,9.128409863,0.0,0.01814808,0.792577684,-0.210321292
15.235999999999999,2.861382723,-0.095735827,74.2191987,9.128409863,0.0,-0.010614063,0.672202766,-0.314184606
15.283,4.417728901,0.019147164,73.9128459,9.219359374,0.0,-0.037245672,0.548632085,-0.415917337
15.331999999999999,4.417728901,0.382943308,74.3197197,9.137984264,0.0,-0.095303185,0.257813811,-0.52776587
15.382,6.163826942,0.694084738,72.93633289,8.922578633,0.0,-0.13045691,0.00960718,-0.544810116
15.431,6.163826942,0.550480948,73.34799652,8.989594185,0.0,-0.147501141,-0.077211872,-0.532559574
15.479999999999999,8.495447159,1.316367453,73.90326624,8.999167418,0.0,-0.197568581,-0.008502317,-0.423369974
15.530999999999999,8.495447159,1.622722158,72.83581657,8.668878317,0.0,-0.259353936,0.007476651,-0.131487489
15.58,11.05073166,1.905142757,72.8597517,8.893857765,0.0,-0.252962351,-0.128877208,0.014986369
15.633999999999999,11.05073166,1.790259871,73.10387411,8.731107545,0.0,-0.262017101,-0.20664151,0.197679222
15.678999999999998,14.15409374,0.871195976,73.17088966,8.39124521,0.0,-0.246570736,-0.460707068,0.335630953
15.731,14.15409374,0.660577181,73.77880545,8.228493237,0.0,-0.177861184,-0.584810376,0.355338335
15.783999999999999,17.59516335,-0.574414907,73.2857708,7.596637654,0.0,-0.100629508,-0.859648645,0.256801397
15.831,17.59516335,-0.631856459,73.31927624,7.898205304,0.0,-0.16081804,-0.989612937,0.1705226
15.879999999999999,21.63286972,-0.574414907,73.89368658,6.97435472,0.0,-0.27906239,-2.066595078,-0.328021169
15.93,21.63286972,-0.516973463,73.90326624,6.404726613,0.0,-0.265213966,-2.068725586,-0.431351811
15.979,26.09916496,0.067015073,74.24791899,5.882965839,0.0,-0.162948564,-1.58935678,-0.435612887
16.03,26.09916496,0.828114894,73.93677635,6.615345335,0.0,-0.05748738,-1.271908045,-0.361044377
16.080000000000002,31.26131058,1.177550535,73.88891077,6.170173931,0.0,-0.045769472,-1.344345927,-0.283280075
16.131,31.26131058,1.742391953,74.33407984,6.002635634,0.0,0.042114846,-1.454068184,-0.190602049
16.182000000000002,37.00172806,0.44517155,73.88891077,7.007862496,0.0,0.225340322,-1.77311492,0.02990769
16.23,37.00172806,-0.215405595,73.42458706,8.482192969,0.0,0.167816043,-1.610662103,0.047484554
16.281000000000002,42.98101044,-0.464318746,73.07515383,8.587502623,0.0,-0.04470421,-1.579769373,-0.029214486
16.337,42.98101044,-0.507399829,73.56341267,7.989154232,0.0,-0.239116728,-1.559000015,-0.112825327
16.382,49.38057327,-0.64621682,73.62085323,7.27592237,0.0,-0.340316862,-1.387492418,-0.184730679
16.434,49.38057327,-0.780246976,73.43895187,6.438233805,0.0,-0.342980027,-1.265519619,-0.229471773
16.608,56.12750626,0.153177316,74.14260817,5.222389388,0.0,-0.10009972,-0.973637223,-0.315225571
16.678,71.23749542,1.091388443,73.45330734,7.333364105,0.0,0.104431055,-0.501192451,0.02352852
16.731,71.23749542,-0.378156509,72.98899298,7.472180951,0.0,-0.081990227,-0.431417584,0.098629661
16.781000000000002,79.33618927,-0.368582947,74.23355885,7.266349137,0.0,-0.16880928,-0.423428118,0.016604301
16.830000000000002,87.77675629,-0.023933957,73.01292343,5.878179514,0.0,-0.142712012,-0.246597439,-0.096301593
16.881,87.77675629,0.59356214,73.29056063,5.681920934,0.0,-0.044175059,-0.104917251,-0.072865777
16.937,87.77675629,0.540907349,73.21875525,6.419087338,0.0,0.034121878,0.041023977,0.019279597
16.98,96.8442688,0.205832015,73.15652952,6.634491801,0.0,0.020806074,0.09908089,0.073608086
17.028000000000002,106.2205887,-1.297220403,73.05600386,6.687147212,0.0,0.033589248,0.140093565,-0.012678335
17.083000000000002,106.2205887,-0.512186628,72.37149286,6.725441897,0.0,0.026132397,0.181106254,-0.138379544
17.131,115.8167114,0.708445099,71.83058329,6.634491801,0.0,-0.004760273,0.311601132,-0.127726898
17.179000000000002,115.8167114,1.033946927,71.79708252,6.328137827,0.0,-0.028196091,0.51559931,0.026203817
17.241,115.8167114,0.454745148,72.70657063,6.447807622,0.0,-0.014880286,0.65941,0.158296615
17.282,126.0705872,-0.679724304,71.30882835,6.280269909,0.0,-0.036718208,0.692433238,0.127403945
17.331,136.3095245,0.411664029,70.95460529,6.160600114,0.0,3.20556e-05,0.853285611,0.090661913
17.383000000000003,136.3095245,0.253699914,70.45199099,6.682360303,0.0,-0.004761634,1.063142776,0.207308367
17.43,136.3095245,-0.224979175,70.42326603,6.648853111,0.0,-0.029795349,1.110014439,0.224352598
17.479000000000003,147.0335999,0.028720747,70.48071594,5.748935902,0.0,-0.06122065,1.472204328,0.134870395
17.531000000000002,147.0335999,-0.033507539,70.08820229,5.729788852,0.0,-0.036186937,1.546240211,0.160969362
17.580000000000002,158.1047516,-0.84726209,69.36060619,6.658426929,0.0,0.087916367,1.778467774,0.256843179
17.632,169.452774,-0.617496099,68.75746155,7.156252575,0.0,0.002162585,1.808827877,0.187068343
17.686,169.452774,0.095735827,68.90106764,5.466515303,0.0,-0.089450166,1.916952252,0.152447253
17.73,181.0210114,0.459531911,68.03465996,5.31812464,0.0,0.01547839,2.079937696,0.241929471
17.777,181.0210114,0.325501791,67.24963264,5.490449262,0.0,0.051697381,2.141722918,0.294127434
17.831,192.9520569,-0.813754533,67.2927084,6.510035682,0.0,0.009085483,2.201375246,0.271766156
17.880000000000003,192.9520569,-0.210618814,66.64649734,5.940408158,0.0,-0.035655625,2.22800684,0.221166119
17.93,205.1603851,-0.143603736,65.79444513,5.093145776,0.0,-0.009556646,2.372882843,0.2472651
17.982,205.1603851,-0.196258435,64.26266708,5.940408158,0.0,0.043706577,2.483670235,0.28561461
18.032,217.5563812,-0.205832015,63.70740204,5.916473615,0.0,0.023999184,2.5188241,0.28561461
18.079,217.5563812,-0.368582947,63.27180328,5.222389388,0.0,-0.015415601,2.597653627,0.302126199
18.130000000000003,230.2246246,-0.33028859,62.34795504,5.222389388,0.0,0.035184462,2.677548409,0.287745148
18.18,230.2246246,-0.210618814,61.70173931,5.370779467,0.0,0.040510781,2.73933363,0.313844115
18.229000000000003,243.1471252,-0.426024427,60.3997282,5.265469813,0.0,0.018672861,2.871426582,0.355389416
18.28,243.1471252,-0.895129935,60.26091194,5.246322763,0.0,0.00375916,2.876752853,0.354856789
18.351000000000003,243.1471252,-0.59356214,59.86360846,4.657547897,0.0,0.01814023,2.898058176,0.290408313
18.380000000000003,256.2425537,-0.191471636,57.3840517,4.820298994,0.0,0.044771042,3.054117918,0.401734084
18.433,269.566803,-0.890343173,55.78526278,4.442142266,0.0,0.045836303,3.103120089,0.372439325
18.482,269.566803,-0.162750896,54.8997098,4.652760696,0.0,0.041042615,3.139871836,0.33515507
18.531000000000002,283.1792908,0.239339554,53.84661093,4.241096777,0.0,0.042640511,3.230951786,0.423039377
18.587,283.1792908,-1.25892601,51.16122236,3.949102652,0.0,0.009084682,3.252257109,0.40972358
18.632,297.0392456,-0.651003583,50.86443987,3.791138756,0.0,0.071935289,3.310314178,0.294675022
18.68,297.0392456,0.110096188,49.41883202,4.068772155,0.0,0.062347904,3.390741587,0.36231932
18.731,311.1232605,-0.440384751,48.56678448,3.704976445,0.0,0.025063647,3.437613249,0.449138373
18.78,311.1232605,-0.622282861,46.97756586,3.154495388,0.0,0.081522666,3.463712215,0.402799368
18.835,325.4309998,-0.172324476,45.19688025,3.62838766,0.0,0.096969001,3.55212903,0.457127839
18.886000000000003,325.4309998,-1.273286444,43.96667452,3.896448117,0.0,0.042638831,3.52123332,0.43370387
18.931,340.2940063,0.76109978,42.74125862,2.661456066,0.0,0.119870506,3.653858662,0.4081375
18.98,340.2940063,-2.106188247,40.88398247,3.523078007,0.0,0.027725128,3.761983156,0.607874632
19.032,355.0129089,-0.387730107,40.3047823,2.503491879,0.0,0.022931438,3.626161814,0.266457349
19.081,355.0129089,-1.751965624,38.47144127,2.819419962,0.0,-0.018613875,3.799799919,0.58816725
19.130000000000003,370.0973816,-0.579201706,37.84437084,1.282859969,0.0,0.055422004,3.68155551,0.375114322
19.183,370.0973816,0.119669777,36.51364179,2.417329568,0.0,0.112413652,3.740677834,0.422518581
19.239,385.6922302,-0.320714992,34.64679298,2.283299339,0.0,0.049030416,3.738014698,0.548752427
19.284000000000002,401.9162292,0.363796148,32.88046751,1.948224059,0.0,-0.020744404,3.785418987,0.287229985
19.330000000000002,401.9162292,0.617496099,32.0523551,1.670590076,0.0,0.016007219,3.944675922,0.560470343
19.385,401.9162292,-2.077467233,30.51100674,0.713231862,0.0,0.033050049,3.896736383,0.571132839
19.447000000000003,418.5270996,-0.708445099,31.63590164,2.963023716,0.0,0.038376372,3.8663764,0.397494763
19.483,418.5270996,-0.469105545,28.32823014,0.440384751,0.0,-0.03086582,4.056526184,0.52000016
19.53,435.4888611,-1.120109092,26.91612539,1.29243364,0.0,0.152359664,3.963848114,0.460345358
19.583000000000002,453.0772095,-0.579201706,25.75293522,0.062228283,0.0,-0.039387934,4.061852455,0.505619049
19.630000000000003,453.0772095,-1.01958642,24.9487556,0.909490296,0.0,0.097498551,4.036285877,0.503488541
19.68,453.0772095,-0.76109978,23.21115041,1.378595805,0.0,0.054355338,4.003262997,0.452355891
19.73,489.6548462,-0.770673378,22.78512664,0.033507539,0.0,-0.030333187,4.093810558,0.535446465
19.78,489.6548462,-0.694084738,21.98094468,0.268060293,0.0,0.136380702,4.072504997,0.486976981
19.831,508.8691406,-0.397303668,19.90347657,0.201045234,0.0,-0.053769004,4.037883759,0.437442183
19.884,508.8691406,-0.746739419,20.94699812,-0.875982812,0.0,0.076191097,4.030955791,0.493916422
19.931,528.5501709,-0.995652607,18.95090687,1.096175133,0.0,0.118801676,3.986214638,0.479535371
19.98,528.5501709,-0.521760263,17.81164949,-0.588775267,0.0,0.013340495,4.031488419,0.417750031
20.03,548.5184326,-0.895129935,16.74898148,-1.431250632,0.0,0.008014171,4.018705368,0.413488954
20.080000000000002,568.8625488,-0.813754533,15.44218755,0.253699914,0.0,0.161412254,4.050663471,0.454501629
20.132,568.8625488,-0.756313017,14.46568155,1.234992197,0.0,0.036243681,4.133221149,0.470480621
20.18,568.8625488,-1.16797701,14.20240917,-2.939089757,0.0,-0.101175435,4.136949539,0.445979536
20.232,589.366333,-2.714110601,11.71806493,0.957358287,0.0,0.003753114,4.052261353,0.507232249
20.283,610.1810913,0.588775267,12.1057946,-2.125335151,0.0,-0.035661671,4.135884285,0.370345742
20.330000000000002,610.1810913,-1.01958642,10.56444857,-0.014360372,0.0,0.176858589,4.173701286,0.613758683
20.384,631.7044678,-1.483905312,9.128409863,-0.966931812,0.0,0.038905676,4.055987358,0.447585613
20.431,631.7044678,-0.440384751,8.759827828,-0.698871501,0.0,0.063939393,4.032018661,0.472086698
20.479000000000003,631.7044678,-1.120109092,8.21413368,-0.72280546,0.0,0.085244685,4.112446308,0.614832103
20.559,653.7526855,-1.263712919,7.481754184,-0.627069624,0.0,0.051156219,4.030953407,0.489130944
20.580000000000002,676.2598267,-1.139256215,6.423873663,-0.92385073,0.0,0.045297265,4.020833492,0.495522529
20.630000000000003,676.2598267,-1.364235517,5.519170129,-0.785033739,0.0,0.020263551,4.016039848,0.508838296
20.682000000000002,699.0535889,-0.890343173,4.767644167,-1.311580837,0.0,0.078853101,3.979288101,0.462499321
20.736,699.0535889,-1.16797701,4.10706684,-0.832901584,0.0,0.082581528,4.01390934,0.485935152
20.786,722.6052856,-0.84726209,3.188002872,-1.421676961,0.0,0.0607436,4.00645256,0.485935152
20.830000000000002,722.6052856,-1.273286444,2.149269256,-0.737165894,0.0,0.059678335,4.00645256,0.494457245
20.882,746.3212891,-1.282859969,1.570067477,-1.22063169,0.0,0.058611389,3.961708307,0.513643861
20.931,746.3212891,-1.005226205,0.995652607,-1.249352485,0.0,0.030914515,3.946261883,0.467837512
20.982,770.4555054,-0.34943575,0.751526181,-1.953010675,0.0,0.05328507,3.939870358,0.506187022
21.03,770.4555054,-1.426463723,-0.095735827,-1.086601534,0.0,0.058611389,3.939870358,0.524296463
21.081,794.8590698,-0.50261303,-1.249352485,-1.062667575,0.0,0.012805019,3.925489187,0.49926281
21.131,794.8590698,-0.603135665,-1.354661992,-2.513065112,0.0,0.029316617,3.931348324,0.53388387
21.183,819.4854126,-1.833341026,-2.163629544,-1.115322256,0.0,0.141702011,3.866899729,0.520568073
21.23,819.4854126,-0.909490296,-2.752404702,-1.16797701,0.0,-0.006369742,3.856247187,0.428422719
21.301000000000002,844.4659424,-1.421676961,-3.791138756,-1.689737272,0.0,0.058611389,3.781678677,0.490740687
21.332,844.4659424,-1.05788074,-4.054412013,-1.94343715,0.0,0.030914515,3.766764879,0.423629016
21.380000000000003,869.5358276,-1.148829813,-4.782004017,-1.474331641,0.0,0.031444784,3.772619486,0.447081476
21.429000000000002,869.5358276,-1.201484494,-4.95432893,-1.53177323,0.0,0.002682644,3.779011011,0.448679388
21.481,894.9997559,-1.124895854,-5.198454845,-1.905142757,0.0,0.062337454,3.704975128,0.472647816
21.53,894.9997559,-0.526547025,-5.906899798,-1.766325912,0.0,0.037836373,3.666625738,0.438559353
21.580000000000002,920.6280518,-1.972158018,-6.490888631,-1.785472962,0.0,0.013335289,3.640526772,0.496083647
21.627000000000002,920.6280518,-2.297659919,-6.591411376,-2.45562396,0.0,0.023455301,3.609634161,0.42098251
21.68,946.2641602,-0.215405595,-7.309430146,-1.440824157,0.0,0.129449114,3.586730957,0.336293966
21.735,946.2641602,-1.560493952,-8.104037118,-3.269378567,0.0,0.015465818,3.554772854,0.382632971
21.78,972.1880493,-0.402090468,-8.659305084,-2.379035321,0.0,0.119329102,3.480204344,0.354936093
21.830000000000002,972.1880493,-0.50261303,-9.133197355,-2.556146413,0.0,1.94829e-05,3.497781277,0.426308811
21.880000000000003,998.1323853,-0.68451114,-9.592728901,-3.188002872,0.0,0.067130588,3.422678947,0.392224312
21.931,998.1323853,-0.703658336,-9.970885921,-2.431689709,0.0,0.084174819,3.402438879,0.405540138
21.98,1023.925903,-0.794607337,-10.21501184,-2.900795364,0.0,0.03037896,3.381133556,0.400746435
22.03,1023.925903,-0.708445099,-10.66497073,-2.594440806,0.0,0.064467423,3.354501963,0.417790681
22.098000000000003,1049.677979,-0.746739419,-11.42128243,-3.164068913,0.0,0.031444222,3.308162928,0.378375888
22.132,1075.428589,-0.861622378,-12.00527127,-2.575293463,0.0,0.076185331,3.261824131,0.408203274
22.178,1075.428589,-0.34943575,-11.96697834,-3.374687636,0.0,-0.00051371,3.243714571,0.357603222
22.23,1075.428589,-0.186684855,-12.42650988,-2.828993487,0.0,0.072456911,3.237855673,0.406072766
22.282,1101.418579,-1.062667575,-13.2498383,-2.134908822,0.0,0.050086349,3.192581892,0.403942227
22.330000000000002,1101.418579,-0.96214505,-13.35036047,-2.302446681,0.0,0.023454741,3.184592247,0.383702219
22.383000000000003,1127.29895,-0.603135665,-13.72851748,-2.407755896,0.0,0.053282145,3.178733349,0.387963265
22.432000000000002,1127.29895,-0.986079009,-14.19762168,-2.249791855,0.0,0.033573072,3.154229164,0.401290923
22.482,1153.014526,-0.301567851,-15.67674081,-0.895129935,0.0,0.115065798,3.158490181,0.362408787
22.529,1153.014526,-1.479118404,-16.51442821,-0.990865698,0.0,-0.048984922,3.221340895,0.503023684
22.580000000000002,1178.732788,-3.508717865,-16.10276458,-4.265030736,0.0,-0.125683963,3.094041824,0.488642603
22.630000000000003,1178.732788,-2.613587856,-16.16020749,-3.489570814,0.0,0.152882695,2.92945838,0.284644485
22.682000000000002,1204.576294,-1.871635419,-16.96917577,-2.632734907,0.0,-0.059104938,2.956622601,0.378387749
22.745,1204.576294,-1.933863625,-16.8734376,-3.465636855,0.0,-0.0601702,2.932121515,0.362408787
22.78,1230.888062,-1.321154362,-17.28510239,-2.848140538,0.0,0.128914237,2.844237328,0.317667663
22.838,1230.888062,-1.321154362,-17.2228755,-2.35510107,0.0,0.034638334,2.839443684,0.325657159
22.881,1257.14502,-0.804180935,-16.9117317,-3.494357431,0.0,-0.03140806,2.830921412,0.30541712
22.931,1257.14502,-0.641429985,-17.1271385,-3.288525617,0.0,0.071921155,2.802689314,0.359223127
22.985,1282.96875,-1.546133518,-17.31861017,-2.321593586,0.0,0.092693813,2.781916618,0.347505212
23.032,1308.271484,-0.086162238,-17.20851536,-2.958236808,0.0,-0.001049465,2.707348108,0.283056706
23.080000000000002,1308.271484,-0.521760263,-17.13671114,-2.728471035,0.0,0.019190559,2.688705921,0.34963575
23.131,1308.271484,-1.067454484,-17.31861017,-2.656669158,0.0,0.029843204,2.662074327,0.31874308
23.181,1333.277344,-0.818541296,-17.20372553,-2.637521815,0.0,0.01226634,2.622659683,0.255892456
23.231,1357.937744,-0.617496099,-17.18458023,-2.565719938,0.0,0.033571631,2.564069986,0.326199919
23.279,1357.937744,-0.914277132,-17.15585995,-2.551359504,0.0,0.023451617,2.538503647,0.323536754
23.330000000000002,1382.116577,-0.392516869,-16.88301141,-2.685389733,0.0,0.050615862,2.428248882,0.251631409
23.384,1382.116577,-0.641429985,-16.83993099,-2.446050143,0.0,0.051681124,2.39575839,0.295839876
23.433,1405.958496,-0.832901584,-16.65324681,-2.393395463,0.0,0.011731466,2.36486125,0.270289361
23.481,1405.958496,-0.540907349,-16.50485673,-2.225858042,0.0,0.002676718,2.347284555,0.260701984
23.534000000000002,1429.380371,-1.038733616,-16.35646431,-2.733257651,0.0,-0.013834881,2.31213069,0.263897777
23.581,1429.380371,-0.92385073,-16.24158318,-2.733257651,0.0,0.044754665,2.257269621,0.220221922
23.629,1429.380371,-0.727592295,-16.251157,-2.27851243,0.0,0.071386278,2.229040146,0.20690611
23.683,1452.269775,-0.516973463,-15.96873465,-2.383821937,0.0,0.018123053,2.176842213,0.246320888
23.73,1474.733765,-0.866409214,-15.93522804,-2.422116476,0.0,0.040493604,2.129970551,0.248451427
23.779,1474.733765,-0.842475255,-15.78205047,-2.379035321,0.0,0.05807047,2.085762024,0.21968928
23.838,1474.733765,-0.622282861,-15.762904,-2.115761626,0.0,0.057537835,2.068717718,0.202112421
23.880000000000003,1496.716553,-0.368582947,-15.68152714,-2.192350265,0.0,0.021318845,2.033031464,0.24685353
23.938000000000002,1496.716553,-0.536120587,-15.5092031,-2.264152288,0.0,0.035699476,1.994681239,0.264433503
23.979000000000003,1518.288086,-0.751526181,-15.51398942,-1.747178715,0.0,0.047950018,1.892948508,0.18773447
24.031000000000002,1539.662598,-0.344648951,-16.5622973,-1.766325912,0.0,0.017057348,1.858327389,0.207974494
24.080000000000002,1539.662598,-0.727592295,-16.32774403,-1.646656117,0.0,0.011731026,1.820510507,0.238867164
24.131,1539.662598,-0.84726209,-16.14105868,-1.876422182,0.0,0.004806806,1.790683031,0.206376597
24.18,1560.874146,-0.622282861,-15.82991838,-1.742391953,0.0,0.057004765,1.686819792,0.163233384
24.231,1581.632324,-0.837688492,-15.57143116,-1.603574961,0.0,0.046884753,1.655927181,0.173886031
24.279,1581.632324,-0.588775267,-15.38953331,-1.866848511,0.0,0.017057348,1.623969197,0.171222866
24.330000000000002,1602.189697,-0.899916698,-15.1023258,-2.024812698,0.0,0.064461611,1.559520721,0.203713432
24.39,1602.189697,-1.005226205,-15.11189961,-1.842914551,0.0,0.083103739,1.531291127,0.186136574
24.432000000000002,1641.940552,-0.655790418,-14.92042794,-1.397743002,0.0,0.047414262,1.47589159,0.127036393
24.483,1641.940552,-0.411664029,-14.66194072,-1.565280715,0.0,0.007999476,1.439672589,0.146211162
24.534000000000002,1661.46814,-0.612709263,-14.31729147,-1.84770146,0.0,0.038359515,1.372028351,0.187223837
24.583000000000002,1661.46814,-0.866409214,-14.12582097,-1.713671231,0.0,0.056469012,1.334211469,0.17657119
24.632,1680.43457,-0.674937542,-14.01572382,-1.574854386,0.0,0.029304765,1.276154518,0.123840608
24.689,1680.43457,-0.392516869,-13.80031819,-1.761539003,0.0,0.01811949,1.252718687,0.137156412
24.728,1699.290039,-0.55526782,-13.69979603,-1.804620305,0.0,0.031435296,1.227152348,0.163788021
24.789,1699.290039,-0.64621682,-13.49875171,-1.704097706,0.0,0.063393228,1.147257566,0.147276431
24.837,1717.855469,-0.459531911,-13.32642651,-1.354661992,0.0,0.049544793,1.098788023,0.127569035
24.886000000000003,1717.855469,-0.478679107,-13.2115442,-1.459971207,0.0,0.015988959,1.07215631,0.158461705
25.081,1736.107422,-0.507399829,-13.0009249,-1.570067477,0.0,-0.000522639,1.053514242,0.156331167
25.134,1754.022461,-0.564841381,-12.71371739,-1.29243364,0.0,0.008530747,0.901178837,0.156873405
25.181,1771.702393,-0.507399829,-12.18238397,-1.479118404,0.0,0.04261921,0.811696649,0.086565949
25.23,1789.186279,-0.263273513,-12.19674411,-1.431250632,0.0,0.04261921,0.776010275,0.107338607
25.28,1789.186279,-0.627069624,-11.97176466,-1.416890198,0.0,0.014922334,0.709963858,0.137698635
25.329,1806.38623,-0.627069624,-11.88560147,-1.479118404,0.0,0.012259172,0.693984926,0.115860716
25.381,1806.38623,-0.459531911,-11.65583687,-1.656229788,0.0,0.03569499,0.646580637,0.089229107
25.431,1823.287842,-0.253699914,-11.63190174,-1.407316673,0.0,0.06605503,0.619416416,0.107338607
25.478,1823.287842,-0.785033739,-11.49308548,-1.096175133,0.0,0.027171433,0.554965198,0.11693614
25.531000000000002,1840.018188,-0.64621682,-11.44521756,-1.153616722,0.0,0.000539823,0.530464172,0.070597135
25.602,1840.018188,-0.387730107,-11.07184803,-1.44561092,0.0,-0.009047558,0.497973591,0.062607653
25.712,1872.341797,-0.579201706,-10.84208226,-1.268499681,0.0,0.003202984,0.333922863,0.087108731
25.759,1872.341797,-0.622282861,-10.76070657,-1.211058238,0.0,0.007464041,0.29450807,0.078586616
25.785,1888.161621,-0.55526782,-10.59795518,-1.22063169,0.0,0.023443008,0.190644786,0.037573941
25.832,1888.161621,-0.320714992,-10.51179433,-1.115322256,0.0,0.033563022,0.146436304,0.030649722
26.017,1888.161621,-0.320714992,-10.51179433,-1.115322256,0.0,0.033563022,0.146436304,0.030649722
26.038,1888.161621,-0.335075353,-10.47828538,-1.053094123,0.0,0.017584054,0.101695195,0.059411861
26.080000000000002,1919.242188,-0.469105545,-10.01875384,-1.033946927,0.0,0.035691708,-0.10017585,0.013085838
26.127000000000002,1934.434937,-0.469105545,-9.903870368,-0.909490296,0.0,0.021310639,-0.120415874,0.021607954
26.182000000000002,1934.434937,-0.382943308,-9.85600245,-0.92385073,0.0,-0.00691887,-0.133199051,0.020542691
26.23,1949.530884,-0.55526782,-9.573581851,-1.182337371,0.0,-0.025560997,-0.181668594,0.029597437
26.282,1949.530884,-0.545694222,-9.444338822,-1.187124133,0.0,-0.014908354,-0.219485477,0.00136793
26.327,1964.305664,-0.459531911,-9.506566882,-1.215844855,0.0,-0.00691887,-0.231203392,-0.000229967
26.381,1978.998291,-0.34943575,-9.233719516,-1.029160164,0.0,0.015984315,-0.295651883,-0.003958392
26.431,1978.998291,-0.411664029,-9.209786725,-1.014799657,0.0,0.018114846,-0.298847675,0.00616162
26.48,1978.998291,-0.531333788,-9.157131314,-0.986079009,0.0,0.011721415,-0.336667985,0.007239866
26.53,1993.479614,-0.512186628,-8.970447135,-0.981292173,0.0,-0.006920712,-0.365962744,-0.01086963
26.583000000000002,2007.645508,-0.483465906,-8.802908838,-1.062667575,0.0,-0.003192287,-0.393659621,-0.015130687
26.641000000000002,2007.645508,-0.449958349,-8.735893285,-1.062667575,0.0,0.013851944,-0.417095453,-0.024185436
26.713,2007.645508,-0.449958349,-8.735893285,-1.062667575,0.0,0.013851944,-0.417095453,-0.024185436
26.731,2021.581543,-0.545694222,-8.678452134,-0.856835616,0.0,0.01278668,-0.44852075,-0.026848597
26.78,2021.581543,-0.493039504,-8.482192969,-0.880769502,0.0,-0.002127022,-0.473021835,-0.033772815
26.831,2035.468384,-0.516973463,-8.367311251,-0.875982812,0.0,-0.005855448,-0.499120802,-0.040697034
26.881,2035.468384,-0.421237627,-8.285935557,-0.947784689,0.0,-0.012779667,-0.51403451,-0.044958092
26.931,2049.188477,-0.325501791,-8.15190562,-0.986079009,0.0,0.001068771,-0.551318765,-0.0417623
26.98,2062.610596,-0.526547025,-7.931712496,-0.808967625,0.0,-0.005324057,-0.599258006,-0.032698803
27.03,2062.610596,-0.536120587,-7.979580414,-0.875982812,0.0,-0.002128263,-0.606182218,-0.036427226
27.080000000000002,2075.758789,-0.40687723,-7.749814641,-0.933424255,0.0,0.011187543,-0.661043346,-0.061993573
27.135,2075.758789,-0.363796148,-7.759388459,-0.895129935,0.0,0.016513864,-0.678087533,-0.059330411
27.181,2088.846436,-0.359009349,-7.644504988,-0.856835616,0.0,0.028231774,-0.697262347,-0.057199884
27.23,2088.846436,-0.378156509,-7.606210887,-0.804180935,0.0,0.023438083,-0.709512889,-0.050808296
27.28,2101.69751,-0.469105545,-7.395592165,-0.794607337,0.0,0.004795955,-0.742536068,-0.05666725
27.330000000000002,2101.69751,-0.464318746,-7.390805256,-0.799394099,0.0,0.006393852,-0.754786611,-0.064656742
27.380000000000003,2114.390381,-0.416450792,-7.189760351,-0.818541296,0.0,0.007459117,-0.79313612,-0.08010307
27.499000000000002,2114.390381,-0.378156509,-7.25677532,-0.794607337,0.0,0.012252807,-0.799527705,-0.074776754
27.531000000000002,2126.970215,-0.478679107,-7.041369689,-0.718018697,0.0,0.021838225,-0.844272435,-0.068371333
27.587,2139.424072,-0.44517155,-6.892979026,-0.670150779,0.0,0.012250844,-0.887415648,-0.089676626
27.632,2139.424072,-0.411664029,-6.940846944,-0.698871501,0.0,0.000532936,-0.892741978,-0.09393768
27.682000000000002,2151.508057,-0.344648951,-6.773309231,-0.718018697,0.0,0.004793994,-0.91244936,-0.097666107
27.732,2151.508057,-0.397303668,-6.663213253,-0.823328058,0.0,0.009587684,-0.940678895,-0.096068211
27.782,2163.620361,-0.31592823,-6.5579036,-0.751526181,0.0,0.027697179,-0.949200988,-0.098731376
27.832,2163.620361,-0.368582947,-6.533969641,-0.545694222,0.0,0.025566651,-0.997670531,-0.096068211
27.881,2175.287354,-0.449958349,-6.452594531,-0.512186628,0.0,0.01331611,-1.00885582,-0.09393768
27.934,2175.287354,-0.440384751,-6.380792654,-0.636643222,0.0,-0.006391283,-1.024834871,-0.106720857
27.984,2186.912842,-0.430811189,-6.323350918,-0.775460213,0.0,-0.004262076,-1.039750934,-0.114701025
28.028000000000002,2186.912842,-0.378156509,-6.218041849,-0.804180935,0.0,0.001596879,-1.060523629,-0.129614726
28.082,2198.471924,-0.296781052,-6.136666155,-0.703658336,0.0,0.030891653,-1.10047102,-0.132277891
28.131,2198.471924,-0.335075353,-6.055290461,-0.64621682,0.0,0.027695859,-1.104732037,-0.123755775
28.179000000000002,2209.85376,-0.335075353,-5.983489168,-0.588775267,0.0,0.025032697,-1.114852071,-0.115766294
28.23,2209.85376,-0.416450792,-5.906899798,-0.545694222,0.0,0.01384742,-1.132428885,-0.125886306
28.281000000000002,2221.045898,-0.440384751,-5.820738363,-0.526547025,0.0,0.01384742,-1.143614173,-0.128549471
28.337,2221.045898,-0.320714992,-5.782443678,-0.583988505,0.0,-0.002664179,-1.161723733,-0.13707158
28.382,2232.112793,-0.378156509,-5.653200066,-0.631856459,0.0,-0.004794708,-1.178235292,-0.132810518
28.433,2232.112793,-0.40687723,-5.648413742,-0.670150779,0.0,-0.006392605,-1.179300547,-0.130679995
28.482,2242.952393,-0.430811189,-5.49523617,-0.727592295,0.0,0.010116632,-1.232035518,-0.154099166
28.53,2242.952393,-0.435597988,-5.456941485,-0.641429985,0.0,0.029824024,-1.250145078,-0.15622969
28.59,2253.733398,-0.397303668,-5.418647969,-0.617496099,0.0,0.039411407,-1.251742959,-0.169545501
28.631,2253.733398,-0.382943308,-5.356419325,-0.454745148,0.0,0.037813511,-1.245351434,-0.169545501
28.686,2264.443359,-0.33028859,-5.241536438,-0.421237627,0.0,-0.002666541,-1.236829281,-0.159425482
28.731,2264.443359,-0.368582947,-5.169734561,-0.526547025,0.0,-0.019178141,-1.246416688,-0.151436001
28.78,2274.969482,-0.359009349,-5.145800018,-0.579201706,0.0,-0.018645508,-1.268254519,-0.157294959
28.831,2274.969482,-0.382943308,-5.107505918,-0.651003583,0.0,-0.008525495,-1.283168316,-0.16155602
28.880000000000003,2285.220947,-0.382943308,-4.983049214,-0.631856459,0.0,0.013845058,-1.324713588,-0.177002355
28.931,2285.220947,-0.40687723,-4.906460428,-0.545694222,0.0,0.015975585,-1.332703114,-0.175404459
28.98,2295.305664,-0.392516869,-4.906460428,-0.440384751,0.0,0.022899285,-1.341758728,-0.185520783
29.03,2295.305664,-0.325501791,-4.820298994,-0.382943308,0.0,0.006387686,-1.333769321,-0.188716576
29.082,2315.217285,-0.34943575,-4.782004017,-0.411664029,0.0,-0.020243924,-1.31779027,-0.17433551
29.130000000000003,2315.217285,-0.397303668,-4.743709624,-0.478679107,0.0,-0.023439718,-1.317257643,-0.171672344
29.182000000000002,2324.938477,-0.464318746,-4.652760696,-0.531333788,0.0,-0.021309189,-1.324181914,-0.174868137
29.232,2334.476318,-0.478679107,-4.566598678,-0.540907349,0.0,-0.017048132,-1.350813508,-0.207891345
29.281000000000002,2334.476318,-0.44517155,-4.513943851,-0.478679107,0.0,-0.008526016,-1.35773778,-0.213750303
29.332,2334.476318,-0.34943575,-4.494797093,-0.464318746,0.0,-0.00692812,-1.371586204,-0.220674515
29.383000000000003,2344.040771,-0.320714992,-4.42778154,-0.459531911,0.0,-0.016515499,-1.381173491,-0.216946095
29.427,2344.040771,-0.306354631,-4.456502408,-0.430811189,0.0,-0.017580764,-1.385967255,-0.200967118
29.482,2353.353516,-0.40687723,-4.351193047,-0.411664029,0.0,-0.025039697,-1.385971189,-0.191365078
29.53,2353.353516,-0.421237627,-4.298538512,-0.402090468,0.0,-0.031963915,-1.388101697,-0.190832451
29.579,2362.522461,-0.397303668,-4.241096777,-0.421237627,0.0,-0.036757607,-1.388101697,-0.200419828
29.630000000000003,2371.50415,-0.33028859,-4.178868425,-0.387730107,0.0,-0.041551296,-1.389166951,-0.191897705
29.688000000000002,2371.50415,-0.325501791,-4.131000799,-0.382943308,0.0,-0.04741025,-1.388101697,-0.188169286
29.731,2371.50415,-0.311141431,-4.083132881,-0.440384751,0.0,-0.04741025,-1.388101697,-0.180179805
29.783,2380.496094,-0.301567851,-4.049625397,-0.454745148,0.0,-0.04954078,-1.392362714,-0.179647177
29.833000000000002,2389.22168,-0.430811189,-3.973036611,-0.363796148,0.0,-0.039953399,-1.38384068,-0.170592427
29.880000000000003,2389.22168,-0.387730107,-3.949102652,-0.224979175,0.0,-0.04208393,-1.388634324,-0.182310328
29.93,2397.949951,-0.34943575,-3.896448117,-0.282420672,0.0,-0.056997631,-1.430712223,-0.197224036
29.984,2397.949951,-0.320714992,-3.853366816,-0.311141431,0.0,-0.06924817,-1.461072326,-0.199887201
30.029,2397.949951,-0.306354631,-3.800711989,-0.363796148,0.0,-0.072978519,-1.457880139,-0.194014683
30.081,2406.390625,-0.291994252,-3.752844363,-0.373369709,0.0,-0.061793245,-1.422193766,-0.166317806
30.130000000000003,2414.766602,-0.34943575,-3.709763062,-0.363796148,0.0,-0.061260611,-1.420063257,-0.158860952
30.18,2414.766602,-0.354222549,-3.681042194,-0.354222549,0.0,-0.063923769,-1.425389528,-0.158328325
30.227,2414.766602,-0.368582947,-3.623601043,-0.33028859,0.0,-0.059662715,-1.429117918,-0.170046225
30.293,2423.078613,-0.34943575,-3.566159308,-0.335075353,0.0,-0.064989038,-1.447760105,-0.178568348
30.329,2423.078613,-0.306354631,-3.566159308,-0.301567851,0.0,-0.070315361,-1.479185343,-0.181764141
30.380000000000003,2431.224609,-0.253699914,-3.489570814,-0.368582947,0.0,-0.071380623,-1.482381225,-0.177503079
30.431,2431.224609,-0.215405595,-3.422555554,-0.339862152,0.0,-0.071913257,-1.478652716,-0.169513598
30.48,2439.222168,-0.244126334,-3.369901019,-0.33028859,0.0,-0.065522991,-1.477589965,-0.147666365
30.531000000000002,2439.222168,-0.234552773,-3.355540293,-0.311141431,0.0,-0.062327199,-1.483448982,-0.1450032
30.582,2447.152832,-0.248913134,-3.331606627,-0.31592823,0.0,-0.065522991,-1.519667983,-0.142340034
30.629,2447.152832,-0.306354631,-3.293312234,-0.325501791,0.0,-0.067653514,-1.531918526,-0.139676884
30.681,2454.970703,-0.296781052,-3.245444316,-0.253699914,0.0,-0.063925087,-1.556419611,-0.154590577
30.740000000000002,2462.674561,-0.258486732,-3.21672374,-0.287207472,0.0,-0.078306161,-1.668805003,-0.172700077
30.797,2462.674561,-0.258486732,-3.21672374,-0.291994252,0.0,-0.082034588,-1.6821208,-0.170036912
30.834,2470.309326,-0.186684855,-3.120987612,-0.282420672,0.0,-0.082567222,-1.686914444,-0.157253742
