rkf,accel_x,accel_y,accel_z,gyro_x,gyro_y,gyro_z,yaw,pitch,roll,imutemp,pressure,altitude,bmptemp,verticalvelocity,apoogee,state,uptime(milliseconds),errorflag
0,    7.6707,    2.2548,    6.0145,   -2.6630,   -0.3867,   -7.9365,  -12.9903,   52.2393,  115.8277,   42.2500,87770.4375,    0.7114,   44.9905,    0.2433,    1.1755,0,10086,1
0,    8.1281,    2.4733,    6.9114,   -2.7241,  -18.9009,    1.4930,  -24.4018,   40.8634,  112.7664,   42.2500,87768.1953,    0.9207,   45.0091,    0.4742,    0.9836,0,15105,1
0,    7.2967,    0.4414,    6.7489,   10.6792,   -3.0667,    6.2736,  -14.8426,   43.7264,  103.0412,   42.3750,87771.7578,    0.5874,   45.0371,    0.2137,    0.8574,0,20126,1
0,    0.4011,    4.0184,    6.9703,   26.1231,    9.7951,   99.4248,   -8.1210,    4.0689,  118.1751,   42.2500,87775.4688,    0.2404,   45.0558,    0.0591,    0.4431,0,25144,1
0,    7.6908,    1.2518,   -6.9152,    1.7443,    4.4224,  -64.9015,  -13.7254,  129.7925,  196.4875,   42.2500,87778.9922,   -0.0884,   45.0745,    0.8932,    0.0254,0,30168,1
0,    7.6858,    2.2824,   -6.2808,    2.4095,   -1.6501,   -0.1044,   -8.1023,  126.9644,  205.8139,   42.3750,87784.9766,   -0.6482,   45.0978,   -0.1191,   -0.0959,0,35187,1
0,    7.9185,    1.7051,   -6.3261,   -1.9715,   -0.7534,   -2.7879,   -8.1670,  129.6464,  201.2933,   42.3750,87781.9766,   -0.3675,   45.1071,    0.1055,   -0.0210,0,40205,1
0,   -2.9704,    2.2093,   13.8838,   -0.1487,   -3.8823,  -93.3578,   75.3777,   45.3551,  118.3551,   42.3750,87764.2656,    1.2882,   45.1351,    1.0121,    1.5213,0,45224,1
0,    1.3985,   -0.2870,    7.9647,   -3.0037,    2.2296,  -10.5110,   86.6645,   61.5936,  115.3884,   42.3750,87775.9766,    0.1928,   45.1445,   -0.3693,    0.5653,0,50273,1
0,    0.6246,   -1.4896,    9.6822,   -1.2880,    2.2110,    2.2849,   86.2784,   62.0355,   83.6961,   42.3750,87776.6953,    0.1261,   45.1585,    0.1250,    0.2999,0,55294,1
0,    0.5226,   -1.5345,    9.6540,   -2.9855,    0.9122,    4.4900,   84.8529,   62.2741,   79.3775,   42.3750,87776.7656,    0.1192,   45.1771,   -0.3041,    0.3740,0,60318,1
0,    0.6614,   -1.3642,    9.6945,    0.3638,    1.4092,   -1.3139,   85.4219,   63.9101,   84.2968,   42.5000,87776.6484,    0.1306,   45.2005,    0.1267,    0.2721,0,65338,1
0,    0.6966,   -1.4013,    9.6767,   -2.1227,   -0.4931,    1.6549,   85.3661,   65.7383,   84.6499,   42.5000,87772.1328,    0.5523,   45.2098,    0.6751,    0.5523,0,70372,1
0,    0.6591,   -1.4078,    9.6889,   -0.3679,    0.4719,    0.3618,   86.1025,   66.0951,   84.3343,   42.5000,87776.9063,    0.1063,   45.2285,   -0.2892,    0.5608,0,75390,1
0,    0.7127,   -1.4084,    9.6824,    0.4716,    1.9737,    1.6098,   87.1575,   66.4858,   85.4008,   42.5000,87776.7500,    0.1205,   45.2518,   -0.2985,    0.3762,0,80408,1
0,    0.6930,   -1.3837,    9.6662,    0.2083,    0.4423,    0.4651,   87.8580,   67.5031,   86.3357,   42.5000,87777.7656,    0.0258,   45.2565,   -0.6416,    0.4011,0,85474,1
0,    0.6881,   -1.4064,    9.6912,    1.9448,    2.6470,    0.8683,   88.5869,   67.8809,   87.7091,   42.6250,87776.3906,    0.1544,   45.2798,    0.0534,    0.3882,0,90493,1
0,    0.6813,   -1.4076,    9.6670,   -0.8169,    0.2534,   -0.2153,   88.5724,   68.0373,   87.7602,   42.5000,87776.3594,    0.1572,   45.2658,    0.5474,    0.1572,1,91623,1
0,    0.7441,   -1.3291,    9.6859,    0.8873,   -1.0458,   -0.8975,   88.6091,   67.9859,   87.7197,   42.5000,87773.9063,    0.3864,   45.2612,    0.7010,    0.3864,1,91735,1
0,    0.6534,   -1.4025,    9.7002,    1.6136,   -0.3422,    0.9132,   88.7871,   67.9101,   87.7294,   42.5000,87776.0313,    0.1877,   45.2425,    0.2097,    0.4334,1,91848,1
0,    0.6701,   -1.3961,    9.6856,    0.2060,    1.0111,   -0.9046,   88.9218,   68.0585,   87.6194,   42.5000,87776.5313,    0.1413,   45.2425,   -0.0064,    0.4334,1,91962,1
0,    0.6755,   -1.4221,    9.6990,   -0.1387,   -0.1227,    0.4065,   88.9088,   68.0326,   87.6560,   42.5000,87776.2578,    0.1668,   45.2378,   -0.4943,    0.4334,1,92075,1
0,    0.6873,   -1.3867,    9.6768,    1.5594,    1.7091,   -0.5226,   89.0886,   68.2450,   87.5051,   42.5000,87776.5313,    0.1413,   45.2425,   -0.0987,    0.4334,1,92187,1
0,    0.7409,   -1.3483,    9.6715,    0.7341,   -0.2720,   -0.7260,   89.1619,   68.4197,   87.4086,   42.5000,87777.3984,    0.0604,   45.2378,   -0.3678,    0.4334,1,92302,1
0,    0.6884,   -1.3924,    9.6893,   -0.2690,    0.6102,    1.1004,   89.2478,   68.5240,   87.4694,   42.5000,87776.2266,    0.1696,   45.2332,   -0.1774,    0.4334,1,92414,1
0,    0.6444,   -1.4375,    9.6925,    2.3565,   -0.6370,   -0.3912,   89.2710,   68.3857,   87.5200,   42.5000,87777.7813,    0.0241,   45.2378,   -0.4126,    0.4334,1,92527,1
0,    0.6631,   -1.4220,    9.6916,   -0.2808,    0.8556,    1.0147,   89.2782,   68.3994,   87.6413,   42.5000,87778.7266,   -0.0641,   45.2378,   -0.4614,    0.4334,1,92641,1
0,    0.7237,   -1.3940,    9.6718,   -0.7283,    1.7641,   -0.5141,   89.1715,   68.5317,   87.7013,   42.5000,87780.2422,   -0.2056,   45.2378,   -1.0664,    0.4334,1,92754,1
0,    0.6945,   -1.3961,    9.6694,   -0.0357,   -0.8927,    0.4971,   89.1038,   68.4840,   87.6982,   42.5000,87776.4922,    0.1454,   45.2425,   -0.2024,    0.4334,1,92867,1
0,    0.6411,   -1.3935,    9.6820,    0.8658,   -1.6896,    0.9332,   89.1736,   68.3876,   87.6970,   42.5000,87776.8672,    0.1097,   45.2378,    0.0442,    0.4334,1,92981,1
0,    0.7336,   -1.3874,    9.6786,   -0.0894,   -1.5315,    0.7728,   89.1397,   68.2988,   87.7669,   42.5000,87775.0078,    0.2840,   45.2378,    0.9534,    0.4334,1,93093,1
0,    0.7180,   -1.3596,    9.6903,    0.3831,   -0.3092,    0.4147,   89.1104,   68.2223,   87.8408,   42.5000,87776.2266,    0.1696,   45.2378,    0.1679,    0.4334,1,93206,1
0,    0.6477,   -1.4542,    9.7056,   -1.7251,   -0.2921,   -0.0929,   89.0781,   68.1322,   87.9110,   42.5000,87776.8281,    0.1130,   45.2378,    0.1853,    0.4334,1,93320,1
0,    0.6889,   -1.3799,    9.6790,    0.9576,    0.6662,   -1.1222,   89.2345,   68.2043,   87.9117,   42.5000,87777.4375,    0.0570,   45.2378,   -0.4486,    0.4334,1,93433,1
0,    0.7214,   -1.3451,    9.6677,   -0.5328,   -1.2895,    1.2662,   89.2477,   68.0784,   88.0323,   42.5000,87775.6563,    0.2229,   45.2378,    0.1087,    0.4334,1,93546,1
0,    0.6843,   -1.4008,    9.7104,    0.2407,    0.5720,   -0.5800,   89.3101,   68.1331,   88.0476,   42.5000,87775.0078,    0.2840,   45.2332,    0.4837,    0.4334,1,93660,1
0,    0.6547,   -1.4565,    9.6864,    1.4399,    3.2225,   -1.3724,   89.4228,   68.3864,   87.8983,   42.5000,87775.3516,    0.2512,   45.2285,    0.6067,    0.4334,1,93773,1
0,    0.6790,   -1.4057,    9.6712,    0.5497,   -1.5447,   -0.0864,   89.6038,   68.3120,   87.9003,   42.5000,87776.2578,    0.1668,   45.2332,    0.2477,    0.4334,1,93885,1
0,    0.7271,   -1.3885,    9.6811,    1.2684,   -0.0603,    0.8407,   89.6443,   68.3057,   88.0112,   42.5000,87774.6719,    0.3152,   45.2425,    0.3632,    0.4334,1,94000,1
0,    0.7044,   -1.3903,    9.6860,    0.9619,    1.1727,   -1.2776,   89.7801,   68.3429,   87.9592,   42.5000,87775.9219,    0.1986,   45.2425,    0.3001,    0.4334,1,94112,1
0,    0.6830,   -1.4060,    9.6724,   -0.9430,   -0.4763,   -0.5248,   89.7452,   68.3476,   87.7910,   42.5000,87778.4219,   -0.0358,   45.2425,   -0.1163,    0.4334,1,94225,1
0,    0.6594,   -1.4067,    9.6799,   -2.3634,    1.5897,    0.1491,   89.6234,   68.5106,   87.8068,   42.5000,87775.2813,    0.2579,   45.2425,    0.0094,    0.4334,1,94339,1
0,    0.7263,   -1.3888,    9.6680,    1.7801,    1.2477,   -3.3891,   89.8224,   68.6393,   87.5750,   42.5000,87775.0469,    0.2800,   45.2378,    0.1429,    0.4334,1,94452,1
0,    0.7323,   -1.3406,    9.6869,    1.4870,   -0.1582,    1.1580,   89.7785,   68.6914,   87.6678,   42.5000,87775.3125,    0.2551,   45.2425,    0.6080,    0.4334,1,94564,1
0,    0.6782,   -1.4295,    9.6837,    1.1606,    0.6639,    0.8495,   89.7425,   68.6093,   87.7607,   42.5000,87777.5078,    0.0497,   45.2425,   -0.4312,    0.4334,1,94679,1
0,    0.6659,   -1.4069,    9.6780,    1.5992,   -0.9819,   -1.3801,   89.9027,   68.6338,   87.6534,   42.5000,87777.2109,    0.0780,   45.2425,   -0.4828,    0.4334,1,94791,1
0,    0.6723,   -1.4231,    9.6715,    0.4622,   -0.8396,    0.3382,   89.9204,   68.6230,   87.7057,   42.5000,87779.9766,   -0.1807,   45.2425,   -1.2336,    0.4334,1,94904,1
0,    0.6945,   -1.4000,    9.6651,   -0.3913,   -1.7465,    0.8242,   89.9785,   68.5831,   87.7806,   42.5000,87775.9219,    0.1986,   45.2378,   -0.1679,    0.4334,1,95018,1
0,    0.6495,   -1.4238,    9.6847,   -0.4962,    0.9666,    0.1638,   90.0486,   68.5561,   87.8143,   42.5000,87775.6563,    0.2229,   45.2425,   -0.1553,    0.4334,1,95131,1
0,    0.6916,   -1.4229,    9.6750,   -0.8465,    1.5589,    0.6308,   90.0728,   68.7195,   87.9119,   42.5000,87775.6563,    0.2229,   45.2378,    0.6015,    0.4334,1,95244,1
0,    0.7142,   -1.3730,    9.6783,    0.7430,    0.6884,    0.2120,   89.9584,   68.7518,   87.9481,   42.5000,87775.9922,    0.1911,   45.2425,   -0.0524,    0.4334,1,95358,1
0,    0.7336,   -1.3739,    9.6586,   -0.3043,   -0.0416,   -1.3730,   89.9646,   68.6323,   87.9876,   42.5000,87779.3281,   -0.1201,   45.2472,   -0.6184,    0.4334,1,95471,1
0,    0.6550,   -1.4153,    9.6947,    0.0257,   -0.6581,   -0.5942,   89.8608,   68.6213,   87.8974,   42.5000,87777.4766,    0.0525,   45.2472,   -0.5338,    0.4334,1,95583,1
0,    0.6689,   -1.3982,    9.6850,    2.8746,    0.2010,   -0.1152,   89.9912,   68.7036,   87.9194,   42.5000,87775.6563,    0.2229,   45.2378,   -0.1613,    0.4334,1,95698,1
0,    0.6868,   -1.3874,    9.6989,    0.7399,    1.0007,   -1.2456,   90.3122,   68.7793,   87.7477,   42.5000,87777.5078,    0.0497,   45.2332,    0.1105,    0.4334,1,95810,1
0,    0.7236,   -1.4056,    9.6882,    1.3546,    0.8110,   -1.3730,   90.4367,   68.8021,   87.7006,   42.5000,87774.4063,    0.3394,   45.2378,    0.5670,    0.4334,1,95923,1
0,    0.6448,   -1.3749,    9.6768,   -2.9838,   -1.0463,   -0.1669,   90.3835,   68.8633,   87.7182,   42.5000,87775.6172,    0.2268,   45.2378,   -0.0431,    0.5002,1,96037,1
0,    0.6983,   -1.3859,    9.6659,   -0.7065,   -1.0234,    0.0428,   90.2131,   68.8906,   87.5812,   42.5000,87777.5078,    0.0497,   45.2472,   -0.2166,    0.5002,1,96150,1
0,    0.6784,   -1.3952,    9.6960,    0.4734,   -0.1919,   -0.0918,   90.4121,   68.9428,   87.5558,   42.5000,87777.2422,    0.0752,   45.2378,   -0.7822,    0.5002,1,96262,1
0,    0.6899,   -1.3341,    9.6903,    1.4440,    1.9030,    1.2131,   90.5104,   69.0724,   87.6384,   42.5000,87777.0156,    0.0960,   45.2145,   -0.9946,    0.5002,1,96331,1
0,    0.7012,   -1.4378,    9.6794,    1.3787,    0.3280,   -0.7648,   90.5648,   69.1543,   87.5243,   42.5000,87778.6172,   -0.0539,   45.2332,   -0.8608,    0.5002,1,96443,1
0,    0.6675,   -1.3551,    9.6972,   -0.9949,    1.3145,   -1.0226,   90.5096,   69.3215,   87.3733,   42.5000,87775.6563,    0.2229,   45.2425,    0.2965,    0.5002,1,96556,1
0,    0.7189,   -1.4208,    9.6685,    0.5755,   -0.7593,   -1.2902,   90.5911,   69.2311,   87.3422,   42.5000,87778.4219,   -0.0358,   45.2378,   -0.2743,    0.5002,1,96670,1
0,    0.6909,   -1.3529,    9.6941,   -2.1517,    0.4101,    1.1204,   90.4902,   69.3069,   87.3537,   42.5000,87776.8672,    0.1097,   45.2378,   -0.1361,    0.5002,1,96783,1
0,    0.7250,   -1.3824,    9.6766,   -0.8483,   -0.0286,   -0.1225,   90.4895,   69.4094,   87.3622,   42.5000,87776.6016,    0.1351,   45.2425,   -0.6601,    0.5002,1,96896,1
0,    0.6904,   -1.3732,    9.6845,    2.5631,   -0.0159,    0.9807,   90.5971,   69.4182,   87.4361,   42.5000,87772.5859,    0.5103,   45.2332,    0.6885,    0.5103,1,97010,1
0,    0.6867,   -1.4318,    9.6865,    0.7051,    0.5725,   -0.3741,   90.6099,   69.5436,   87.3251,   42.5000,87773.4922,    0.4255,   45.2425,    0.6423,    0.5103,1,97122,1
0,    0.6603,   -1.4075,    9.6843,   -2.7510,    1.4487,   -0.1350,   90.5583,   69.6384,   87.4747,   42.5000,87775.7266,    0.2166,   45.2378,    0.3691,    0.5103,1,97235,1
0,    0.7405,   -1.3368,    9.6690,   -0.0609,    2.7747,    0.5716,   90.4652,   69.7902,   87.5479,   42.5000,87778.4922,   -0.0420,   45.2425,   -1.0878,    0.5783,1,97349,1
0,    0.7162,   -1.4213,    9.6636,    0.2528,   -0.2687,    0.6093,   90.4007,   69.8208,   87.4965,   42.6250,87775.0469,    0.2800,   45.2518,   -0.5228,    0.5783,1,97462,1
0,    0.6723,   -1.3727,    9.6713,   -1.7350,    0.8801,    0.0737,   90.3840,   69.8679,   87.3968,   42.6250,87773.8359,    0.3933,   45.2565,   -0.0206,    0.5783,1,97575,1
0,    0.6942,   -1.4123,    9.6853,    0.1835,   -1.1836,   -1.0851,   90.5399,   69.6322,   87.3269,   42.6250,87776.6719,    0.1284,   45.2378,    0.2001,    0.5783,1,97689,1
0,    0.6929,   -1.3729,    9.6846,   -1.5013,    0.0139,    3.4162,   90.5198,   69.6854,   87.5755,   42.6250,87775.0469,    0.2800,   45.2518,    0.0445,    0.5783,1,97802,1
0,    0.6911,   -1.4202,    9.6695,   -1.0249,   -3.1979,    1.7962,   90.4280,   69.4574,   87.6854,   42.6250,87776.3359,    0.1595,   45.2425,   -0.2091,    0.5783,1,97914,1
0,    0.6227,   -1.4309,    9.7084,    0.8621,    1.4514,    0.1210,   90.5196,   69.5247,   87.7606,   42.6250,87775.9922,    0.1911,   45.2425,    0.2772,    0.5783,1,98029,1
0,    0.7087,   -1.4110,    9.6799,    0.3353,    0.8008,   -0.4571,   90.6857,   69.6351,   87.6709,   42.6250,87771.3672,    0.6236,   45.2425,    0.6042,    0.6236,1,98141,1
0,    0.7200,   -1.3671,    9.6787,   -1.5730,   -0.2249,    1.6305,   90.5763,   69.7275,   87.8471,   42.6250,87771.9766,    0.5670,   45.2472,    0.8129,    0.6236,1,98254,1
0,    0.6865,   -1.3895,    9.6940,   -1.2466,    0.9489,   -0.7778,   90.5417,   69.8553,   87.8254,   42.6250,87777.8906,    0.0140,   45.2378,   -0.1488,    0.6236,1,98368,1
0,    0.6791,   -1.4123,    9.6782,   -0.1557,    0.2624,    2.1461,   90.5801,   69.9626,   87.8863,   42.6250,87779.1016,   -0.0992,   45.2378,   -1.1954,    0.6236,1,98481,1
0,    0.6804,   -1.4316,    9.6772,   -0.2364,    0.8988,    1.5308,   90.6255,   70.0069,   88.0249,   42.6250,87776.2969,    0.1634,   45.2472,   -0.9630,    0.6236,1,98593,1
0,    0.7106,   -1.3525,    9.6684,   -0.8121,    2.5568,    0.7629,   90.6959,   70.2439,   88.1838,   42.5000,87774.7813,    0.3049,   45.2472,    0.2889,    0.6236,1,98708,1
0,    0.6713,   -1.4042,    9.6770,    0.0023,    0.2588,    0.3488,   90.6863,   70.2937,   88.1171,   42.5000,87774.7813,    0.3049,   45.2425,    0.5914,    0.6236,1,98820,1
0,    0.6821,   -1.3740,    9.6798,    2.0125,   -0.2181,    1.0599,   90.8257,   70.2883,   88.1261,   42.5000,87775.4609,    0.2409,   45.2425,    0.2495,    0.6236,1,98933,1
0,    0.6986,   -1.4006,    9.6956,    0.3468,    0.9110,   -0.9849,   90.8427,   70.3504,   87.9839,   42.5000,87775.1172,    0.2738,   45.2425,   -0.0529,    0.6236,1,99047,1
0,    0.6711,   -1.4141,    9.6922,   -2.4567,    0.0300,    0.7316,   90.6247,   70.2965,   88.0017,   42.5000,87777.8125,    0.0213,   45.2518,   -0.5368,    0.6236,1,99160,1
0,    0.7055,   -1.3603,    9.7034,    0.0567,    1.4897,   -0.0018,   90.5266,   70.3646,   88.0151,   42.5000,87776.6406,    0.1312,   45.2472,   -0.2471,    0.6236,1,99273,1
0,    0.6976,   -1.3510,    9.6685,    0.0392,    0.4972,   -0.5206,   90.5820,   70.4701,   87.9120,   42.5000,87778.4922,   -0.0420,   45.2518,   -0.6077,    0.6236,1,99387,1
0,    0.7031,   -1.4027,    9.6621,    2.0165,   -0.8542,    2.4587,   90.6453,   70.4571,   88.0085,   42.5000,87773.8672,    0.3904,   45.2425,    0.6522,    0.6236,1,99500,1
0,    0.6667,   -1.4062,    9.7043,   -0.5723,   -0.6894,    1.0286,   90.5522,   70.4164,   88.0588,   42.5000,87777.5859,    0.0423,   45.2518,   -0.2922,    0.3231,1,99612,1
0,    0.7176,   -1.3863,    9.6697,   -0.4724,   -0.1702,   -0.9742,   90.6617,   70.4676,   87.9478,   42.5000,87774.4766,    0.3332,   45.2378,    0.6436,    0.3332,1,99726,1
0,    0.7117,   -1.3988,    9.7116,    0.3109,    0.9994,   -0.3619,   90.7480,   70.5897,   87.8768,   42.5000,87775.3906,    0.2478,   45.2472,   -0.1582,    0.3332,1,99839,1
0,    0.6452,   -1.4342,    9.6922,   -0.6956,   -2.0747,    0.1324,   90.7587,   70.4235,   87.7704,   42.5000,87775.7656,    0.2132,   45.2565,    0.4392,    0.3332,1,99952,1
0,    0.6964,   -1.4282,    9.6914,    2.3986,    0.7790,   -0.6267,   90.8624,   70.5042,   87.8065,   42.5000,87775.6875,    0.2201,   45.2472,   -0.1333,    0.3332,1,100066,1
0,    0.7020,   -1.3991,    9.6872,   -2.2482,    0.8478,   -0.4391,   90.8444,   70.5998,   87.9107,   42.5000,87776.0703,    0.1844,   45.2565,   -0.0449,    0.3332,1,100179,1
0,    0.6819,   -1.3891,    9.6848,    0.8669,    2.1413,   -0.5030,   90.8749,   70.6626,   87.8364,   42.5000,87777.2813,    0.0711,   45.2472,   -0.3372,    0.4612,1,100291,1
0,    0.6981,   -1.3938,    9.6753,    0.4964,   -0.3348,    0.2726,   90.9803,   70.7965,   87.8436,   42.5000,87777.5469,    0.0462,   45.2518,   -0.4014,    0.4612,1,100406,1
0,    0.6919,   -1.3582,    9.6888,    3.6312,    1.2932,    0.2120,   91.2416,   70.7833,   87.9028,   42.5000,87776.9766,    0.0995,   45.2472,   -0.2316,    0.4612,1,100518,1
0,    0.6887,   -1.4204,    9.6629,   -1.0005,    2.2739,   -0.9946,   91.2536,   70.8040,   87.9053,   42.5000,87775.3906,    0.2478,   45.2518,    0.2674,    0.4612,1,100631,1
0,    0.6568,   -1.4052,    9.6943,    0.2360,    0.1938,    0.3385,   91.2962,   70.8720,   87.8320,   42.5000,87776.6719,    0.1284,   45.2472,    0.0948,    0.4612,1,100745,1
0,    0.9419,   -0.9039,    9.2861,   -0.4876,    0.5441,   -3.0234,   91.4356,   70.9226,   87.7119,   42.5000,87779.4375,   -0.1303,   45.2518,   -0.7904,    0.4612,1,100858,1
0,    0.6898,   -1.3621,    9.6879,   -0.1738,   -0.8818,   -0.1260,   91.5087,   70.9692,   87.6627,   42.5000,87776.9766,    0.0995,   45.2518,   -0.6541,    0.4612,1,100971,1
0,    0.3792,   -1.1862,   10.2803,    2.4831,    2.3156,  -17.3107,   91.7579,   71.0700,   86.6608,   42.5000,87774.8203,    0.3010,   45.2472,   -0.0101,    0.4612,1,101085,1
0,    1.6019,   -0.6596,   53.6738,    7.4488,    0.5750,  -50.5707,   92.3655,   71.3390,   81.8724,   42.5000,87770.7969,    0.6773,   45.2332,    1.3948,    0.6773,1,101197,1
0,    4.4941,    6.9628,   85.3999,  144.2544,  -24.6468,  114.7766,  101.1202,   69.4508,   87.6084,   42.6250,87757.1094,    1.9566,   45.2332,    3.6330,    1.9566,1,101310,1
0,    1.7439,    1.1026,   36.6723,  158.0373,  -20.4738,   93.3654,  119.4723,   66.6786,   99.3647,   42.6250,87733.1406,    4.1976,   45.2285,    7.5991,    4.1976,2,101424,1
0,    0.8716,    2.0666,   33.1473,  107.5389,   -7.7694,  144.4016,  133.4375,   65.4502,  112.8854,   42.6250,87701.0156,    7.2024,   45.2378,   12.2689,    7.2024,2,101539,1
0,   -0.8021,    2.3293,    7.0972,   45.8101,   -3.6566,  393.2131,  140.4424,   64.9216,  150.2123,   42.6250,87684.8984,    8.7097,   45.2378,   12.0509,    8.8416,2,101653,1
0,   -1.7119,    0.5100,   -0.1226,   24.3609,  -34.6980,  365.2498,  143.3626,   62.1854,  194.8896,   42.6250,87691.0078,    8.1382,   45.2425,    6.7385,    8.8416,2,101767,1
0,    0.0424,   -0.7066,   -0.9271,   53.7627,  -52.5541,  409.8836,  148.4798,   56.0801,  239.8161,   42.6250,87678.2969,    9.3277,   45.2285,    3.6086,    9.3277,2,101881,1
0,    0.3533,   -0.0722,   -0.7375,   72.7451,  -14.4490,  431.6307,  156.5876,   53.2567,  288.8063,   42.6250,87668.0156,   10.2892,   45.2378,    3.0282,   10.2892,2,101996,1
0,   -0.1904,   -0.2486,   -0.4790,   43.3918,    4.9839,  443.2303,  162.4779,   54.1174,  339.0433,   42.6250,87654.6641,   11.5392,   45.2425,    6.3051,   11.5392,3,102110,1
0,   -0.3024,   -1.0932,   -0.3915,   37.3595,   -5.3211,  464.9363,  166.7981,   53.7245,  391.1145,   42.6250,87643.7813,   12.5573,   45.2565,    5.9350,   12.5573,3,102224,1
0,    0.0827,   -1.7518,   -0.3540,   39.1828,    1.9673,  492.4272,  171.0541,   53.5119,  446.9266,   42.6250,87626.1484,   14.2077,   45.2472,    7.2596,   14.2077,3,102339,1
0,    1.0224,   -1.7643,   -0.3755,   36.4544,   23.5202,  482.3221,  175.4415,   55.5722,  502.0190,   42.6250,87615.2578,   15.2269,   45.2472,    6.5893,   15.2269,3,102453,1
0,    1.1870,   -1.2351,   -0.2907,    7.4431,   43.1688,  467.2231,  177.3512,   60.1098,  556.2154,   42.5000,87614.9219,   15.2580,   45.2472,    4.7543,   15.2580,3,102567,1
0,    1.2748,   -0.6105,   -0.3174,  -30.2027,   35.2522,  436.3460,  175.0129,   64.5417,  606.6418,   42.5000,87614.3828,   15.3091,   45.2472,    1.8210,   15.3091,3,102681,1
0,    0.8871,   -0.1410,   -0.3125,  -43.8157,    4.7571,  418.2071,  170.1609,   65.8519,  654.9313,   42.5000,87604.6719,   16.2184,   45.2565,    1.7463,   16.2184,3,102796,1
0,    0.6351,   -0.0170,   -0.4110,  -35.5495,  -36.2203,  388.7218,  165.4023,   62.8113,  700.1457,   42.5000,87597.0938,   16.9276,   45.2565,    3.0231,   16.9276,3,102910,1
0,    0.3935,   -0.2214,   -0.4525,   -9.1684,  -57.5450,  379.1653,  163.6181,   56.6085,  743.5451,   42.5000,87595.8438,   17.0444,   45.2565,    3.2357,   17.0444,3,103024,1
0,    0.0455,   -0.5837,   -0.4264,   29.0774,  -54.8261,  366.0151,  166.0568,   49.5813,  788.6779,   42.5000,87598.6797,   16.7784,   45.2378,    1.1991,   17.0444,3,103146,1
0,    0.0474,   -1.0306,   -0.4134,   55.2028,  -30.5171,  349.9444,  171.7098,   45.3673,  829.0747,   42.5000,87594.6250,   17.1589,   45.2518,    0.6344,   17.1589,3,103261,1
0,    0.7254,   -0.9962,   -0.4202,   65.6743,    6.8924,  331.8925,  178.9105,   45.0630,  867.6463,   42.5000,87594.3281,   17.1861,   45.2518,    0.2908,   17.3789,3,103375,1
0,    1.1617,   -0.5698,   -0.4072,   45.3219,   37.9901,  323.2645,  184.8610,   48.6246,  904.9998,   42.5000,87598.8750,   16.7603,   45.2565,    0.0775,   17.3789,3,103489,1
0,    1.0119,   -0.1161,   -0.3536,   13.5305,   56.6219,  308.5574,  187.4874,   54.8299,  940.6386,   42.5000,87603.1563,   16.3601,   45.2565,   -1.4333,   17.3789,3,103603,1
0,    0.6222,    0.3885,   -0.3651,  -24.8536,   47.4586,  282.6038,  185.8186,   60.7568,  973.4579,   42.5000,87599.1797,   16.7320,   45.2518,   -0.6931,   17.3789,3,103718,1
0,    0.1559,    0.4110,   -0.4215,  -51.5298,   15.3934,  275.7999,  180.3572,   63.6772, 1005.3213,   42.6250,87605.5859,   16.1322,   45.2565,   -1.1511,   17.3789,3,103832,1
0,   -0.1515,    0.0630,   -0.4982,  -51.5683,  -23.3352,  243.8474,  174.2585,   62.0456, 1034.3184,   42.6250,87616.5469,   15.1062,   45.2658,   -2.3498,   17.3789,3,103946,1
0,   -0.1465,   -0.2296,   -0.5962,  -26.7949,  -58.2487,  240.2624,  170.3060,   56.2040, 1061.8120,   42.6250,87622.3047,   14.5677,   45.2565,   -3.9077,   17.3789,3,104061,1
0,    0.1210,   -0.6261,   -0.7073,    7.9715,  -68.8570,  249.5737,  170.1457,   48.4580, 1090.0782,   42.6250,87631.0703,   13.7464,   45.2565,   -4.2898,   17.3789,3,104175,1
0,    0.4679,   -0.5190,   -0.7442,   38.3066,  -57.2464,  251.6566,  173.8009,   41.4228, 1118.7362,   42.6250,87640.7813,   12.8379,   45.2565,   -3.9974,   17.3789,4,104289,1
0,    0.7008,   -0.2458,   -0.6921,   58.5288,  -29.9444,  256.2589,  180.2678,   37.2140, 1147.7560,   42.6250,87652.6484,   11.7273,   45.2565,   -5.0452,   17.3789,4,104403,1
0,    0.4318,   -0.0034,   -0.5332,   50.3079,   -0.0941,  259.4215,  186.3342,   36.5212, 1177.0868,   42.6250,87662.3594,   10.8189,   45.2565,   -5.1147,   17.3789,4,104518,1
0,    0.2963,    0.0127,   -0.5743,   30.7696,    8.9692,  281.3129,  190.3211,   37.5120, 1208.6042,   42.6250,87672.3359,    9.8846,   45.2658,   -5.1834,   17.3789,4,104632,1
0,    0.3114,   -0.2042,   -0.5815,   17.6233,    2.9598,  304.1900,  192.6792,   38.1081, 1242.6768,   42.6250,87689.0938,    8.3177,   45.2612,   -5.9694,   17.3789,4,104746,1
0,    0.4382,   -0.1853,   -0.6324,   15.2274,   -2.6497,  327.6470,  194.4510,   37.9331, 1279.3496,   42.6250,87704.9063,    6.8382,   45.2658,   -7.1619,   17.3789,4,104860,1
0,    0.5908,    0.1087,   -0.6444,   12.2102,   -3.6225,  339.0038,  196.0960,   37.5781, 1317.6078,   42.6250,87719.7734,    5.4478,   45.2705,   -7.9865,   17.3789,4,104975,1
0,    0.3254,    0.2121,   -0.7549,    4.7542,  -13.7924,  368.5823,  196.8806,   36.1278, 1369.8702,   42.6250,87740.4063,    3.5186,   45.2192,   -7.9297,   17.3789,4,105120,1
0,    9.3849,    4.1359,  -14.5270,  146.4357, -218.2912, -893.3197,  220.5611,   19.0372, 1266.3441,   42.6250,87763.8203,    1.3294,   45.1865,  -23.5954,   17.3789,4,105265,1
0,   -1.0943,   -0.4929,    2.4037,  -54.0101,  -99.7979,  -73.1972,  207.2880,   -7.2507, 1200.1840,   42.6250,87799.4766,   -2.0030,   45.1725,  -25.2232,   17.3789,4,105410,1
0,   -1.0126,    0.4320,    0.9869,   63.9694,   24.5938,  -11.8181,  212.4062,   -7.5346, 1199.0110,   42.6250,87764.9297,    1.2259,   45.1771,  -17.6124,   17.3789,4,105555,1
0,   13.1316,  -15.6820,   -3.1162,  -17.7255,  -13.8961,   38.1317,  212.0746,   -7.5927, 1205.5898,   42.6250,87763.7109,    1.3397,   45.1818,    1.0274,   17.3789,4,105700,1
0,    7.5190,   -8.2022,   -0.3697,   -2.0258,   -0.4145,   -1.7970,  211.5301,   -8.0080, 1202.4296,   42.6250,87764.0547,    1.3073,   45.1865,    5.1250,   17.3789,4,105845,1
0,    6.6532,   -7.7878,   -0.2728,   -0.2501,   -1.4431,   -0.3884,  211.4002,   -8.0111, 1202.4066,   42.6250,87763.0313,    1.4030,   45.1818,    0.2829,   17.3789,4,105990,1
0,    6.7724,   -7.7310,   -0.2905,    2.2663,   -0.0386,    0.9329,  211.6631,   -7.9718, 1202.4366,   42.6250,87767.3906,    0.9961,   45.1865,   -0.4160,   17.3789,5,106135,1
0,    6.7588,   -7.7729,   -0.2667,    1.3124,    0.4429,   -0.2037,  211.8481,   -7.8903, 1202.4453,   42.6250,87762.7266,    1.4320,   45.1771,    0.2892,   17.3789,5,106280,1
0,    6.7643,   -7.7456,   -0.2761,    0.0382,    2.6450,    0.8078,  211.7936,   -7.7153, 1202.5184,   42.5000,87764.3594,    1.2790,   45.1818,    0.0273,   17.3789,5,106425,1
0,    6.7725,   -7.7884,   -0.2667,   -0.3675,    0.3697,    1.2647,  211.7835,   -7.7421, 1202.5607,   42.5000,87764.3203,    1.2831,   45.1818,    0.5943,   17.3789,5,106570,1
0,    6.7631,   -7.7420,   -0.2468,   -2.1526,   -0.6198,    2.4827,  211.6438,   -7.8569, 1202.7623,   42.5000,87763.0703,    1.3996,   45.1771,    0.1184,   17.3789,5,106716,1
0,    6.7678,   -7.7553,   -0.2924,   -1.7713,    0.0867,    0.9262,  211.5998,   -7.7738, 1202.9373,   42.5000,87763.3359,    1.3747,   45.1725,    0.1756,   17.3789,5,106861,1
0,    6.7549,   -7.7750,   -0.2916,    1.5675,    3.1590,   -1.5551,  211.6310,   -7.4464, 1202.8475,   42.5000,87764.5859,    1.2575,   45.1818,   -0.0742,   17.3789,5,107006,1
0,    6.7678,   -7.7724,   -0.2704,   -0.1471,    1.1633,   -0.1455,  211.7494,   -7.2989, 1202.7880,   42.5000,87765.1953,    1.2004,   45.1678,   -0.3006,   17.3789,5,107151,1
0,    6.7598,   -7.7738,   -0.2782,    0.8623,    0.6747,    0.2529,  211.7416,   -7.3013, 1202.8209,   42.5000,87762.3906,    1.4631,   45.1771,    0.1348,   17.3789,5,107296,1
0,    6.7876,   -7.7552,   -0.2828,    0.9884,    0.1985,    0.0079,  211.6912,   -7.2474, 1202.7704,   42.5000,87762.3906,    1.4631,   45.1771,    0.3150,   17.3789,5,107441,1
0,    6.7389,   -7.7637,   -0.2752,   -1.2368,    0.1889,    0.0665,  211.4833,   -7.1926, 1202.8019,   42.5000,87762.4609,    1.4563,   45.1725,    0.3420,   17.3789,5,107586,1
0,    6.7437,   -7.7799,   -0.2729,    1.2384,   -0.5936,    0.5163,  211.5436,   -7.1936, 1202.8132,   42.6250,87763.3359,    1.3747,   45.1771,   -0.1124,   17.3789,5,107731,1
0,    6.7402,   -7.7845,   -0.2584,    0.9311,    3.0741,    0.2632,  211.5778,   -6.9277, 1202.8536,   42.6250,87762.7266,    1.4320,   45.1771,   -0.1101,   17.3789,5,107876,1
0,    6.7490,   -7.7806,   -0.2798,    0.2785,    0.3836,   -1.0783,  211.8162,   -6.8813, 1202.7080,   42.6250,87760.2656,    1.6617,   45.1818,    0.0901,   17.3789,5,108021,1
0,    6.7651,   -7.7552,   -0.2636,    2.3192,   -1.3058,   -1.0075,  211.9044,   -6.9581, 1202.5981,   42.6250,87764.6250,    1.2541,   45.1818,   -0.3682,   17.3789,5,108166,1
0,    6.7490,   -7.7755,   -0.2574,    3.2735,    0.5413,    2.2060,  212.2284,   -6.8919, 1202.8588,   42.6250,87765.1953,    1.2004,   45.1818,   -0.4879,   17.3789,5,108311,1
0,    6.7592,   -7.7796,   -0.2742,   -1.5534,   -0.6877,   -1.3506,  212.1297,   -7.0244, 1202.7046,   42.6250,87764.9297,    1.2259,   45.1771,   -0.6200,   17.3789,5,108456,1
0,    6.7494,   -7.7801,   -0.2730,    2.6474,    1.6012,   -1.9871,  211.7784,   -7.3791, 1202.5364,   42.5000,87763.5547,    1.3543,   45.2472,    0.1235,   17.3789,6,109018,1
0,    6.7388,   -7.7955,   -0.2784,    2.8417,    0.4331,   -0.4090,  212.3458,   -7.2547, 1202.6138,   42.5000,87763.7734,    1.3335,   45.2752,    0.1176,   17.3789,6,109579,1
0,    6.7735,   -7.7684,   -0.2666,   -0.2004,    0.1272,    0.5119,  212.7069,   -7.0777, 1202.8201,   42.5000,87763.3438,    1.3742,   45.2845,    0.0882,   17.3789,6,110141,1
0,    6.7582,   -7.7948,   -0.2772,    0.5832,   -1.9334,    0.2810,  212.9758,   -7.2115, 1202.9174,   42.5000,87762.5078,    1.4522,   45.2938,    0.4652,    1.4522,6,110702,1
0,    6.7810,   -7.7392,   -0.2831,   -0.8315,   -0.5210,    1.0154,  212.9442,   -6.8927, 1202.6559,   42.5000,87763.1172,    1.3951,   45.2938,    0.1268,    1.4522,6,111264,1
0,    6.7502,   -7.7940,   -0.2588,   -0.0456,   -1.3582,   -0.5134,  213.0784,   -6.9333, 1202.3951,   42.6250,87763.1172,    1.3951,   45.2938,    0.3355,    1.5859,6,111825,1
0,    6.7527,   -7.7615,   -0.2466,   -0.9533,   -1.0139,    0.4130,  213.0391,   -7.0557, 1202.6333,   42.6250,87762.2031,    1.4806,   45.2985,   -0.0487,    1.5859,6,112387,1
0,    6.7621,   -7.7753,   -0.2758,   -0.3954,   -0.6684,   -0.8788,  213.0925,   -6.8882, 1202.7242,   42.6250,87763.1172,    1.3951,   45.3032,    0.2614,    1.6572,6,112949,1
0,    6.7607,   -7.7792,   -0.2499,    3.2601,    1.6324,    0.8469,  213.0716,   -6.6964, 1202.8936,   42.6250,87765.0078,    1.2185,   45.3032,   -0.1224,    1.7314,6,113510,1
0,    6.7481,   -7.7880,   -0.2701,   -0.1876,    1.3297,    0.9962,  212.8151,   -6.7610, 1203.3817,   42.6250,87763.1172,    1.3951,   45.2985,    0.0257,    1.7314,6,114072,1
0,    6.7611,   -7.7803,   -0.2704,    1.2660,    0.3049,    1.1002,  212.6625,   -6.8101, 1203.5148,   42.6250,87762.8828,    1.4172,   45.3032,    0.0776,    1.7699,6,114633,1
0,    6.7561,   -7.7537,   -0.2457,    1.0516,    0.4448,   -0.9654,  212.8393,   -6.5407, 1203.8401,   42.6250,87762.5078,    1.4522,   45.2985,   -0.0112,    1.4653,6,115195,1
0,    6.7460,   -7.7922,   -0.2616,    0.4115,   -0.3503,    1.7183,  212.9885,   -6.2856, 1204.2140,   42.6250,87762.5781,    1.4455,   45.3078,   -0.1880,    1.5055,6,115756,1
0,    6.7702,   -7.7555,   -0.2713,   -0.2495,   -0.7166,   -1.4036,  213.2449,   -5.9868, 1204.3673,   42.6250,87762.2734,    1.4738,   45.3078,    0.1086,    1.6793,6,116318,1
0,    6.7654,   -7.7451,   -0.2640,    0.5507,   -1.2368,   -0.0911,  213.1766,   -5.9779, 1204.6622,   42.6250,87762.5781,    1.4455,   45.3125,    0.4894,    1.7636,6,116880,1
0,    6.7303,   -7.7767,   -0.2716,   -0.0672,   -0.2299,   -1.0831,  213.0578,   -6.1107, 1204.8530,   42.6250,87763.2266,    1.3850,   45.3125,   -0.4654,    1.7636,6,117441,1
0,    6.7802,   -7.7381,   -0.2858,    1.4990,    0.2151,    0.7335,  212.8556,   -5.6683, 1205.0273,   42.6250,87763.1875,    1.3883,   45.3125,    0.2999,    1.5366,6,118003,1
0,    6.7291,   -7.8076,   -0.2400,    0.1230,    2.9222,   -0.8537,  212.8427,   -5.4273, 1204.9622,   42.6250,87762.8828,    1.4172,   45.3125,    1.0126,    1.5366,6,118564,1
0,    6.7611,   -7.7754,   -0.2544,    0.9987,    0.8425,   -1.9646,  212.9858,   -5.1655, 1204.8517,   42.6250,87763.2266,    1.3850,   45.3125,   -0.2954,    1.5587,6,119126,1
0,    6.7548,   -7.7866,   -0.2548,   -1.2615,    3.0942,   -0.4062,  212.9502,   -4.7047, 1204.9152,   42.6250,87762.9531,    1.4104,   45.3078,    0.1766,    1.3103,6,119687,1
0,    6.7877,   -7.7800,   -0.2550,    1.0530,    1.8078,   -0.2358,  212.9785,   -4.3862, 1204.9978,   42.6250,87764.1328,    1.3000,   45.3172,   -0.2172,    1.7263,6,120249,1
0,    6.7503,   -7.8093,   -0.2529,   -0.8167,    1.1653,   -0.0410,  213.0633,   -4.0508, 1205.0375,   42.6250,87764.8125,    1.2367,   45.3172,   -0.6793,    1.2367,6,120810,1
0,    6.7241,   -7.8021,   -0.2571,   -0.8738,    1.6644,    0.4999,  212.8900,   -3.7907, 1205.3984,   42.6250,87762.3125,    1.4704,   45.3218,   -0.0433,    1.5055,6,121372,1
0,    6.7556,   -7.7700,   -0.2788,    0.3040,   -0.3966,   -0.6612,  212.7964,   -3.4368, 1205.4323,   42.5000,87762.9922,    1.4065,   45.3218,   -0.2227,    1.5462,6,121934,1
0,    6.7268,   -7.7731,   -0.2623,    0.9833,   -1.8536,    1.7915,  212.8618,   -3.4248, 1205.6497,   42.5000,87762.3828,    1.4636,   45.3172,   -0.5220,    1.5406,6,122495,1
0,    6.7125,   -7.7858,   -0.2498,    0.0861,    0.6013,   -0.2419,  212.8802,   -2.9777, 1205.8661,   42.6250,87765.4531,    1.1766,   45.3172,   -0.4528,    1.7795,6,123057,1
0,    6.7602,   -7.7504,   -0.2601,   -1.5993,    0.7236,   -2.0316,  213.0260,   -2.9813, 1205.8958,   42.6250,87767.3125,    1.0034,   45.3125,   -0.8523,    1.7795,6,123618,1
0,    6.8496,   -7.7432,   -0.2638,    1.0373,   -0.9198,    0.1906,  213.5142,   -2.9907, 1206.1792,   42.6250,87763.6016,    1.3504,   45.3265,   -0.0559,    1.7795,6,124180,1
0,    4.8504,   -9.2810,   -1.9963,   57.0904,   21.7231,  -48.0491,  220.6734,    0.0301, 1193.1488,   42.6250,87763.6328,    1.3470,   45.3312,    0.1517,    1.3470,6,124742,1
0,   -7.0587,   -4.7879,    0.3358,  -62.1387,   52.7313, -185.6997,  206.7967,    5.3961, 1094.8801,   42.6250,87757.9063,    1.8825,   45.3265,    1.3334,    1.8825,6,125303,1
0,   -9.5348,   -1.7906,    0.4301,   -5.4865,   -5.5642,    0.1179,  204.8062,    3.3958, 1076.8721,   42.6250,87753.8516,    2.2612,   45.3218,    0.1036,    2.3717,6,125865,1
0,   -7.7186,   -3.1929,    1.3855,   13.7896,  -16.0246,   46.4546,  207.4211,    3.2544, 1096.8896,   42.6250,87754.4922,    2.2013,   45.3265,    0.2848,    2.2013,6,126426,1
0,   -8.6160,   -9.7307,   -0.4620,  -34.6997,    9.8180,  -45.0592,  210.8568,   -2.6474, 1100.1113,   42.6250,87755.1016,    2.1446,   45.3265,    0.4777,    2.1729,6,126988,1
0,    0.9580,    7.2168,    0.5089,   74.6440,  -97.7710,   68.7012,  218.7416,  -15.0902, 1094.0886,   42.6250,87759.7266,    1.7121,   45.3265,   -1.2468,    2.3003,6,127550,1
0,   -3.8701,   -3.2858,   -7.7261,   25.7866,  -21.2012,   16.5220,  237.9428,  -41.5119, 1107.8044,   42.6250,87756.3516,    2.0274,   45.3218,    0.5241,    2.3003,6,128111,1
0,   -6.1773,   -3.0799,   -5.8458,    5.0441,  -12.3921,    7.6154,  232.6588,  -30.6956, 1101.5602,   42.6250,87756.3125,    2.0315,   45.3358,    0.1265,    2.3003,6,128673,1
0,   -5.9690,   -3.4415,   -6.8334,  -34.5746,   26.9471,   22.2395,  233.0788,  -26.9404, 1107.3268,   42.6250,87757.6016,    1.9109,   45.3312,    0.0650,    1.9109,6,129234,1
0,   -5.6852,   -4.6095,   -6.6453,   46.0190,  -25.4362,   -0.2631,  238.5846,  -24.2903, 1110.1946,   42.6250,87754.1953,    2.2296,   45.3218,    1.0696,    2.2296,6,129796,1
0,   -3.9276,   -3.1028,   -8.5607,   17.1621,   -9.8830,    8.7953,  258.0170,  -34.4733, 1118.0052,   42.6250,87758.2422,    1.8514,   45.3312,    0.5645,    2.0031,6,130358,1
0,   -2.0263,   -2.9569,   -9.8052,    6.4825,  -66.1709,    4.9801,  260.1258,  -53.6135, 1125.2719,   42.6250,87755.8203,    2.0772,   45.3358,    0.1391,    2.0772,6,130919,1
0,   -0.5284,   -5.8569,   -6.4666,  -11.0281,  -80.8576,   33.5477,  228.5405,  -36.7524, 1114.9497,   42.6250,87756.1172,    2.0495,   45.3358,    0.1574,    2.0495,6,131481,1
0,   -2.8601,   -3.1432,   -6.0900,   12.6363,  -53.2469,  -36.1166,  220.7081,  -50.3948, 1099.9257,   42.6250,87754.9453,    2.1594,   45.3405,    0.7200,    2.1758,6,132043,1
0,   -2.0860,   -6.6234,   -7.1334,   10.6143,   22.6686,   31.6746,  225.0585,  -43.0403, 1104.8199,   42.6250,87755.8516,    2.0744,   45.3405,    0.1898,    2.1096,6,132604,1
0,   -3.7661,   -4.3189,   -7.3416,   -7.0858,    2.7125,   13.4956,  219.1224,  -46.7012, 1108.4642,   42.6250,87751.2656,    2.5035,   45.3405,    0.6719,    2.5035,6,133166,1
0,   -2.8971,   -8.2964,   -4.8989,   -5.6168,  -34.4514,   22.7139,  213.1785,  -47.8668, 1109.3357,   42.6250,87752.5156,    2.3863,   45.3405,    0.2173,    2.5035,6,133727,1
0,   -5.0794,   -8.1231,   -4.6696,    0.3918,    1.8901,   -4.4086,  212.4837,  -36.1014, 1103.3417,   42.6250,87753.7266,    2.2726,   45.3405,    0.0716,    2.5562,6,134289,1
0,   -4.8107,   -6.6432,   -4.0738,   11.7517,    2.0968,    6.2465,  209.5520,  -34.7953, 1099.0575,   42.6250,87754.4063,    2.2097,   45.3405,   -0.3630,    2.5052,6,134851,1
0,   -3.2470,   -7.6861,   -7.5720,    7.7063,  -11.2589,   -4.2259,  233.0113,  -38.4598, 1105.1519,   42.6250,87752.1016,    2.4254,   45.3312,    0.1972,    2.7589,6,135412,1
0,   -2.5107,   -3.0835,   -9.5239,    0.9398,   17.7246,  -13.9394,  254.9494,  -44.8819, 1107.0500,   42.6250,87752.1406,    2.4215,   45.3358,   -0.1040,    2.7589,6,135974,1
0,   -3.3402,   -3.0378,   -9.3875,   -6.8994,    7.8330,   -5.5318,  252.2437,  -43.5252, 1105.5129,   42.6250,87750.9219,    2.5352,   45.3312,    0.3922,    2.5352,6,136535,1
0,   -2.6381,   -2.1992,   -9.5835,   -9.7496,   -2.4307,  -31.9068,  257.1179,  -44.5046, 1102.6514,   42.6250,87750.6563,    2.5595,   45.3405,    0.2885,    2.5595,6,137097,1
0,    0.4127,    0.4806,  -12.6297,  -96.6874,  -82.8298, -109.7029,  254.5720,  -64.4514, 1026.2101,   42.6250,87750.5859,    2.5670,   45.3312,   -0.0624,    2.6327,6,137659,1
0,    0.8345,    0.0404,  -10.0885,   22.5846,   57.3942,    1.2312,  260.9600,  -43.3976, 1017.4576,   42.6250,87753.0156,    2.3393,   45.3358,   -0.2964,    2.3393,6,138220,1
0,    0.5806,    0.1592,   -6.8726,    1.2777,   31.7328, -182.8111,  265.5890,  -44.3784,  940.4250,   42.6250,87748.5000,    2.7617,   45.3265,    0.7615,    2.7617,6,138782,1
0,    0.6514,   -0.0514,   -8.6097,    1.7513,  -34.4317,  258.8071,  248.7660,  -36.5620, 1000.1741,   42.6250,87751.8750,    2.4464,   45.3312,    0.0465,    2.7617,6,139344,1
0,    1.0412,    0.1672,   -7.9084,   28.7647,   18.2180,  136.2914,  240.9908,  -16.6610, 1099.6075,   42.6250,87754.3750,    2.2126,   45.3405,   -0.6119,    2.7617,6,139905,1
0,    0.5055,    0.2223,  -10.5804,   17.0545,  -19.5686,  129.3801,  254.7387,  -24.6011, 1120.1082,   42.6250,87753.4219,    2.3015,   45.3405,    0.3325,    2.7617,6,140467,1
0,    0.2438,    0.2002,   -9.8414,  -16.5191,  -54.9858, -120.6944,  244.2153,  -35.7571, 1164.8409,   42.6250,87752.8203,    2.3580,   45.3452,    0.2043,    2.5771,6,141029,1
0,   -3.6568,   -2.7511,    0.4987, -179.4047,   63.9753, -173.0213,  148.0013,    6.0441, 1065.0640,   42.6250,87747.4297,    2.8619,   45.3452,    0.5638,    3.0177,6,141590,1
0,   -5.5926,    1.0816,    6.8857,  -18.3002,   10.7685,  -96.1540,  113.9636,   35.1627, 1041.1166,   42.6250,87747.7656,    2.8302,   45.3498,   -0.8309,    3.1976,6,142152,1
0,   -1.3287,   -2.0337,    6.7520,   -0.4563,  -13.4622,   -8.5250,  125.5789,   57.4947, 1040.0331,   42.6250,87739.7344,    3.5815,   45.3452,    0.7245,    3.5815,6,142713,1
0,   -3.2446,    1.1808,    8.8410,  -26.6613,   52.2749,   49.0782,  123.2913,   53.1913, 1048.3853,   42.6250,87745.2656,    3.0641,   45.3405,   -0.1497,    3.5815,6,143275,1
0,   -2.0152,   -1.4733,    8.8257,   -0.9427,   -2.1046,    7.5686,  126.6526,   49.9071, 1057.5204,   42.6250,87740.4141,    3.5182,   45.3452,    0.6894,    3.5182,6,143837,1
0,   -3.1319,   -2.3585,    8.7960,  -11.6145,  -18.0974,   -0.1749,  129.9354,   45.3288, 1055.8094,   42.6250,87740.9844,    3.4643,   45.3498,    1.1880,    3.5182,6,144398,1
0,   -2.3512,   -1.3027,    8.7195,    6.6007,    5.5607,   -5.2488,  127.0710,   48.1124, 1062.1219,   42.6250,87744.5000,    3.1353,   45.3638,    0.9897,    3.1353,6,144935,1
0,   -4.2980,   -2.1636,    8.7128,   14.8872,    9.4192,  -15.0490,  130.1941,   47.7615, 1053.6285,   42.6250,87747.1563,    2.8874,   45.3498,    0.0146,    2.9666,6,145483,1
0,   -3.5651,   -1.6611,    8.9491,   -4.4315,   12.6975,  -38.4164,  130.4948,   52.8285, 1043.0608,   42.6250,87745.6406,    3.0289,   45.3452,   -0.1313,    3.0357,6,146045,1
0,    0.8722,    0.5056,    9.9499,   31.8653,  -23.3175,   22.3761,  127.3790,   65.7184, 1041.6917,   42.6250,87748.6406,    2.7487,   45.3545,   -0.4424,    2.8670,6,146607,1
0,   -3.4468,   -0.2876,    8.1067,   10.2203,  -30.2025,  -37.4665,  133.3696,   48.2253, 1038.6133,   42.6250,87750.8750,    2.5398,   45.3545,   -0.5669,    2.6065,6,147153,1
0,   -4.4132,   -1.0786,    7.4122,    4.5285,  -22.6067,    0.9314,  137.8773,   37.0988, 1032.2596,   42.6250,87749.9297,    2.6281,   45.3498,    0.0102,    2.8239,6,147715,1
0,   -5.8485,   -5.8872,    5.7451,  -19.7476,   13.8839,   58.2272,  135.2807,   15.5009, 1061.6265,   42.6250,87749.8906,    2.6314,   45.3638,    0.1495,    2.9083,6,148276,1
0,   -5.3532,   -6.1520,    5.4271,   -4.4729,   -4.5166,    7.2571,  133.1729,   16.6603, 1067.2136,   42.6250,87750.1953,    2.6032,   45.3498,   -0.8279,    2.6032,6,148838,1
0,   -2.9320,   -0.8377,    7.7598,   -1.8553,   88.2005,  -39.0120,  127.1407,   41.6142, 1036.3147,   42.6250,87749.0156,    2.7136,   45.3545,    0.4296,    2.9321,6,149400,1
0,    0.0799,   -0.3822,    9.1814,    6.1815,   34.0275,   -2.4657,  124.8717,   63.2695, 1023.0498,   42.6250,87760.5859,    1.6323,   45.3592,   -2.3814,    2.6915,6,149961,1
0,   -1.4154,   -0.3933,    8.8968,  -36.6014,   -9.2442,   11.7676,  121.0938,   66.0290, 1025.2725,   42.6250,87749.3359,    2.6836,   45.3312,    1.1145,    2.6836,6,150523,1
0,    3.4305,    2.5466,    9.2028,    7.1724,   38.4676,   -7.3742,  105.2860,   91.6497, 1033.6038,   42.6250,87752.1250,    2.4232,   45.3545,    0.0496,    2.6423,6,151058,1
0,    4.7381,    4.8331,    6.8679,   78.7789,  -18.8739,   43.6556,  106.2240,   94.1921, 1037.6449,   42.6250,87751.7109,    2.4616,   45.3405,    0.2983,    2.4616,6,151619,1
0,    2.2597,    1.3695,    8.9772,   -0.8010,    2.3569,   33.6070,  118.0794,   91.2920, 1058.3250,   42.6250,87748.5703,    2.7550,   45.3265,   -0.2541,    2.8070,6,152181,1
0,    0.3089,    3.2759,    8.7935,  -13.7431,  -36.1662,    6.6521,  109.2870,   90.3155, 1086.4802,   42.6250,87745.0859,    3.0810,   45.3172,    0.6925,    3.0810,6,152742,1
0,   -6.0352,    1.9292,    7.0980,   10.1502,   -5.1006,  -16.9066,  121.1012,   50.6355, 1067.9510,   42.6250,87747.1016,    2.8925,   45.3078,    0.0182,    3.2379,6,153301,1
0,   -3.5926,    1.7822,    7.8589,   -6.1936,   -7.4214,  -28.0828,  129.3566,   51.8667, 1058.0519,   42.6250,87745.3203,    3.0589,   45.3078,    0.4872,    3.1761,6,153839,1
0,   -5.3136,    1.4111,    7.8510,   -0.2430,  -13.5652,    2.7977,  124.9973,   42.6717, 1061.8107,   42.6250,87744.5547,    3.1303,   45.3405,   -0.2873,    3.1303,6,154372,1
