timestamp(ms),Data age,State,Altitude,Verticalvel,RSSI,Accel X,Accel Y,Accel Z,Gyro X,Gyro Y,Gyro Z,Pitch,Yaw,Roll,Uptime,
"1721516629.268",,"0","1",,,,,,,,,,,,,
"1721516629.269",,,,"1.22","-78","0.46",,,,,,,,,,
"1721516629.27",,,,,,,"-0.21","9.88","0.03",,,,,,,
"1721516629.271",,,,,,,,,,"0.03","0","1.51","3.13",,,
"1721516629.272",,,,,,,,,,,,,,"1.77","1465389",
"1721516629.929","0.657",,,,,,,,,,,,,,,
"1721516630.031","0.758",,,,,,,,,,,,,,,
"1721516630.131","0.859",,,,,,,,,,,,,,,
"1721516630.232","0.96",,,,,,,,,,,,,,,
"1721516630.272",,"0","1.2","1.24",,,,,,,,,,,,
"1721516630.273",,,,,"-78","0.52","-0.24",,,,,,,,,
"1721516630.274",,,,,,,,"9.89","0","0","0",,,,,
"1721516630.275",,,,,,,,,,,,"1.51","3.12","1.77","1466393",
"1721516630.333","0.058",,,,,,,,,,,,,,,
"1721516630.435","0.159",,,,,,,,,,,,,,,
"1721516630.535","0.26",,,,,,,,,,,,,,,
"1721516630.636","0.361",,,,,,,,,,,,,,,
"1721516630.737","0.462",,,,,,,,,,,,,,,
"1721516630.838","0.563",,,,,,,,,,,,,,,
"1721516630.94","0.664",,,,,,,,,,,,,,,
"1721516631.04","0.765",,,,,,,,,,,,,,,
"1721516631.141","0.866",,,,,,,,,,,,,,,
"1721516631.242","0.967",,,,,,,,,,,,,,,
"1721516631.344","1.068",,,,,,,,,,,,,,,
"1721516631.444","1.169",,,,,,,,,,,,,,,
"1721516631.546","1.27",,,,,,,,,,,,,,,
"1721516631.646","1.371",,,,,,,,,,,,,,,
"1721516631.747","1.472",,,,,,,,,,,,,,,
"1721516631.848","1.573",,,,,,,,,,,,,,,
"1721516631.949","1.674",,,,,,,,,,,,,,,
"1721516632.05","1.775",,,,,,,,,,,,,,,
"1721516632.151","1.876",,,,,,,,,,,,,,,
"1721516632.198",,"0","1","1.23",,,,,,,,,,,,
"1721516632.199",,,,,"-78","0.49","-0.16","9.85",,,,,,,,
"1721516632.2",,,,,,,,,"-0.01","-0.01","0","1.51",,,,
"1721516632.201",,,,,,,,,,,,,"3.13","1.78","1467362",
"1721516632.252","0.051",,,,,,,,,,,,,,,
"1721516632.353","0.152",,,,,,,,,,,,,,,
"1721516632.454","0.253",,,,,,,,,,,,,,,
"1721516632.555","0.354",,,,,,,,,,,,,,,
"1721516632.656","0.455",,,,,,,,,,,,,,,
"1721516632.757","0.556",,,,,,,,,,,,,,,
"1721516632.858","0.657",,,,,,,,,,,,,,,
"1721516632.959","0.758",,,,,,,,,,,,,,,
"1721516633.061","0.859",,,,,,,,,,,,,,,
"1721516633.161","0.96",,,,,,,,,,,,,,,
"1721516633.201",,"0","0.9","1.23","-78",,,,,,,,,,,
"1721516633.202",,,,,,"0.52","-0.16","9.9","0","0.02",,,,,,
"1721516633.203",,,,,,,,,,,"-0.01","1.52","3.13",,,
"1721516633.204",,,,,,,,,,,,,,"1.78","1469322",
"1721516633.262","0.058",,,,,,,,,,,,,,,
"1721516633.363","0.159",,,,,,,,,,,,,,,
"1721516633.465","0.26",,,,,,,,,,,,,,,
"1721516633.565","0.361",,,,,,,,,,,,,,,
"1721516633.667","0.462",,,,,,,,,,,,,,,
"1721516633.767","0.563",,,,,,,,,,,,,,,
"1721516633.869","0.664",,,,,,,,,,,,,,,
"1721516633.97","0.765",,,,,,,,,,,,,,,
"1721516634.07","0.866",,,,,,,,,,,,,,,
"1721516634.172","0.967",,,,,,,,,,,,,,,
"1721516634.207",,"0","1.1","1.25","-78","0.51","-0.25",,,,,,,,,
"1721516634.208",,,,,,,,"9.87","0.02","0","-0.01","1.51","3.13",,,
"1721516634.212",,,,,,,,,,,,,,"1.79","1470325",
"1721516634.272","0.065",,,,,,,,,,,,,,,
"1721516634.373","0.166",,,,,,,,,,,,,,,
"1721516634.474","0.267",,,,,,,,,,,,,,,
"1721516634.575","0.368",,,,,,,,,,,,,,,
"1721516634.676","0.469",,,,,,,,,,,,,,,
"1721516634.777","0.57",,,,,,,,,,,,,,,
"1721516634.878","0.671",,,,,,,,,,,,,,,
"1721516634.979","0.772",,,,,,,,,,,,,,,
"1721516635.08","0.873",,,,,,,,,,,,,,,
"1721516635.181","0.974",,,,,,,,,,,,,,,
"1721516635.206",,"0","1.1",,,,,,,,,,,,,
"1721516635.207",,,,"1.25","-78","0.48","-0.14",,,,,,,,,
"1721516635.208",,,,,,,,"9.9","0.04","0",,,,,,
"1721516635.209",,,,,,,,,,,"-0.01","1.52",,,,
"1721516635.21",,,,,,,,,,,,,"-3.14","1.79","1471328",
"1721516635.282","0.072",,,,,,,,,,,,,,,
"1721516635.383","0.173",,,,,,,,,,,,,,,
"1721516635.484","0.274",,,,,,,,,,,,,,,
"1721516635.585","0.375",,,,,,,,,,,,,,,
"1721516635.686","0.476",,,,,,,,,,,,,,,
"1721516635.787","0.577",,,,,,,,,,,,,,,
"1721516635.888","0.678",,,,,,,,,,,,,,,
"1721516635.989","0.779",,,,,,,,,,,,,,,
"1721516636.09","0.88",,,,,,,,,,,,,,,
"1721516636.191","0.981",,,,,,,,,,,,,,,
"1721516636.252",,"0","1.1","1.25","-77","0.49","-0.16","9.9","-0.01","0.04",,,,,,
"1721516636.253",,,,,,,,,,,"0","1.52","3.13","1.79","1472331",
"1721516636.292","0.079",,,,,,,,,,,,,,,
"1721516636.393","0.18",,,,,,,,,,,,,,,
"1721516636.494","0.281",,,,,,,,,,,,,,,
"1721516636.595","0.382",,,,,,,,,,,,,,,
"1721516636.696","0.483",,,,,,,,,,,,,,,
"1721516636.797","0.584",,,,,,,,,,,,,,,
"1721516636.898","0.685",,,,,,,,,,,,,,,
"1721516636.999","0.786",,,,,,,,,,,,,,,
"1721516637.1","0.887",,,,,,,,,,,,,,,
"1721516637.201","0.988",,,,,,,,,,,,,,,
"1721516637.212",,"0",,,,,,,,,,,,,,
"1721516637.213",,,"0.8","1.24","-81",,,,,,,,,,,
"1721516637.214",,,,,,"0.48","-0.13","9.89","0.01","0.03",,,,,,
"1721516637.215",,,,,,,,,,,"0.01","1.52","3.14",,,
"1721516637.216",,,,,,,,,,,,,,"1.78","1473335",
"1721516637.302","0.086",,,,,,,,,,,,,,,
"1721516637.403","0.187",,,,,,,,,,,,,,,
"1721516637.504","0.288",,,,,,,,,,,,,,,
"1721516637.605","0.389",,,,,,,,,,,,,,,
"1721516637.706","0.49",,,,,,,,,,,,,,,
"1721516637.812","0.591",,,,,,,,,,,,,,,
"1721516637.908","0.692",,,,,,,,,,,,,,,
"1721516638.009","0.793",,,,,,,,,,,,,,,
"1721516638.11","0.894",,,,,,,,,,,,,,,
"1721516638.211","0.995",,,,,,,,,,,,,,,
"1721516638.215",,"0","0.9","1.25",,,,,,,,,,,,
"1721516638.216",,,,,"-80","0.51","-0.2","9.84",,,,,,,,
"1721516638.217",,,,,,,,,"-0.05","-0.01","0.01",,,,,
"1721516638.218",,,,,,,,,,,,"1.51","3.13","1.79","1474337",
"1721516638.312","0.094",,,,,,,,,,,,,,,
"1721516638.413","0.195",,,,,,,,,,,,,,,
"1721516638.514","0.296",,,,,,,,,,,,,,,
"1721516638.615","0.397",,,,,,,,,,,,,,,
"1721516638.716","0.498",,,,,,,,,,,,,,,
"1721516638.817","0.599",,,,,,,,,,,,,,,
"1721516638.918","0.7",,,,,,,,,,,,,,,
"1721516639.019","0.801",,,,,,,,,,,,,,,
"1721516639.12","0.902",,,,,,,,,,,,,,,
"1721516639.218",,"0","0.9","1.24",,,,,,,,,,,,
"1721516639.219",,,,,"-80","0.5","-0.16",,,,,,,,,
"1721516639.22",,,,,,,,"9.87","0.03","0","-0.01",,,,,
"1721516639.221","1.003",,,,,,,,,,,"1.51","-3.14","1.79",,
"1721516639.222",,,,,,,,,,,,,,,"1475340",
"1721516639.322","0.1",,,,,,,,,,,,,,,
"1721516639.423","0.201",,,,,,,,,,,,,,,
"1721516639.524","0.302",,,,,,,,,,,,,,,
"1721516639.625","0.403",,,,,,,,,,,,,,,
"1721516639.726","0.504",,,,,,,,,,,,,,,
"1721516639.827","0.605",,,,,,,,,,,,,,,
"1721516639.928","0.706",,,,,,,,,,,,,,,
"1721516640.03","0.807",,,,,,,,,,,,,,,
"1721516640.13","0.908",,,,,,,,,,,,,,,
"1721516640.223",,"0","0.8",,,,,,,,,,,,,
"1721516640.224",,,,"1.23","-80","0.48","-0.22","9.88",,,,,,,,
"1721516640.225",,,,,,,,,"-0.01","0","0.01",,,,,
"1721516640.226",,,,,,,,,,,,"1.51","3.13",,,
"1721516640.227",,,,,,,,,,,,,,"1.8","1476343",
"1721516640.231","0.005",,,,,,,,,,,,,,,
"1721516640.332","0.106",,,,,,,,,,,,,,,
"1721516640.433","0.207",,,,,,,,,,,,,,,
"1721516640.534","0.308",,,,,,,,,,,,,,,
"1721516640.635","0.409",,,,,,,,,,,,,,,
"1721516640.736","0.51",,,,,,,,,,,,,,,
"1721516640.837","0.611",,,,,,,,,,,,,,,
"1721516640.938","0.712",,,,,,,,,,,,,,,
"1721516641.039","0.813",,,,,,,,,,,,,,,
"1721516641.14","0.914",,,,,,,,,,,,,,,
"1721516641.227",,"0","1.1",,,,,,,,,,,,,
"1721516641.228",,,,"1.26","-80","0.5","-0.22",,,,,,,,,
"1721516641.229",,,,,,,,"9.9","0","0.01","0.01",,,,,
"1721516641.23",,,,,,,,,,,,"1.52","3.14","1.8","1477348",
"1721516641.241","0.01",,,,,,,,,,,,,,,
"1721516641.342","0.111",,,,,,,,,,,,,,,
"1721516641.444","0.212",,,,,,,,,,,,,,,
"1721516641.544","0.313",,,,,,,,,,,,,,,
"1721516641.645","0.414",,,,,,,,,,,,,,,
"1721516641.746","0.515",,,,,,,,,,,,,,,
"1721516641.847","0.616",,,,,,,,,,,,,,,
"1721516641.948","0.717",,,,,,,,,,,,,,,
"1721516642.05","0.818",,,,,,,,,,,,,,,
"1721516642.151","0.919",,,,,,,,,,,,,,,
"1721516642.251","1.02",,,,,,,,,,,,,,,
"1721516642.353","1.121",,,,,,,,,,,,,,,
"1721516642.453","1.222",,,,,,,,,,,,,,,
"1721516642.555","1.323",,,,,,,,,,,,,,,
"1721516642.655","1.424",,,,,,,,,,,,,,,
"1721516642.757","1.525",,,,,,,,,,,,,,,
"1721516642.857","1.626",,,,,,,,,,,,,,,
"1721516642.959","1.727",,,,,,,,,,,,,,,
"1721516643.059","1.828",,,,,,,,,,,,,,,
"1721516643.155",,"0","1.1","1.27",,,,,,,,,,,,
"1721516643.156",,,,,"-79","0.48","-0.13",,,,,,,,,
"1721516643.157",,,,,,,,"9.87","-0.01","-0.02",,,,,,
"1721516643.158",,,,,,,,,,,"0.02","1.51","3.12",,,
"1721516643.159",,,,,,,,,,,,,,"1.8","1478318",
"1721516643.16","0.002",,,,,,,,,,,,,,,
"1721516643.262","0.103",,,,,,,,,,,,,,,
"1721516643.363","0.204",,,,,,,,,,,,,,,
"1721516643.463","0.305",,,,,,,,,,,,,,,
"1721516643.564","0.406",,,,,,,,,,,,,,,
"1721516643.665","0.507",,,,,,,,,,,,,,,
"1721516643.766","0.608",,,,,,,,,,,,,,,
"1721516643.867","0.709",,,,,,,,,,,,,,,
"1721516643.968","0.81",,,,,,,,,,,,,,,
"1721516644.069","0.911",,,,,,,,,,,,,,,
"1721516644.158",,"0","1",,,,,,,,,,,,,
"1721516644.159",,,,"1.26","-80","0.5","-0.17",,,,,,,,,
"1721516644.16",,,,,,,,"9.88","-0.03",,,,,,,
"1721516644.161",,,,,,,,,,"0.02","0","1.52",,,,
"1721516644.162",,,,,,,,,,,,,"3.13","1.81","1480279",
"1721516644.17","0.008",,,,,,,,,,,,,,,
"1721516644.271","0.109",,,,,,,,,,,,,,,
"1721516644.372","0.21",,,,,,,,,,,,,,,
"1721516644.473","0.311",,,,,,,,,,,,,,,
"1721516644.574","0.412",,,,,,,,,,,,,,,
"1721516644.675","0.513",,,,,,,,,,,,,,,
"1721516644.776","0.614",,,,,,,,,,,,,,,
"1721516644.877","0.715",,,,,,,,,,,,,,,
"1721516644.978","0.816",,,,,,,,,,,,,,,
"1721516645.08","0.917",,,,,,,,,,,,,,,
"1721516645.162",,"0","1.1",,,,,,,,,,,,,
"1721516645.163",,,,"1.27","-80","0.49","-0.22","9.91",,,,,,,,
"1721516645.164",,,,,,,,,"0","0.01","0.02",,,,,
"1721516645.165",,,,,,,,,,,,"1.51","3.13","1.81","1481283",
"1721516645.18","0.015",,,,,,,,,,,,,,,
"1721516645.282","0.116",,,,,,,,,,,,,,,
"1721516645.382","0.217",,,,,,,,,,,,,,,
"1721516645.483","0.318",,,,,,,,,,,,,,,
"1721516645.584","0.419",,,,,,,,,,,,,,,
"1721516645.685","0.52",,,,,,,,,,,,,,,
"1721516645.786","0.621",,,,,,,,,,,,,,,
"1721516645.887","0.722",,,,,,,,,,,,,,,
"1721516645.989","0.823",,,,,,,,,,,,,,,
"1721516646.089","0.924",,,,,,,,,,,,,,,
"1721516646.163",,"0","1.2",,,,,,,,,,,,,
"1721516646.164",,,,"1.28","-80","0.54",,,,,,,,,,
"1721516646.165",,,,,,,"-0.16","9.9","0","0.01","0",,,,,
"1721516646.166",,,,,,,,,,,,"1.51","-3.13","1.81","1482286",
"1721516646.19","0.024",,,,,,,,,,,,,,,
"1721516646.291","0.125",,,,,,,,,,,,,,,
"1721516646.393","0.226",,,,,,,,,,,,,,,
"1721516646.493","0.327",,,,,,,,,,,,,,,
"1721516646.594","0.428",,,,,,,,,,,,,,,
"1721516646.695","0.529",,,,,,,,,,,,,,,
"1721516646.796","0.63",,,,,,,,,,,,,,,
"1721516646.897","0.731",,,,,,,,,,,,,,,
"1721516646.998","0.832",,,,,,,,,,,,,,,
"1721516647.099","0.933",,,,,,,,,,,,,,,
"1721516647.166",,"0",,,,,,,,,,,,,,
"1721516647.167",,,"1.2","1.28","-81","0.47","-0.19","9.87",,,,,,,,
"1721516647.168",,,,,,,,,"-0.03","-0.01","0","1.51",,,,
"1721516647.169",,,,,,,,,,,,,"3.13","1.81","1483288",
"1721516647.2","0.031",,,,,,,,,,,,,,,
"1721516647.301","0.132",,,,,,,,,,,,,,,
"1721516647.402","0.233",,,,,,,,,,,,,,,
"1721516647.503","0.334",,,,,,,,,,,,,,,
"1721516647.604","0.435",,,,,,,,,,,,,,,
"1721516647.705","0.536",,,,,,,,,,,,,,,
"1721516647.806","0.637",,,,,,,,,,,,,,,
"1721516647.907","0.738",,,,,,,,,,,,,,,
"1721516648.008","0.839",,,,,,,,,,,,,,,
"1721516648.11","0.94",,,,,,,,,,,,,,,
"1721516648.169",,"0","1.2",,,,,,,,,,,,,
"1721516648.17",,,,"1.27","-81","0.5",,,,,,,,,,
"1721516648.171",,,,,,,"-0.17","9.86","0",,,,,,,
"1721516648.172",,,,,,,,,,"-0.02","0","1.51","3.13",,,
"1721516648.173",,,,,,,,,,,,,,"1.82","1484290",
"1721516648.21","0.037",,,,,,,,,,,,,,,
"1721516648.312","0.138",,,,,,,,,,,,,,,
"1721516648.412","0.239",,,,,,,,,,,,,,,
"1721516648.514","0.34",,,,,,,,,,,,,,,
"1721516648.614","0.441",,,,,,,,,,,,,,,
"1721516648.716","0.542",,,,,,,,,,,,,,,
"1721516648.816","0.643",,,,,,,,,,,,,,,
"1721516648.917","0.744",,,,,,,,,,,,,,,
"1721516649.018","0.845",,,,,,,,,,,,,,,
"1721516649.119","0.946",,,,,,,,,,,,,,,
"1721516649.173",,"0","1.2","1.26",,,,,,,,,,,,
"1721516649.174",,,,,"-81","0.52","-0.16",,,,,,,,,
"1721516649.175",,,,,,,,"9.87","0.02","-0.01","0","1.51",,,,
"1721516649.176",,,,,,,,,,,,,"-3.14","1.82","1485294",
"1721516649.22","0.044",,,,,,,,,,,,,,,
"1721516649.321","0.145",,,,,,,,,,,,,,,
"1721516649.422","0.246",,,,,,,,,,,,,,,
"1721516649.523","0.347",,,,,,,,,,,,,,,
"1721516649.624","0.448",,,,,,,,,,,,,,,
"1721516649.725","0.549",,,,,,,,,,,,,,,
"1721516649.827","0.65",,,,,,,,,,,,,,,
"1721516649.927","0.751",,,,,,,,,,,,,,,
"1721516650.028","0.852",,,,,,,,,,,,,,,
"1721516650.129","0.953",,,,,,,,,,,,,,,
"1721516650.175",,"0","1.4",,,,,,,,,,,,,
"1721516650.176",,,,"1.28","-82","0.5",,,,,,,,,,
"1721516650.177",,,,,,,"-0.2","9.9","0.03","0.01",,,,,,
"1721516650.178",,,,,,,,,,,"0.01","1.51","-3.14",,,
"1721516650.179",,,,,,,,,,,,,,"1.83","1486298",
"1721516650.23","0.051",,,,,,,,,,,,,,,
"1721516650.331","0.152",,,,,,,,,,,,,,,
"1721516650.432","0.253",,,,,,,,,,,,,,,
"1721516650.533","0.354",,,,,,,,,,,,,,,
"1721516650.634","0.455",,,,,,,,,,,,,,,
"1721516650.735","0.556",,,,,,,,,,,,,,,
"1721516650.836","0.657",,,,,,,,,,,,,,,
"1721516650.937","0.758",,,,,,,,,,,,,,,
"1721516651.038","0.859",,,,,,,,,,,,,,,
"1721516651.139","0.96",,,,,,,,,,,,,,,
"1721516651.178",,"0","1.3",,,,,,,,,,,,,
"1721516651.179",,,,"1.27","-81","0.52",,,,,,,,,,
"1721516651.18",,,,,,,"-0.18","9.9","-0.01","-0.01","0",,,,,
"1721516651.181",,,,,,,,,,,,"1.51","3.13","1.84","1487300",
"1721516651.245","0.058",,,,,,,,,,,,,,,
"1721516651.341","0.159",,,,,,,,,,,,,,,
"1721516651.442","0.26",,,,,,,,,,,,,,,
"1721516651.543","0.361",,,,,,,,,,,,,,,
"1721516651.644","0.462",,,,,,,,,,,,,,,
"1721516651.745","0.563",,,,,,,,,,,,,,,
"1721516651.846","0.664",,,,,,,,,,,,,,,
"1721516651.947","0.765",,,,,,,,,,,,,,,
"1721516652.048","0.866",,,,,,,,,,,,,,,
"1721516652.149","0.967",,,,,,,,,,,,,,,
"1721516652.181",,"0","1.4",,,,,,,,,,,,,
"1721516652.182",,,,"1.29","-80","0.52",,,,,,,,,,
"1721516652.183",,,,,,,"-0.2","9.87","0",,,,,,,
"1721516652.184",,,,,,,,,,"0.03","-0.01","1.51","3.13",,,
"1721516652.185",,,,,,,,,,,,,,"1.84","1488304",
"1721516652.25","0.065",,,,,,,,,,,,,,,
"1721516652.352","0.166",,,,,,,,,,,,,,,
"1721516652.452","0.267",,,,,,,,,,,,,,,
"1721516652.553","0.368",,,,,,,,,,,,,,,
"1721516652.654","0.469",,,,,,,,,,,,,,,
"1721516652.755","0.57",,,,,,,,,,,,,,,
"1721516652.857","0.671",,,,,,,,,,,,,,,
"1721516652.957","0.772",,,,,,,,,,,,,,,
"1721516653.059","0.873",,,,,,,,,,,,,,,
"1721516653.159","0.974",,,,,,,,,,,,,,,
"1721516653.26","1.075",,,,,,,,,,,,,,,
"1721516653.361","1.176",,,,,,,,,,,,,,,
"1721516653.463","1.277",,,,,,,,,,,,,,,
"1721516653.563","1.378",,,,,,,,,,,,,,,
"1721516653.664","1.479",,,,,,,,,,,,,,,
"1721516653.765","1.58",,,,,,,,,,,,,,,
"1721516653.866","1.681",,,,,,,,,,,,,,,
"1721516653.967","1.782",,,,,,,,,,,,,,,
"1721516654.068","1.883",,,,,,,,,,,,,,,
"1721516654.112",,"0","1.2","1.27",,,,,,,,,,,,
"1721516654.113",,,,,"-81","0.49","-0.19",,,,,,,,,
"1721516654.114",,,,,,,,"9.89","0","0.01","0","1.51",,,,
"1721516654.115",,,,,,,,,,,,,"3.13","1.85","1489276",
"1721516654.169","0.054",,,,,,,,,,,,,,,
"1721516654.27","0.155",,,,,,,,,,,,,,,
"1721516654.371","0.256",,,,,,,,,,,,,,,
"1721516654.472","0.357",,,,,,,,,,,,,,,
"1721516654.574","0.458",,,,,,,,,,,,,,,
"1721516654.674","0.559",,,,,,,,,,,,,,,
"1721516654.775","0.66",,,,,,,,,,,,,,,
"1721516654.876","0.761",,,,,,,,,,,,,,,
"1721516654.977","0.862",,,,,,,,,,,,,,,
"1721516655.078","0.963",,,,,,,,,,,,,,,
"1721516655.114",,"0","1.2",,,,,,,,,,,,,
"1721516655.115",,,,"1.27","-81","0.52",,,,,,,,,,
"1721516655.116",,,,,,,"-0.15","9.92","0",,,,,,,
"1721516655.117",,,,,,,,,,"0","0.01","1.51",,,,
"1721516655.118",,,,,,,,,,,,,"3.14","1.85","1491236",
"1721516655.179","0.061",,,,,,,,,,,,,,,
"1721516655.28","0.162",,,,,,,,,,,,,,,
"1721516655.381","0.263",,,,,,,,,,,,,,,
"1721516655.482","0.364",,,,,,,,,,,,,,,
"1721516655.583","0.465",,,,,,,,,,,,,,,
"1721516655.684","0.566",,,,,,,,,,,,,,,
"1721516655.785","0.667",,,,,,,,,,,,,,,
"1721516655.886","0.768",,,,,,,,,,,,,,,
"1721516655.987","0.869",,,,,,,,,,,,,,,
"1721516656.089","0.97",,,,,,,,,,,,,,,
"1721516656.125",,"0","1.2","1.26","-80","0.48","-0.19","9.87","0.03","0.03",,,,,,
"1721516656.126",,,,,,,,,,,"0.02","1.51","-3.14","1.85","1492239",
"1721516656.189","0.068",,,,,,,,,,,,,,,
"1721516656.29","0.169",,,,,,,,,,,,,,,
"1721516656.391","0.27",,,,,,,,,,,,,,,
"1721516656.492","0.371",,,,,,,,,,,,,,,
"1721516656.593","0.472",,,,,,,,,,,,,,,
"1721516656.695","0.573",,,,,,,,,,,,,,,
"1721516656.795","0.674",,,,,,,,,,,,,,,
"1721516656.896","0.775",,,,,,,,,,,,,,,
"1721516656.997","0.876",,,,,,,,,,,,,,,
"1721516657.098","0.977",,,,,,,,,,,,,,,
"1721516657.12",,"0",,,,,,,,,,,,,,
"1721516657.121",,,"1.2","1.27",,,,,,,,,,,,
"1721516657.122",,,,,"-80","0.49","-0.19","9.85",,,,,,,,
"1721516657.123",,,,,,,,,"0","0","0","1.51","3.13",,,
"1721516657.124",,,,,,,,,,,,,,"1.86","1493242",
"1721516657.199","0.075",,,,,,,,,,,,,,,
"1721516657.3","0.176",,,,,,,,,,,,,,,
"1721516657.401","0.277",,,,,,,,,,,,,,,
"1721516657.502","0.378",,,,,,,,,,,,,,,
"1721516657.603","0.479",,,,,,,,,,,,,,,
"1721516657.704","0.58",,,,,,,,,,,,,,,
"1721516657.805","0.681",,,,,,,,,,,,,,,
"1721516657.906","0.782",,,,,,,,,,,,,,,
"1721516658.007","0.883",,,,,,,,,,,,,,,
"1721516658.108","0.984",,,,,,,,,,,,,,,
"1721516658.123",,"0","1.2","1.27",,,,,,,,,,,,
"1721516658.124",,,,,"-80","0.49","-0.16",,,,,,,,,
"1721516658.125",,,,,,,,"9.86","0","0.01","0",,,,,
"1721516658.126",,,,,,,,,,,,"1.51","3.13","1.86",,
"1721516658.127",,,,,,,,,,,,,,,"1494245",
"1721516658.209","0.083",,,,,,,,,,,,,,,
"1721516658.31","0.184",,,,,,,,,,,,,,,
"1721516658.411","0.285",,,,,,,,,,,,,,,
"1721516658.512","0.386",,,,,,,,,,,,,,,
"1721516658.613","0.487",,,,,,,,,,,,,,,
"1721516658.714","0.588",,,,,,,,,,,,,,,
"1721516658.815","0.689",,,,,,,,,,,,,,,
"1721516658.916","0.79",,,,,,,,,,,,,,,
"1721516659.017","0.891",,,,,,,,,,,,,,,
"1721516659.118","0.992",,,,,,,,,,,,,,,
"1721516659.126",,"0","1",,,,,,,,,,,,,
"1721516659.127",,,,"1.26","-81",,,,,,,,,,,
"1721516659.128",,,,,,"0.46","-0.15","9.87",,,,,,,,
"1721516659.129",,,,,,,,,"0.02","0.01","0.03",,,,,
"1721516659.13",,,,,,,,,,,,"1.51","3.14","1.86","1495248",
"1721516659.219","0.089",,,,,,,,,,,,,,,
"1721516659.321","0.19",,,,,,,,,,,,,,,
"1721516659.421","0.291",,,,,,,,,,,,,,,
"1721516659.522","0.392",,,,,,,,,,,,,,,
"1721516659.623","0.493",,,,,,,,,,,,,,,
"1721516659.724","0.594",,,,,,,,,,,,,,,
"1721516659.825","0.695",,,,,,,,,,,,,,,
"1721516659.926","0.796",,,,,,,,,,,,,,,
"1721516660.026","0.897",,,,,,,,,,,,,,,
"1721516660.128","0.998",,,,,,,,,,,,,,,
"1721516660.129",,"0","1.2",,,,,,,,,,,,,
"1721516660.13",,,,"1.27","-80",,,,,,,,,,,
"1721516660.131",,,,,,"0.51","-0.14","9.88","0","-0.01",,,,,,
"1721516660.132",,,,,,,,,,,"-0.02","1.51","3.13",,,
"1721516660.133",,,,,,,,,,,,,,"1.86","1496251",
"1721516660.228","0.096",,,,,,,,,,,,,,,
"1721516660.33","0.197",,,,,,,,,,,,,,,
"1721516660.43","0.298",,,,,,,,,,,,,,,
"1721516660.531","0.399",,,,,,,,,,,,,,,
"1721516660.633","0.5",,,,,,,,,,,,,,,
"1721516660.733","0.601",,,,,,,,,,,,,,,
"1721516660.835","0.702",,,,,,,,,,,,,,,
"1721516660.935","0.803",,,,,,,,,,,,,,,
"1721516661.036","0.904",,,,,,,,,,,,,,,
"1721516661.132",,"0","1.2","1.28","-80",,,,,,,,,,,
"1721516661.133",,,,,,"0.5","-0.15","9.87",,,,,,,,
"1721516661.134",,,,,,,,,"0","0","0.02","1.51",,,,
"1721516661.135",,,,,,,,,,,,,"-3.14","1.87","1497255",
"1721516661.137","0.002",,,,,,,,,,,,,,,
"1721516661.239","0.103",,,,,,,,,,,,,,,
"1721516661.339","0.204",,,,,,,,,,,,,,,
"1721516661.441","0.305",,,,,,,,,,,,,,,
"1721516661.541","0.406",,,,,,,,,,,,,,,
"1721516661.642","0.507",,,,,,,,,,,,,,,
"1721516661.743","0.608",,,,,,,,,,,,,,,
"1721516661.845","0.709",,,,,,,,,,,,,,,
"1721516661.945","0.81",,,,,,,,,,,,,,,
"1721516662.047","0.911",,,,,,,,,,,,,,,
"1721516662.134",,"0",,,,,,,,,,,,,,
"1721516662.135",,,"1.2",,,,,,,,,,,,,
"1721516662.136",,,,"1.28","-81","0.47",,,,,,,,,,
"1721516662.137",,,,,,,"-0.18","9.88",,,,,,,,
"1721516662.138",,,,,,,,,"0.01","-0.01","0.02","1.51","3.13",,,
"1721516662.139",,,,,,,,,,,,,,"1.88","1498257",
"1721516662.147","0.009",,,,,,,,,,,,,,,
"1721516662.249","0.11",,,,,,,,,,,,,,,
"1721516662.349","0.211",,,,,,,,,,,,,,,
"1721516662.45","0.312",,,,,,,,,,,,,,,
"1721516662.552","0.413",,,,,,,,,,,,,,,
"1721516662.652","0.514",,,,,,,,,,,,,,,
"1721516662.754","0.615",,,,,,,,,,,,,,,
"1721516662.854","0.716",,,,,,,,,,,,,,,
"1721516662.956","0.817",,,,,,,,,,,,,,,
"1721516663.056","0.918",,,,,,,,,,,,,,,
"1721516663.138",,"0","1.2","1.28",,,,,,,,,,,,
"1721516663.139",,,,,"-81","0.51","-0.15",,,,,,,,,
"1721516663.14",,,,,,,,"9.86","-0.01","0.01","-0.01",,,,,
"1721516663.141",,,,,,,,,,,,"1.51","3.13","1.87","1499260",
"1721516663.157","0.016",,,,,,,,,,,,,,,
"1721516663.258","0.117",,,,,,,,,,,,,,,
"1721516663.359","0.218",,,,,,,,,,,,,,,
"1721516663.46","0.319",,,,,,,,,,,,,,,
"1721516663.562","0.42",,,,,,,,,,,,,,,
"1721516663.662","0.521",,,,,,,,,,,,,,,
"1721516663.764","0.622",,,,,,,,,,,,,,,
"1721516663.864","0.723",,,,,,,,,,,,,,,
"1721516663.965","0.824",,,,,,,,,,,,,,,
"1721516664.066","0.925",,,,,,,,,,,,,,,
"1721516664.167","1.026",,,,,,,,,,,,,,,
"1721516664.268","1.127",,,,,,,,,,,,,,,
"1721516664.369","1.228",,,,,,,,,,,,,,,
"1721516664.471","1.329",,,,,,,,,,,,,,,
"1721516664.571","1.43",,,,,,,,,,,,,,,
"1721516664.673","1.531",,,,,,,,,,,,,,,
"1721516664.773","1.632",,,,,,,,,,,,,,,
"1721516664.875","1.733",,,,,,,,,,,,,,,
"1721516664.975","1.834",,,,,,,,,,,,,,,
"1721516665.068",,"0","1.2","1.28","-80","0.5",,,,,,,,,,
"1721516665.069",,,,,,,"-0.17","9.88","0.01","-0.04",,,,,,
"1721516665.07",,,,,,,,,,,"0","1.51","-3.13","1.88",,
"1721516665.071",,,,,,,,,,,,,,,"1500234",
"1721516665.08","0.006",,,,,,,,,,,,,,,
"1721516665.178","0.107",,,,,,,,,,,,,,,
"1721516665.279","0.208",,,,,,,,,,,,,,,
"1721516665.379","0.309",,,,,,,,,,,,,,,
"1721516665.48","0.41",,,,,,,,,,,,,,,
"1721516665.581","0.511",,,,,,,,,,,,,,,
"1721516665.688","0.612",,,,,,,,,,,,,,,
"1721516665.783","0.713",,,,,,,,,,,,,,,
"1721516665.884","0.814",,,,,,,,,,,,,,,
"1721516665.986","0.915",,,,,,,,,,,,,,,
"1721516666.071",,"0","1.1",,,,,,,,,,,,,
"1721516666.072",,,,"1.27","-81","0.49","-0.15",,,,,,,,,
"1721516666.073",,,,,,,,"9.84","0.02",,,,,,,
"1721516666.074",,,,,,,,,,"0","0.03","1.51","-3.13","1.88",,
"1721516666.075",,,,,,,,,,,,,,,"1502193",
"1721516666.086","0.012",,,,,,,,,,,,,,,
"1721516666.188","0.113",,,,,,,,,,,,,,,
"1721516666.288","0.214",,,,,,,,,,,,,,,
"1721516666.39","0.315",,,,,,,,,,,,,,,
"1721516666.49","0.416",,,,,,,,,,,,,,,
"1721516666.591","0.517",,,,,,,,,,,,,,,
"1721516666.692","0.618",,,,,,,,,,,,,,,
"1721516666.794","0.719",,,,,,,,,,,,,,,
"1721516666.894","0.82",,,,,,,,,,,,,,,
"1721516666.996","0.921",,,,,,,,,,,,,,,
"1721516667.074",,"0","1.1","1.27","-80",,,,,,,,,,,
"1721516667.075",,,,,,"0.52","-0.16","9.87",,,,,,,,
"1721516667.076",,,,,,,,,"0.03","0.03","0","1.51",,,,
"1721516667.077",,,,,,,,,,,,,"-3.14","1.89","1503196",
"1721516667.096","0.02",,,,,,,,,,,,,,,
"1721516667.197","0.121",,,,,,,,,,,,,,,
"1721516667.298","0.222",,,,,,,,,,,,,,,
"1721516667.399","0.323",,,,,,,,,,,,,,,
"1721516667.501","0.424",,,,,,,,,,,,,,,
"1721516667.601","0.525",,,,,,,,,,,,,,,
"1721516667.703","0.626",,,,,,,,,,,,,,,
"1721516667.803","0.727",,,,,,,,,,,,,,,
"1721516667.904","0.828",,,,,,,,,,,,,,,
"1721516668.005","0.929",,,,,,,,,,,,,,,
"1721516668.076",,"0",,,,,,,,,,,,,,
"1721516668.077",,,"1.1","1.26","-81","0.52",,,,,,,,,,
"1721516668.078",,,,,,,"-0.14","9.9","-0.03","0",,,,,,
"1721516668.079",,,,,,,,,,,"0.04","1.51","-3.13",,,
"1721516668.08",,,,,,,,,,,,,,"1.89","1504199",
"1721516668.107","0.027",,,,,,,,,,,,,,,
"1721516668.207","0.128",,,,,,,,,,,,,,,
"1721516668.309","0.229",,,,,,,,,,,,,,,
"1721516668.409","0.33",,,,,,,,,,,,,,,
"1721516668.51","0.431",,,,,,,,,,,,,,,
"1721516668.611","0.532",,,,,,,,,,,,,,,
"1721516668.713","0.633",,,,,,,,,,,,,,,
"1721516668.813","0.734",,,,,,,,,,,,,,,
"1721516668.914","0.835",,,,,,,,,,,,,,,
"1721516669.015","0.936",,,,,,,,,,,,,,,
"1721516669.078",,"0","1.2",,,,,,,,,,,,,
"1721516669.079",,,,"1.28","-80","0.49","-0.2",,,,,,,,,
"1721516669.08",,,,,,,,"9.86","-0.01","0.02","0.01",,,,,
"1721516669.081",,,,,,,,,,,,"1.51","3.14","1.9","1505202",
"1721516669.116","0.035",,,,,,,,,,,,,,,
"1721516669.218","0.136",,,,,,,,,,,,,,,
"1721516669.319","0.237",,,,,,,,,,,,,,,
"1721516669.42","0.338",,,,,,,,,,,,,,,
"1721516669.52","0.439",,,,,,,,,,,,,,,
"1721516669.622","0.54",,,,,,,,,,,,,,,
"1721516669.722","0.641",,,,,,,,,,,,,,,
"1721516669.824","0.742",,,,,,,,,,,,,,,
"1721516669.924","0.843",,,,,,,,,,,,,,,
"1721516670.025","0.944",,,,,,,,,,,,,,,
"1721516670.079",,"0",,,,,,,,,,,,,,
"1721516670.08",,,"1.3","1.29",,,,,,,,,,,,
"1721516670.081",,,,,"-80","0.52","-0.18","9.9",,,,,,,,
"1721516670.082",,,,,,,,,"-0.01","-0.02","0.02","1.51",,,,
"1721516670.083",,,,,,,,,,,,,"-3.13","1.9","1506203",
"1721516670.126","0.044",,,,,,,,,,,,,,,
"1721516670.228","0.145",,,,,,,,,,,,,,,
"1721516670.328","0.246",,,,,,,,,,,,,,,
"1721516670.429","0.347",,,,,,,,,,,,,,,
"1721516670.531","0.448",,,,,,,,,,,,,,,
"1721516670.631","0.549",,,,,,,,,,,,,,,
"1721516670.733","0.65",,,,,,,,,,,,,,,
"1721516670.834","0.751",,,,,,,,,,,,,,,
"1721516670.934","0.852",,,,,,,,,,,,,,,
"1721516671.035","0.953",,,,,,,,,,,,,,,
"1721516671.084",,"0","1.3",,,,,,,,,,,,,
"1721516671.085",,,,"1.29","-81","0.48","-0.2","9.87",,,,,,,,
"1721516671.086",,,,,,,,,"0","0","0","1.51",,,,
"1721516671.087",,,,,,,,,,,,,"-3.14","1.9","1507205",
"1721516671.137","0.049",,,,,,,,,,,,,,,
"1721516671.237","0.15",,,,,,,,,,,,,,,
"1721516671.338","0.251",,,,,,,,,,,,,,,
"1721516671.439","0.352",,,,,,,,,,,,,,,
"1721516671.54","0.453",,,,,,,,,,,,,,,
"1721516671.641","0.554",,,,,,,,,,,,,,,
"1721516671.742","0.655",,,,,,,,,,,,,,,
"1721516671.843","0.756",,,,,,,,,,,,,,,
"1721516671.945","0.857",,,,,,,,,,,,,,,
"1721516672.045","0.958",,,,,,,,,,,,,,,
"1721516672.086",,"0",,,,,,,,,,,,,,
"1721516672.087",,,"1.3","1.29","-80",,,,,,,,,,,
"1721516672.088",,,,,,"0.5","-0.15","9.85","0.01",,,,,,,
"1721516672.089",,,,,,,,,,"0","-0.01","1.51","-3.14",,,
"1721516672.09",,,,,,,,,,,,,,"1.9","1508209",
"1721516672.147","0.056",,,,,,,,,,,,,,,
"1721516672.248","0.157",,,,,,,,,,,,,,,
"1721516672.348","0.258",,,,,,,,,,,,,,,
"1721516672.45","0.359",,,,,,,,,,,,,,,
"1721516672.551","0.46",,,,,,,,,,,,,,,
"1721516672.652","0.561",,,,,,,,,,,,,,,
"1721516672.752","0.662",,,,,,,,,,,,,,,
"1721516672.854","0.763",,,,,,,,,,,,,,,
"1721516672.955","0.864",,,,,,,,,,,,,,,
"1721516673.056","0.965",,,,,,,,,,,,,,,
"1721516673.089",,"0",,,,,,,,,,,,,,
"1721516673.09",,,"1.1","1.27",,,,,,,,,,,,
"1721516673.091",,,,,"-81","0.51","-0.11","9.88",,,,,,,,
"1721516673.092",,,,,,,,,"-0.04","0","-0.01",,,,,
"1721516673.093",,,,,,,,,,,,"1.51","3.14","1.9","1509212",
"1721516673.156","0.064",,,,,,,,,,,,,,,
"1721516673.257","0.165",,,,,,,,,,,,,,,
"1721516673.358","0.266",,,,,,,,,,,,,,,
"1721516673.46","0.367",,,,,,,,,,,,,,,
"1721516673.56","0.468",,,,,,,,,,,,,,,
"1721516673.662","0.569",,,,,,,,,,,,,,,
"1721516673.763","0.67",,,,,,,,,,,,,,,
"1721516673.863","0.771",,,,,,,,,,,,,,,
"1721516673.965","0.872",,,,,,,,,,,,,,,
"1721516674.065","0.973",,,,,,,,,,,,,,,
"1721516674.092",,"0",,,,,,,,,,,,,,
"1721516674.093",,,"1","1.27","-80",,,,,,,,,,,
"1721516674.094",,,,,,"0.49","-0.12","9.88","0.02",,,,,,,
"1721516674.095",,,,,,,,,,"0.02","-0.03","1.51","-3.13",,,
"1721516674.096",,,,,,,,,,,,,,"1.9","1510215",
"1721516674.166","0.07",,,,,,,,,,,,,,,
"1721516674.267","0.171",,,,,,,,,,,,,,,
"1721516674.369","0.272",,,,,,,,,,,,,,,
"1721516674.469","0.373",,,,,,,,,,,,,,,
"1721516674.571","0.474",,,,,,,,,,,,,,,
"1721516674.671","0.575",,,,,,,,,,,,,,,
"1721516674.773","0.676",,,,,,,,,,,,,,,
"1721516674.873","0.777",,,,,,,,,,,,,,,
"1721516674.975","0.878",,,,,,,,,,,,,,,
"1721516675.075","0.979",,,,,,,,,,,,,,,
"1721516675.177","1.08",,,,,,,,,,,,,,,
"1721516675.277","1.181",,,,,,,,,,,,,,,
"1721516675.379","1.282",,,,,,,,,,,,,,,
"1721516675.479","1.383",,,,,,,,,,,,,,,
"1721516675.58","1.484",,,,,,,,,,,,,,,
"1721516675.681","1.585",,,,,,,,,,,,,,,
"1721516675.782","1.686",,,,,,,,,,,,,,,
"1721516675.883","1.787",,,,,,,,,,,,,,,
"1721516675.984","1.888",,,,,,,,,,,,,,,
"1721516676.028",,"0","1.1","1.28",,,,,,,,,,,,
"1721516676.029",,,,,"-81","0.49",,,,,,,,,,
"1721516676.03",,,,,,,"-0.14","9.86","-0.04","-0.01","-0.01",,,,,
"1721516676.031",,,,,,,,,,,,"1.51","-3.13","1.9","1511191",
"1721516676.085","0.054",,,,,,,,,,,,,,,
"1721516676.186","0.155",,,,,,,,,,,,,,,
"1721516676.288","0.256",,,,,,,,,,,,,,,
"1721516676.388","0.357",,,,,,,,,,,,,,,
"1721516676.49","0.458",,,,,,,,,,,,,,,
"1721516676.59","0.559",,,,,,,,,,,,,,,
"1721516676.691","0.66",,,,,,,,,,,,,,,
"1721516676.792","0.761",,,,,,,,,,,,,,,
"1721516676.894","0.862",,,,,,,,,,,,,,,
"1721516676.994","0.963",,,,,,,,,,,,,,,
"1721516677.031",,"0","1.1","1.28","-81",,,,,,,,,,,
"1721516677.032",,,,,,"0.52","-0.2","9.89","0.01","0.01",,,,,,
"1721516677.033",,,,,,,,,,,"0","1.51",,,,
"1721516677.034",,,,,,,,,,,,,"-3.13","1.91","1513153",
"1721516677.096","0.062",,,,,,,,,,,,,,,
"1721516677.197","0.163",,,,,,,,,,,,,,,
"1721516677.297","0.264",,,,,,,,,,,,,,,
"1721516677.398","0.365",,,,,,,,,,,,,,,
"1721516677.499","0.466",,,,,,,,,,,,,,,
"1721516677.601","0.567",,,,,,,,,,,,,,,
"1721516677.701","0.668",,,,,,,,,,,,,,,
"1721516677.803","0.769",,,,,,,,,,,,,,,
"1721516677.903","0.87",,,,,,,,,,,,,,,
"1721516678.005","0.971",,,,,,,,,,,,,,,
"1721516678.034",,"0","1.1",,,,,,,,,,,,,
"1721516678.035",,,,"1.28","-81","0.53",,,,,,,,,,
"1721516678.036",,,,,,,"-0.16","9.89","0","-0.03",,,,,,
"1721516678.037",,,,,,,,,,,"0","1.52","-3.13","1.91","1514155",
"1721516678.105","0.068",,,,,,,,,,,,,,,
"1721516678.207","0.169",,,,,,,,,,,,,,,
"1721516678.307","0.27",,,,,,,,,,,,,,,
"1721516678.408","0.371",,,,,,,,,,,,,,,
"1721516678.509","0.472",,,,,,,,,,,,,,,
"1721516678.611","0.573",,,,,,,,,,,,,,,
"1721516678.712","0.674",,,,,,,,,,,,,,,
"1721516678.812","0.775",,,,,,,,,,,,,,,
"1721516678.913","0.876",,,,,,,,,,,,,,,
"1721516679.014","0.977",,,,,,,,,,,,,,,
"1721516679.035",,"0",,,,,,,,,,,,,,
"1721516679.036",,,"1","1.28","-80",,,,,,,,,,,
"1721516679.037",,,,,,"0.47","-0.23","9.86","0",,,,,,,
"1721516679.038",,,,,,,,,,"0","0","1.51",,,,
"1721516679.039",,,,,,,,,,,,,"-3.13","1.91","1515159",
"1721516679.116","0.077",,,,,,,,,,,,,,,
"1721516679.216","0.178",,,,,,,,,,,,,,,
"1721516679.317","0.279",,,,,,,,,,,,,,,
"1721516679.419","0.38",,,,,,,,,,,,,,,
"1721516679.519","0.481",,,,,,,,,,,,,,,
"1721516679.621","0.582",,,,,,,,,,,,,,,
"1721516679.722","0.683",,,,,,,,,,,,,,,
"1721516679.822","0.784",,,,,,,,,,,,,,,
"1721516679.923","0.885",,,,,,,,,,,,,,,
"1721516680.024","0.986",,,,,,,,,,,,,,,
"1721516680.04",,"0","0.9",,,,,,,,,,,,,
"1721516680.041",,,,"1.27","-81","0.51",,,,,,,,,,
"1721516680.042",,,,,,,"-0.19","9.89","0",,,,,,,
"1721516680.043",,,,,,,,,,"0","0.02","1.51",,,,
"1721516680.044",,,,,,,,,,,,,"-3.13","1.93","1516161",
"1721516680.126","0.082",,,,,,,,,,,,,,,
"1721516680.227","0.183",,,,,,,,,,,,,,,
"1721516680.328","0.284",,,,,,,,,,,,,,,
"1721516680.428","0.385",,,,,,,,,,,,,,,
"1721516680.529","0.486",,,,,,,,,,,,,,,
"1721516680.63","0.587",,,,,,,,,,,,,,,
"1721516680.731","0.688",,,,,,,,,,,,,,,
"1721516680.833","0.789",,,,,,,,,,,,,,,
"1721516680.933","0.89",,,,,,,,,,,,,,,
"1721516681.034","0.991",,,,,,,,,,,,,,,
"1721516681.043",,"0","1",,,,,,,,,,,,,
"1721516681.044",,,,"1.28","-80","0.49",,,,,,,,,,
"1721516681.045",,,,,,,"-0.16","9.87","0.02",,,,,,,
"1721516681.046",,,,,,,,,,"-0.03","0.02","1.51",,,,
"1721516681.047",,,,,,,,,,,,,"-3.13","1.93","1517166",
"1721516681.135","0.088",,,,,,,,,,,,,,,
"1721516681.237","0.189",,,,,,,,,,,,,,,
"1721516681.337","0.29",,,,,,,,,,,,,,,
"1721516681.439","0.391",,,,,,,,,,,,,,,
"1721516681.539","0.492",,,,,,,,,,,,,,,
"1721516681.641","0.593",,,,,,,,,,,,,,,
"1721516681.741","0.694",,,,,,,,,,,,,,,
"1721516681.843","0.795",,,,,,,,,,,,,,,
"1721516681.943","0.896",,,,,,,,,,,,,,,
"1721516682.045","0.997",,,,,,,,,,,,,,,
"1721516682.048",,"0","1","1.28",,,,,,,,,,,,
"1721516682.049",,,,,"-79","0.5","-0.15",,,,,,,,,
"1721516682.05",,,,,,,,"9.87","0","0.02","0.05",,,,,
"1721516682.051",,,,,,,,,,,,"1.51","-3.13","1.93","1518169",
"1721516682.145","0.094",,,,,,,,,,,,,,,
"1721516682.246","0.195",,,,,,,,,,,,,,,
"1721516682.348","0.296",,,,,,,,,,,,,,,
"1721516682.448","0.397",,,,,,,,,,,,,,,
"1721516682.549","0.498",,,,,,,,,,,,,,,
"1721516682.65","0.599",,,,,,,,,,,,,,,
"1721516682.751","0.7",,,,,,,,,,,,,,,
"1721516682.852","0.801",,,,,,,,,,,,,,,
"1721516682.954","0.902",,,,,,,,,,,,,,,
"1721516683.051",,"0","1","1.28",,,,,,,,,,,,
"1721516683.052",,,,,"-80","0.47","-0.17",,,,,,,,,
"1721516683.053",,,,,,,,"9.87","0.01","0","0.03",,,,,
"1721516683.054",,,,,,,,,,,,"1.51","-3.13",,,
"1721516683.055","0.001",,,,,,,,,,,,,"1.94","1519173",
"1721516683.156","0.102",,,,,,,,,,,,,,,
"1721516683.256","0.203",,,,,,,,,,,,,,,
"1721516683.358","0.304",,,,,,,,,,,,,,,
"1721516683.458","0.405",,,,,,,,,,,,,,,
"1721516683.56","0.506",,,,,,,,,,,,,,,
"1721516683.66","0.607",,,,,,,,,,,,,,,
"1721516683.762","0.708",,,,,,,,,,,,,,,
"1721516683.862","0.809",,,,,,,,,,,,,,,
"1721516683.963","0.91",,,,,,,,,,,,,,,
"1721516684.052",,"0",,,,,,,,,,,,,,
"1721516684.053",,,"1.3","1.3","-79",,,,,,,,,,,
"1721516684.054",,,,,,"0.49","-0.18","9.88",,,,,,,,
"1721516684.055",,,,,,,,,"0.04","0","0.02","1.52",,,,
"1721516684.056",,,,,,,,,,,,,"-3.13","1.94","1520177",
"1721516684.064","0.008",,,,,,,,,,,,,,,
"1721516684.165","0.109",,,,,,,,,,,,,,,
"1721516684.267","0.21",,,,,,,,,,,,,,,
"1721516684.367","0.311",,,,,,,,,,,,,,,
"1721516684.469","0.412",,,,,,,,,,,,,,,
"1721516684.569","0.513",,,,,,,,,,,,,,,
"1721516684.671","0.614",,,,,,,,,,,,,,,
"1721516684.771","0.715",,,,,,,,,,,,,,,
"1721516684.872","0.816",,,,,,,,,,,,,,,
"1721516684.973","0.917",,,,,,,,,,,,,,,
"1721516685.055",,"0","1.5","1.31",,,,,,,,,,,,
"1721516685.056",,,,,"-80","0.48","-0.07",,,,,,,,,
"1721516685.057",,,,,,,,"9.87","0","-0.02","0","1.51",,,,
"1721516685.058",,,,,,,,,,,,,"-3.13","1.95","1521179",
"1721516685.075","0.016",,,,,,,,,,,,,,,
"1721516685.176","0.117",,,,,,,,,,,,,,,
"1721516685.277","0.218",,,,,,,,,,,,,,,
"1721516685.377","0.319",,,,,,,,,,,,,,,
"1721516685.478","0.42",,,,,,,,,,,,,,,
"1721516685.579","0.521",,,,,,,,,,,,,,,
"1721516685.681","0.622",,,,,,,,,,,,,,,
"1721516685.782","0.723",,,,,,,,,,,,,,,
"1721516685.882","0.824",,,,,,,,,,,,,,,
"1721516685.983","0.925",,,,,,,,,,,,,,,
"1721516686.084","1.026",,,,,,,,,,,,,,,
"1721516686.186","1.127",,,,,,,,,,,,,,,
"1721516686.286","1.228",,,,,,,,,,,,,,,
"1721516686.388","1.329",,,,,,,,,,,,,,,
"1721516686.488","1.43",,,,,,,,,,,,,,,
"1721516686.59","1.531",,,,,,,,,,,,,,,
"1721516686.69","1.632",,,,,,,,,,,,,,,
"1721516686.791","1.733",,,,,,,,,,,,,,,
"1721516686.892","1.834",,,,,,,,,,,,,,,
"1721516686.985",,"0","1.7",,,,,,,,,,,,,
"1721516686.986",,,,"1.32","-80",,,,,,,,,,,
"1721516686.987",,,,,,"0.49","-0.2",,,,,,,,,
"1721516686.988",,,,,,,,"9.86","-0.01","0","0",,,,,
"1721516686.989",,,,,,,,,,,,"1.52","-3.13","1.95","1522149",
"1721516686.993","0.005",,,,,,,,,,,,,,,
"1721516687.095","0.106",,,,,,,,,,,,,,,
"1721516687.195","0.207",,,,,,,,,,,,,,,
"1721516687.297","0.308",,,,,,,,,,,,,,,
"1721516687.397","0.409",,,,,,,,,,,,,,,
"1721516687.499","0.51",,,,,,,,,,,,,,,
"1721516687.599","0.611",,,,,,,,,,,,,,,
"1721516687.701","0.712",,,,,,,,,,,,,,,
"1721516687.801","0.813",,,,,,,,,,,,,,,
"1721516687.903","0.914",,,,,,,,,,,,,,,
"1721516687.99",,"0",,,,,,,,,,,,,,
"1721516687.991",,,"2.1","1.34","-80",,,,,,,,,,,
"1721516687.992",,,,,,"0.55","-0.22","9.86",,,,,,,,
"1721516687.993",,,,,,,,,"0","-0.01","0",,,,,
"1721516687.994",,,,,,,,,,,,"1.51","-3.13","1.97",,
"1721516687.995",,,,,,,,,,,,,,,"1524111",
"1721516688.003","0.009",,,,,,,,,,,,,,,
"1721516688.105","0.11",,,,,,,,,,,,,,,
"1721516688.205","0.211",,,,,,,,,,,,,,,
"1721516688.307","0.312",,,,,,,,,,,,,,,
"1721516688.407","0.413",,,,,,,,,,,,,,,
"1721516688.508","0.514",,,,,,,,,,,,,,,
"1721516688.609","0.615",,,,,,,,,,,,,,,
"1721516688.711","0.716",,,,,,,,,,,,,,,
"1721516688.811","0.817",,,,,,,,,,,,,,,
"1721516688.912","0.918",,,,,,,,,,,,,,,
"1721516688.995",,"0",,,,,,,,,,,,,,
"1721516688.996",,,"1.8","1.32",,,,,,,,,,,,
"1721516688.997",,,,,"-80","0.53","-0.24","9.91",,,,,,,,
"1721516688.998",,,,,,,,,"0","0","0","1.52",,,,
"1721516688.999",,,,,,,,,,,,,"-3.13","1.97","1525116",
"1721516689.013","0.015",,,,,,,,,,,,,,,
"1721516689.114","0.116",,,,,,,,,,,,,,,
"1721516689.216","0.217",,,,,,,,,,,,,,,
"1721516689.316","0.318",,,,,,,,,,,,,,,
"1721516689.418","0.419",,,,,,,,,,,,,,,
"1721516689.518","0.52",,,,,,,,,,,,,,,
"1721516689.62","0.621",,,,,,,,,,,,,,,
"1721516689.72","0.722",,,,,,,,,,,,,,,
"1721516689.821","0.823",,,,,,,,,,,,,,,
"1721516689.922","0.924",,,,,,,,,,,,,,,
"1721516689.999",,"0",,,,,,,,,,,,,,
"1721516690",,,"1.4","1.29","-81",,,,,,,,,,,
"1721516690.001",,,,,,"0.51","-0.21","9.9",,,,,,,,
"1721516690.002",,,,,,,,,"0.01","0.02","-0.01","1.51",,,,
"1721516690.003",,,,,,,,,,,,,"3.14","1.97",,
"1721516690.004",,,,,,,,,,,,,,,"1526121",
"1721516690.024","0.021",,,,,,,,,,,,,,,
"1721516690.124","0.122",,,,,,,,,,,,,,,
"1721516690.226","0.223",,,,,,,,,,,,,,,
"1721516690.326","0.324",,,,,,,,,,,,,,,
"1721516690.427","0.425",,,,,,,,,,,,,,,
"1721516690.528","0.526",,,,,,,,,,,,,,,
"1721516690.629","0.627",,,,,,,,,,,,,,,
"1721516690.731","0.728",,,,,,,,,,,,,,,
"1721516690.831","0.829",,,,,,,,,,,,,,,
"1721516690.933","0.93",,,,,,,,,,,,,,,
"1721516691.003",,"0","1.6",,,,,,,,,,,,,
"1721516691.004",,,,"1.3","-79","0.5","-0.19",,,,,,,,,
"1721516691.005",,,,,,,,"9.85","0","0",,,,,,
"1721516691.006",,,,,,,,,,,"0","1.52","-3.13","1.97",,
"1721516691.007",,,,,,,,,,,,,,,"1527126",
"1721516691.033","0.027",,,,,,,,,,,,,,,
"1721516691.135","0.128",,,,,,,,,,,,,,,
"1721516691.235","0.229",,,,,,,,,,,,,,,
"1721516691.337","0.33",,,,,,,,,,,,,,,
"1721516691.437","0.431",,,,,,,,,,,,,,,
"1721516691.539","0.532",,,,,,,,,,,,,,,
"1721516691.639","0.633",,,,,,,,,,,,,,,
"1721516691.741","0.734",,,,,,,,,,,,,,,
"1721516691.841","0.835",,,,,,,,,,,,,,,
"1721516691.943","0.936",,,,,,,,,,,,,,,
"1721516692.005",,"0","1.7","1.3","-79",,,,,,,,,,,
"1721516692.006",,,,,,"0.52","-0.21","9.88",,,,,,,,
"1721516692.007",,,,,,,,,"0","0.02",,,,,,
"1721516692.008",,,,,,,,,,,"0","1.51","3.13","1.97",,
"1721516692.009",,,,,,,,,,,,,,,"1528128",
"1721516692.043","0.036",,,,,,,,,,,,,,,
"1721516692.144","0.137",,,,,,,,,,,,,,,
"1721516692.245","0.238",,,,,,,,,,,,,,,
"1721516692.346","0.339",,,,,,,,,,,,,,,
"1721516692.447","0.44",,,,,,,,,,,,,,,
"1721516692.548","0.541",,,,,,,,,,,,,,,
"1721516692.649","0.642",,,,,,,,,,,,,,,
"1721516692.75","0.743",,,,,,,,,,,,,,,
"1721516692.852","0.844",,,,,,,,,,,,,,,
"1721516692.952","0.945",,,,,,,,,,,,,,,
"1721516693.008",,"0",,,,,,,,,,,,,,
"1721516693.009",,,"1.8","1.3","-79","0.51",,,,,,,,,,
"1721516693.01",,,,,,,"-0.2","9.87",,,,,,,,
"1721516693.011",,,,,,,,,"0","-0.01","0.01","1.51",,,,
"1721516693.012",,,,,,,,,,,,,"-3.13","1.98","1529130",
"1721516693.054","0.042",,,,,,,,,,,,,,,
"1721516693.154","0.143",,,,,,,,,,,,,,,
"1721516693.256","0.244",,,,,,,,,,,,,,,
"1721516693.356","0.345",,,,,,,,,,,,,,,
"1721516693.458","0.446",,,,,,,,,,,,,,,
"1721516693.558","0.547",,,,,,,,,,,,,,,
"1721516693.66","0.648",,,,,,,,,,,,,,,
"1721516693.76","0.749",,,,,,,,,,,,,,,
"1721516693.862","0.85",,,,,,,,,,,,,,,
"1721516693.962","0.951",,,,,,,,,,,,,,,
"1721516694.012",,"0","1.4",,,,,,,,,,,,,
"1721516694.013",,,,"1.26","-79","0.5","-0.15",,,,,,,,,
"1721516694.014",,,,,,,,"9.86","-0.03","0","0",,,,,
"1721516694.015",,,,,,,,,,,,"1.51","3.13","1.98",,
"1721516694.016",,,,,,,,,,,,,,,"1530133",
"1721516694.063","0.048",,,,,,,,,,,,,,,
"1721516694.165","0.149",,,,,,,,,,,,,,,
"1721516694.265","0.25",,,,,,,,,,,,,,,
"1721516694.367","0.351",,,,,,,,,,,,,,,
"1721516694.467","0.452",,,,,,,,,,,,,,,
"1721516694.569","0.553",,,,,,,,,,,,,,,
"1721516694.672","0.654",,,,,,,,,,,,,,,
"1721516694.77","0.755",,,,,,,,,,,,,,,
"1721516694.871","0.856",,,,,,,,,,,,,,,
"1721516694.973","0.957",,,,,,,,,,,,,,,
"1721516695.016",,"0","1.7",,,,,,,,,,,,,
"1721516695.017",,,,"1.28","-79",,,,,,,,,,,
"1721516695.018",,,,,,"0.49","-0.18","9.89",,,,,,,,
"1721516695.019",,,,,,,,,"0","0","0.01","1.51",,,,
"1721516695.02",,,,,,,,,,,,,"-3.13","1.98",,
"1721516695.021",,,,,,,,,,,,,,,"1531137",
"1721516695.073","0.053",,,,,,,,,,,,,,,
"1721516695.175","0.154",,,,,,,,,,,,,,,
"1721516695.275","0.255",,,,,,,,,,,,,,,
"1721516695.376","0.356",,,,,,,,,,,,,,,
"1721516695.477","0.457",,,,,,,,,,,,,,,
"1721516695.578","0.558",,,,,,,,,,,,,,,
"1721516695.68","0.659",,,,,,,,,,,,,,,
"1721516695.78","0.76",,,,,,,,,,,,,,,
"1721516695.882","0.861",,,,,,,,,,,,,,,
"1721516695.982","0.962",,,,,,,,,,,,,,,
"1721516696.02",,"0","1.5",,,,,,,,,,,,,
"1721516696.021",,,,"1.27","-79","0.57","-0.24","9.89",,,,,,,,
"1721516696.022",,,,,,,,,"0","0","0","1.51","3.13",,,
"1721516696.023",,,,,,,,,,,,,,"1.99","1532143",
"1721516696.084","0.061",,,,,,,,,,,,,,,
"1721516696.184","0.162",,,,,,,,,,,,,,,
"1721516696.286","0.263",,,,,,,,,,,,,,,
"1721516696.387","0.364",,,,,,,,,,,,,,,
"1721516696.487","0.465",,,,,,,,,,,,,,,
"1721516696.588","0.566",,,,,,,,,,,,,,,
"1721516696.69","0.667",,,,,,,,,,,,,,,
"1721516696.79","0.768",,,,,,,,,,,,,,,
"1721516696.892","0.869",,,,,,,,,,,,,,,
"1721516696.992","0.97",,,,,,,,,,,,,,,
"1721516697.093","1.071",,,,,,,,,,,,,,,
"1721516697.195","1.172",,,,,,,,,,,,,,,
"1721516697.295","1.273",,,,,,,,,,,,,,,
"1721516697.396","1.374",,,,,,,,,,,,,,,
"1721516697.497","1.475",,,,,,,,,,,,,,,
"1721516697.599","1.576",,,,,,,,,,,,,,,
"1721516697.699","1.677",,,,,,,,,,,,,,,
"1721516697.8","1.778",,,,,,,,,,,,,,,
"1721516697.901","1.879",,,,,,,,,,,,,,,
"1721516697.943",,"0","1.2","1.24","-80",,,,,,,,,,,
"1721516697.944",,,,,,"0.54","-0.2","9.87",,,,,,,,
"1721516697.945",,,,,,,,,"-0.02","-0.01","0.02",,,,,
"1721516697.946",,,,,,,,,,,,"1.51","-3.14","2","1533107",
"1721516698.003","0.056",,,,,,,,,,,,,,,
"1721516698.103","0.157",,,,,,,,,,,,,,,
"1721516698.205","0.258",,,,,,,,,,,,,,,
"1721516698.305","0.359",,,,,,,,,,,,,,,
"1721516698.407","0.46",,,,,,,,,,,,,,,
"1721516698.507","0.561",,,,,,,,,,,,,,,
"1721516698.609","0.662",,,,,,,,,,,,,,,
"1721516698.709","0.763",,,,,,,,,,,,,,,
"1721516698.811","0.864",,,,,,,,,,,,,,,
"1721516698.911","0.965",,,,,,,,,,,,,,,
"1721516698.946",,"0","1.2",,,,,,,,,,,,,
"1721516698.947",,,,"1.25","-80","0.47","-0.12",,,,,,,,,
"1721516698.948",,,,,,,,"9.89","-0.01","-0.02","0",,,,,
"1721516698.949",,,,,,,,,,,,"1.51","-3.13","2",,
"1721516698.95",,,,,,,,,,,,,,,"1535069",
"1721516699.012","0.063",,,,,,,,,,,,,,,
"1721516699.114","0.164",,,,,,,,,,,,,,,
"1721516699.214","0.265",,,,,,,,,,,,,,,
"1721516699.315","0.366",,,,,,,,,,,,,,,
"1721516699.416","0.467",,,,,,,,,,,,,,,
"1721516699.518","0.568",,,,,,,,,,,,,,,
"1721516699.619","0.669",,,,,,,,,,,,,,,
"1721516699.72","0.77",,,,,,,,,,,,,,,
"1721516699.82","0.871",,,,,,,,,,,,,,,
"1721516699.921","0.972",,,,,,,,,,,,,,,
"1721516699.948",,"0","1.5",,,,,,,,,,,,,
"1721516699.949",,,,"1.27","-79","0.51","-0.14",,,,,,,,,
"1721516699.95",,,,,,,,"9.89","0.03",,,,,,,
"1721516699.951",,,,,,,,,,"0.01","-0.01","1.51","-3.14",,,
"1721516699.952",,,,,,,,,,,,,,"2","1536072",
"1721516700.022","0.071",,,,,,,,,,,,,,,
"1721516700.123","0.172",,,,,,,,,,,,,,,
"1721516700.224","0.273",,,,,,,,,,,,,,,
"1721516700.326","0.374",,,,,,,,,,,,,,,
"1721516700.426","0.475",,,,,,,,,,,,,,,
"1721516700.528","0.576",,,,,,,,,,,,,,,
"1721516700.628","0.677",,,,,,,,,,,,,,,
"1721516700.73","0.778",,,,,,,,,,,,,,,
"1721516700.831","0.879",,,,,,,,,,,,,,,
"1721516700.932","0.98",,,,,,,,,,,,,,,
"1721516700.951",,"0","1.8",,,,,,,,,,,,,
"1721516700.952",,,,"1.28","-79","0.5",,,,,,,,,,
"1721516700.953",,,,,,,"-0.18","9.9","0.03","0.02","0",,,,,
"1721516700.954",,,,,,,,,,,,"1.51","-3.13",,,
"1721516700.955",,,,,,,,,,,,,,"2.01","1537073",
"1721516701.032","0.078",,,,,,,,,,,,,,,
"1721516701.133","0.179",,,,,,,,,,,,,,,
"1721516701.235","0.28",,,,,,,,,,,,,,,
"1721516701.335","0.381",,,,,,,,,,,,,,,
"1721516701.437","0.482",,,,,,,,,,,,,,,
"1721516701.537","0.583",,,,,,,,,,,,,,,
"1721516701.639","0.684",,,,,,,,,,,,,,,
"1721516701.739","0.785",,,,,,,,,,,,,,,
"1721516701.841","0.886",,,,,,,,,,,,,,,
"1721516701.941","0.987",,,,,,,,,,,,,,,
"1721516701.953",,"0","1.6",,,,,,,,,,,,,
"1721516701.954",,,,"1.26","-79","0.5","-0.13",,,,,,,,,
"1721516701.955",,,,,,,,"9.85","-0.04","0",,,,,,
"1721516701.956",,,,,,,,,,,"-0.01","1.51","-3.14","2.03",,
"1721516701.957",,,,,,,,,,,,,,,"1538076",
"1721516702.043","0.086",,,,,,,,,,,,,,,
"1721516702.144","0.187",,,,,,,,,,,,,,,
"1721516702.245","0.288",,,,,,,,,,,,,,,
"1721516702.345","0.389",,,,,,,,,,,,,,,
"1721516702.446","0.49",,,,,,,,,,,,,,,
"1721516702.548","0.591",,,,,,,,,,,,,,,
"1721516702.648","0.692",,,,,,,,,,,,,,,
"1721516702.75","0.793",,,,,,,,,,,,,,,
"1721516702.85","0.894",,,,,,,,,,,,,,,
"1721516702.952","0.995",,,,,,,,,,,,,,,
"1721516702.955",,"0","1.6",,,,,,,,,,,,,
"1721516702.956",,,,"1.26","-80","0.52",,,,,,,,,,
"1721516702.957",,,,,,,"-0.23","9.87","0",,,,,,,
"1721516702.958",,,,,,,,,,"-0.03","0","1.51","-3.13",,,
"1721516702.959",,,,,,,,,,,,,,"2.03","1539078",
"1721516703.052","0.094",,,,,,,,,,,,,,,
"1721516703.153","0.195",,,,,,,,,,,,,,,
"1721516703.254","0.296",,,,,,,,,,,,,,,
"1721516703.356","0.397",,,,,,,,,,,,,,,
"1721516703.456","0.498",,,,,,,,,,,,,,,
"1721516703.557","0.599",,,,,,,,,,,,,,,
"1721516703.658","0.7",,,,,,,,,,,,,,,
"1721516703.76","0.801",,,,,,,,,,,,,,,
"1721516703.86","0.902",,,,,,,,,,,,,,,
"1721516703.956",,"0",,,,,,,,,,,,,,
"1721516703.957",,,"1.7","1.27","-81",,,,,,,,,,,
"1721516703.958",,,,,,"0.45","-0.07","9.92",,,,,,,,
"1721516703.959",,,,,,,,,"-0.02","0","0","1.51",,,,
"1721516703.96",,,,,,,,,,,,,"-3.13","2.02","1540080",
"1721516703.961","0.001",,,,,,,,,,,,,,,
"1721516704.063","0.102",,,,,,,,,,,,,,,
"1721516704.163","0.203",,,,,,,,,,,,,,,
"1721516704.264","0.304",,,,,,,,,,,,,,,
"1721516704.365","0.405",,,,,,,,,,,,,,,
"1721516704.466","0.506",,,,,,,,,,,,,,,
"1721516704.567","0.607",,,,,,,,,,,,,,,
"1721516704.668","0.708",,,,,,,,,,,,,,,
"1721516704.77","0.809",,,,,,,,,,,,,,,
"1721516704.87","0.91",,,,,,,,,,,,,,,
"1721516704.961",,"0","1.5","1.25",,,,,,,,,,,,
"1721516704.962",,,,,"-81","0.52","-0.15",,,,,,,,,
"1721516704.963",,,,,,,,"9.89","-0.01",,,,,,,
"1721516704.964",,,,,,,,,,"0","0","1.51","3.14","2.03",,
"1721516704.966",,,,,,,,,,,,,,,"1541082",
"1721516704.971","0.007",,,,,,,,,,,,,,,
"1721516705.073","0.108",,,,,,,,,,,,,,,
"1721516705.173","0.209",,,,,,,,,,,,,,,
"1721516705.274","0.31",,,,,,,,,,,,,,,
"1721516705.375","0.411",,,,,,,,,,,,,,,
"1721516705.476","0.512",,,,,,,,,,,,,,,
"1721516705.578","0.613",,,,,,,,,,,,,,,
"1721516705.678","0.714",,,,,,,,,,,,,,,
"1721516705.779","0.815",,,,,,,,,,,,,,,
"1721516705.88","0.916",,,,,,,,,,,,,,,
"1721516705.965",,"0","1.6",,,,,,,,,,,,,
"1721516705.966",,,,"1.26","-81",,,,,,,,,,,
"1721516705.967",,,,,,"0.5","-0.05","9.88","-0.01",,,,,,,
"1721516705.968",,,,,,,,,,"0.01","0","1.51","3.14",,,
"1721516705.969",,,,,,,,,,,,,,"2.04","1542086",
"1721516705.981","0.012",,,,,,,,,,,,,,,
"1721516706.082","0.113",,,,,,,,,,,,,,,
"1721516706.184","0.214",,,,,,,,,,,,,,,
"1721516706.284","0.315",,,,,,,,,,,,,,,
"1721516706.385","0.416",,,,,,,,,,,,,,,
"1721516706.486","0.517",,,,,,,,,,,,,,,
"1721516706.588","0.618",,,,,,,,,,,,,,,
"1721516706.688","0.719",,,,,,,,,,,,,,,
"1721516706.789","0.82",,,,,,,,,,,,,,,
"1721516706.89","0.921",,,,,,,,,,,,,,,
"1721516706.969",,"0",,,,,,,,,,,,,,
"1721516706.97",,,"1.6","1.27","-81",,,,,,,,,,,
"1721516706.971",,,,,,"0.51","-0.33","9.85","0",,,,,,,
"1721516706.972",,,,,,,,,,"0.01","0","1.51","-3.13",,,
"1721516706.973",,,,,,,,,,,,,,"2.04","1543091",
"1721516706.991","0.019",,,,,,,,,,,,,,,
"1721516707.092","0.12",,,,,,,,,,,,,,,
"1721516707.193","0.221",,,,,,,,,,,,,,,
"1721516707.294","0.322",,,,,,,,,,,,,,,
"1721516707.395","0.423",,,,,,,,,,,,,,,
"1721516707.496","0.524",,,,,,,,,,,,,,,
"1721516707.597","0.625",,,,,,,,,,,,,,,
"1721516707.698","0.726",,,,,,,,,,,,,,,
"1721516707.799","0.827",,,,,,,,,,,,,,,
"1721516707.9","0.928",,,,,,,,,,,,,,,
"1721516708.002","1.029",,,,,,,,,,,,,,,
"1721516708.102","1.13",,,,,,,,,,,,,,,
"1721516708.203","1.231",,,,,,,,,,,,,,,
"1721516708.304","1.332",,,,,,,,,,,,,,,
"1721516708.405","1.433",,,,,,,,,,,,,,,
"1721516708.507","1.534",,,,,,,,,,,,,,,
"1721516708.607","1.635",,,,,,,,,,,,,,,
"1721516708.708","1.736",,,,,,,,,,,,,,,
"1721516708.809","1.837",,,,,,,,,,,,,,,
"1721516708.901",,"0","1.8",,,,,,,,,,,,,
"1721516708.902",,,,"1.28","-80","0.51",,,,,,,,,,
"1721516708.903",,,,,,,"-0.18","9.88","0","0","0",,,,,
"1721516708.904",,,,,,,,,,,,"1.51","-3.12","2.04","1544065",
"1721516708.91","0.007",,,,,,,,,,,,,,,
"1721516709.012","0.108",,,,,,,,,,,,,,,
"1721516709.112","0.209",,,,,,,,,,,,,,,
"1721516709.213","0.31",,,,,,,,,,,,,,,
"1721516709.314","0.411",,,,,,,,,,,,,,,
"1721516709.415","0.512",,,,,,,,,,,,,,,
"1721516709.516","0.613",,,,,,,,,,,,,,,
"1721516709.617","0.714",,,,,,,,,,,,,,,
"1721516709.718","0.815",,,,,,,,,,,,,,,
"1721516709.819","0.916",,,,,,,,,,,,,,,
"1721516709.905",,"0",,,,,,,,,,,,,,
"1721516709.906",,,"1.6","1.27","-82",,,,,,,,,,,
"1721516709.907",,,,,,"0.46","-0.1","9.87","0","-0.01",,,,,,
"1721516709.913",,,,,,,,,,,"0.01","1.51","-3.13","2.04",,
"1721516709.914",,,,,,,,,,,,,,,"1546027",
"1721516709.92","0.013",,,,,,,,,,,,,,,
"1721516710.021","0.114",,,,,,,,,,,,,,,
"1721516710.122","0.215",,,,,,,,,,,,,,,
"1721516710.223","0.316",,,,,,,,,,,,,,,
"1721516710.324","0.417",,,,,,,,,,,,,,,
"1721516710.425","0.518",,,,,,,,,,,,,,,
"1721516710.526","0.619",,,,,,,,,,,,,,,
"1721516710.627","0.72",,,,,,,,,,,,,,,
"1721516710.728","0.821",,,,,,,,,,,,,,,
"1721516710.829","0.922",,,,,,,,,,,,,,,
"1721516710.912",,"0","1.7","1.28","-83","0.49","-0.27","9.88",,,,,,,,
"1721516710.913",,,,,,,,,"0","-0.03","0","1.51","-3.13","2.05","1547029",
"1721516710.93","0.021",,,,,,,,,,,,,,,
"1721516711.031","0.122",,,,,,,,,,,,,,,
"1721516711.132","0.223",,,,,,,,,,,,,,,
"1721516711.234","0.324",,,,,,,,,,,,,,,
"1721516711.334","0.425",,,,,,,,,,,,,,,
"1721516711.435","0.526",,,,,,,,,,,,,,,
"1721516711.536","0.627",,,,,,,,,,,,,,,
"1721516711.637","0.728",,,,,,,,,,,,,,,
"1721516711.738","0.829",,,,,,,,,,,,,,,
"1721516711.839","0.93",,,,,,,,,,,,,,,
"1721516711.907",,"0",,,,,,,,,,,,,,
"1721516711.908",,,"1.7","1.28","-81",,,,,,,,,,,
"1721516711.909",,,,,,"0.54","-0.19","9.89",,,,,,,,
"1721516711.91",,,,,,,,,"0.01","-0.02","0.02",,,,,
"1721516711.911",,,,,,,,,,,,"1.51","-3.13","2.06","1548031",
"1721516711.94","0.029",,,,,,,,,,,,,,,
"1721516712.041","0.13",,,,,,,,,,,,,,,
"1721516712.142","0.231",,,,,,,,,,,,,,,
"1721516712.244","0.332",,,,,,,,,,,,,,,
"1721516712.344","0.433",,,,,,,,,,,,,,,
"1721516712.445","0.534",,,,,,,,,,,,,,,
"1721516712.546","0.635",,,,,,,,,,,,,,,
"1721516712.647","0.736",,,,,,,,,,,,,,,
"1721516712.754","0.837",,,,,,,,,,,,,,,
"1721516712.849","0.938",,,,,,,,,,,,,,,
"1721516712.912",,"0","1.4","1.26",,,,,,,,,,,,
"1721516712.913",,,,,"-82","0.54","-0.24","9.86",,,,,,,,
"1721516712.914",,,,,,,,,"0","-0.06","0",,,,,
"1721516712.915",,,,,,,,,,,,"1.51","-3.13","2.06","1549033",
"1721516712.95","0.035",,,,,,,,,,,,,,,
"1721516713.052","0.136",,,,,,,,,,,,,,,
"1721516713.152","0.237",,,,,,,,,,,,,,,
"1721516713.254","0.338",,,,,,,,,,,,,,,
"1721516713.354","0.439",,,,,,,,,,,,,,,
"1721516713.456","0.54",,,,,,,,,,,,,,,
"1721516713.556","0.641",,,,,,,,,,,,,,,
"1721516713.657","0.742",,,,,,,,,,,,,,,
"1721516713.758","0.843",,,,,,,,,,,,,,,
"1721516713.859","0.944",,,,,,,,,,,,,,,
"1721516713.917",,"0","2.3","1.31",,,,,,,,,,,,
"1721516713.918",,,,,"-80","0.51","-0.19","9.87",,,,,,,,
"1721516713.919",,,,,,,,,"0.03","0","0.04","1.52",,,,
"1721516713.92",,,,,,,,,,,,,"-3.13","2.07",,
"1721516713.921",,,,,,,,,,,,,,,"1550038",
"1721516713.96","0.04",,,,,,,,,,,,,,,
"1721516714.061","0.141",,,,,,,,,,,,,,,
"1721516714.162","0.242",,,,,,,,,,,,,,,
"1721516714.263","0.343",,,,,,,,,,,,,,,
"1721516714.365","0.444",,,,,,,,,,,,,,,
"1721516714.465","0.545",,,,,,,,,,,,,,,
"1721516714.566","0.646",,,,,,,,,,,,,,,
"1721516714.667","0.747",,,,,,,,,,,,,,,
"1721516714.768","0.848",,,,,,,,,,,,,,,
"1721516714.869","0.949",,,,,,,,,,,,,,,
"1721516714.92",,"0",,,,,,,,,,,,,,
"1721516714.921",,,"1.6","1.25",,,,,,,,,,,,
"1721516714.922",,,,,"-82","0.46","-0.15",,,,,,,,,
"1721516714.923",,,,,,,,"9.87","0.02","-0.03",,,,,,
"1721516714.924",,,,,,,,,,,"0.01","1.52","-3.12","2.07",,
"1721516714.925",,,,,,,,,,,,,,,"1551042",
"1721516714.971","0.046",,,,,,,,,,,,,,,
"1721516715.071","0.147",,,,,,,,,,,,,,,
"1721516715.172","0.248",,,,,,,,,,,,,,,
"1721516715.273","0.349",,,,,,,,,,,,,,,
"1721516715.374","0.45",,,,,,,,,,,,,,,
"1721516715.475","0.551",,,,,,,,,,,,,,,
"1721516715.577","0.652",,,,,,,,,,,,,,,
"1721516715.677","0.753",,,,,,,,,,,,,,,
"1721516715.778","0.854",,,,,,,,,,,,,,,
"1721516715.88","0.955",,,,,,,,,,,,,,,
"1721516715.925",,"0",,,,,,,,,,,,,,
"1721516715.926",,,"2","1.27","-80","0.53",,,,,,,,,,
"1721516715.927",,,,,,,"-0.1","9.88","0.01","-0.03",,,,,,
"1721516715.928",,,,,,,,,,,"0","1.51","-3.13","2.07",,
"1721516715.929",,,,,,,,,,,,,,,"1552046",
"1721516715.98","0.052",,,,,,,,,,,,,,,
"1721516716.082","0.153",,,,,,,,,,,,,,,
"1721516716.182","0.254",,,,,,,,,,,,,,,
"1721516716.283","0.355",,,,,,,,,,,,,,,
"1721516716.384","0.456",,,,,,,,,,,,,,,
"1721516716.485","0.557",,,,,,,,,,,,,,,
"1721516716.586","0.658",,,,,,,,,,,,,,,
"1721516716.687","0.759",,,,,,,,,,,,,,,
"1721516716.788","0.86",,,,,,,,,,,,,,,
"1721516716.889","0.961",,,,,,,,,,,,,,,
"1721516716.928",,"0","1.6",,,,,,,,,,,,,
"1721516716.929",,,,"1.24","-81","0.5","-0.16",,,,,,,,,
"1721516716.93",,,,,,,,"9.85","0","0.02","0",,,,,
"1721516716.931",,,,,,,,,,,,"1.52","-3.13","2.08",,
"1721516716.932",,,,,,,,,,,,,,,"1553050",
"1721516716.99","0.059",,,,,,,,,,,,,,,
"1721516717.092","0.16",,,,,,,,,,,,,,,
"1721516717.192","0.261",,,,,,,,,,,,,,,
"1721516717.293","0.362",,,,,,,,,,,,,,,
"1721516717.395","0.463",,,,,,,,,,,,,,,
"1721516717.495","0.564",,,,,,,,,,,,,,,
"1721516717.596","0.665",,,,,,,,,,,,,,,
"1721516717.697","0.766",,,,,,,,,,,,,,,
"1721516717.798","0.867",,,,,,,,,,,,,,,
"1721516717.9","0.968",,,,,,,,,,,,,,,
"1721516717.93",,"0","1.6","1.24",,,,,,,,,,,,
"1721516717.931",,,,,"-81","0.49","-0.13","9.9",,,,,,,,
"1721516717.932",,,,,,,,,"0","-0.02","-0.01",,,,,
"1721516717.933",,,,,,,,,,,,"1.52","-3.12","2.07",,
"1721516717.934",,,,,,,,,,,,,,,"1554053",
"1721516718.001","0.067",,,,,,,,,,,,,,,
"1721516718.101","0.168",,,,,,,,,,,,,,,
"1721516718.203","0.269",,,,,,,,,,,,,,,
"1721516718.303","0.37",,,,,,,,,,,,,,,
"1721516718.404","0.471",,,,,,,,,,,,,,,
"1721516718.505","0.572",,,,,,,,,,,,,,,
"1721516718.606","0.673",,,,,,,,,,,,,,,
"1721516718.707","0.774",,,,,,,,,,,,,,,
"1721516718.809","0.875",,,,,,,,,,,,,,,
"1721516718.909","0.976",,,,,,,,,,,,,,,
"1721516719.01","1.077",,,,,,,,,,,,,,,
"1721516719.112","1.178",,,,,,,,,,,,,,,
"1721516719.212","1.279",,,,,,,,,,,,,,,
"1721516719.313","1.38",,,,,,,,,,,,,,,
"1721516719.414","1.481",,,,,,,,,,,,,,,
"1721516719.517","1.582",,,,,,,,,,,,,,,
"1721516719.616","1.683",,,,,,,,,,,,,,,
"1721516719.718","1.784",,,,,,,,,,,,,,,
"1721516719.818","1.885",,,,,,,,,,,,,,,
"1721516719.858",,"0","1.5","1.23","-80",,,,,,,,,,,
"1721516719.859",,,,,,"0.47","-0.11",,,,,,,,,
"1721516719.86",,,,,,,,"9.87","0.02","0.01","0","1.51",,,,
"1721516719.861",,,,,,,,,,,,,"-3.13","2.08","1555023",
"1721516719.919","0.058",,,,,,,,,,,,,,,
"1721516720.02","0.159",,,,,,,,,,,,,,,
"1721516720.125","0.26",,,,,,,,,,,,,,,
"1721516720.225","0.361",,,,,,,,,,,,,,,
"1721516720.326","0.462",,,,,,,,,,,,,,,
"1721516720.427","0.563",,,,,,,,,,,,,,,
"1721516720.529","0.664",,,,,,,,,,,,,,,
"1721516720.63","0.765",,,,,,,,,,,,,,,
"1721516720.73","0.866",,,,,,,,,,,,,,,
"1721516720.831","0.967",,,,,,,,,,,,,,,
"1721516720.863",,"0",,,,,,,,,,,,,,
"1721516720.864",,,"1.6","1.24","-80","0.47","-0.28",,,,,,,,,
"1721516720.865",,,,,,,,"9.87","-0.02",,,,,,,
"1721516720.866",,,,,,,,,,"-0.05","0.01","1.51","-3.13",,,
"1721516720.867",,,,,,,,,,,,,,"2.08","1556983",
"1721516720.932","0.066",,,,,,,,,,,,,,,
"1721516721.034","0.167",,,,,,,,,,,,,,,
"1721516721.134","0.268",,,,,,,,,,,,,,,
"1721516721.236","0.369",,,,,,,,,,,,,,,
"1721516721.336","0.47",,,,,,,,,,,,,,,
"1721516721.437","0.571",,,,,,,,,,,,,,,
"1721516721.538","0.672",,,,,,,,,,,,,,,
"1721516721.64","0.773",,,,,,,,,,,,,,,
"1721516721.74","0.874",,,,,,,,,,,,,,,
"1721516721.842","0.975",,,,,,,,,,,,,,,
"1721516721.866",,"0","1.3",,,,,,,,,,,,,
"1721516721.867",,,,"1.23","-81",,,,,,,,,,,
"1721516721.868",,,,,,"0.48","-0.19","9.89",,,,,,,,
"1721516721.869",,,,,,,,,"-0.01","-0.01","0.01","1.52",,,,
"1721516721.87",,,,,,,,,,,,,"-3.12","2.08","1557985",
"1721516721.942","0.072",,,,,,,,,,,,,,,
"1721516722.044","0.173",,,,,,,,,,,,,,,
"1721516722.144","0.274",,,,,,,,,,,,,,,
"1721516722.245","0.375",,,,,,,,,,,,,,,
"1721516722.346","0.476",,,,,,,,,,,,,,,
"1721516722.447","0.577",,,,,,,,,,,,,,,
"1721516722.548","0.678",,,,,,,,,,,,,,,
"1721516722.649","0.779",,,,,,,,,,,,,,,
"1721516722.751","0.88",,,,,,,,,,,,,,,
"1721516722.851","0.981",,,,,,,,,,,,,,,
"1721516722.87",,"0","1.1",,,,,,,,,,,,,
"1721516722.871",,,,"1.22","-81","0.51",,,,,,,,,,
"1721516722.872",,,,,,,"-0.25","9.87","-0.01",,,,,,,
"1721516722.873",,,,,,,,,,"-0.06","-0.01","1.51","-3.13",,,
"1721516722.874",,,,,,,,,,,,,,"2.09","1558988",
"1721516722.953","0.078",,,,,,,,,,,,,,,
"1721516723.053","0.179",,,,,,,,,,,,,,,
"1721516723.154","0.28",,,,,,,,,,,,,,,
"1721516723.255","0.381",,,,,,,,,,,,,,,
"1721516723.357","0.482",,,,,,,,,,,,,,,
"1721516723.457","0.583",,,,,,,,,,,,,,,
"1721516723.558","0.684",,,,,,,,,,,,,,,
"1721516723.659","0.785",,,,,,,,,,,,,,,
"1721516723.761","0.886",,,,,,,,,,,,,,,
"1721516723.861","0.987",,,,,,,,,,,,,,,
"1721516723.874",,"0","1.1",,,,,,,,,,,,,
"1721516723.875",,,,"1.23","-81","0.51",,,,,,,,,,
"1721516723.876",,,,,,,"-0.19","9.87","0",,,,,,,
"1721516723.877",,,,,,,,,,"-0.01","0.02","1.51","-3.13",,,
"1721516723.878",,,,,,,,,,,,,,"2.09","1559993",
"1721516723.962","0.085",,,,,,,,,,,,,,,
"1721516724.063","0.186",,,,,,,,,,,,,,,
"1721516724.164","0.287",,,,,,,,,,,,,,,
"1721516724.266","0.388",,,,,,,,,,,,,,,
"1721516724.366","0.489",,,,,,,,,,,,,,,
"1721516724.468","0.59",,,,,,,,,,,,,,,
"1721516724.568","0.691",,,,,,,,,,,,,,,
"1721516724.67","0.792",,,,,,,,,,,,,,,
"1721516724.77","0.893",,,,,,,,,,,,,,,
"1721516724.871","0.994",,,,,,,,,,,,,,,
"1721516724.876",,"0","1.3","1.24",,,,,,,,,,,,
"1721516724.877",,,,,"-80","0.52","-0.22",,,,,,,,,
"1721516724.878",,,,,,,,"9.91","-0.02",,,,,,,
"1721516724.879",,,,,,,,,,"0.03","-0.01","1.51","-3.13",,,
"1721516724.88",,,,,,,,,,,,,,"2.09","1560996",
"1721516724.972","0.093",,,,,,,,,,,,,,,
"1721516725.074","0.194",,,,,,,,,,,,,,,
"1721516725.174","0.295",,,,,,,,,,,,,,,
"1721516725.276","0.396",,,,,,,,,,,,,,,
"1721516725.376","0.497",,,,,,,,,,,,,,,
"1721516725.477","0.598",,,,,,,,,,,,,,,
"1721516725.578","0.699",,,,,,,,,,,,,,,
"1721516725.679","0.8",,,,,,,,,,,,,,,
"1721516725.78","0.901",,,,,,,,,,,,,,,
"1721516725.879",,"0",,,,,,,,,,,,,,
"1721516725.88",,,"1.5","1.27","-81","0.51",,,,,,,,,,
"1721516725.881","1.002",,,,,,"-0.05","9.86",,,,,,,,
"1721516725.882",,,,,,,,,"0.01","0","0","1.52","-3.12",,,
"1721516725.883",,,,,,,,,,,,,,"2.09","1561998",
"1721516725.982","0.099",,,,,,,,,,,,,,,
"1721516726.083","0.2",,,,,,,,,,,,,,,
"1721516726.185","0.301",,,,,,,,,,,,,,,
"1721516726.285","0.402",,,,,,,,,,,,,,,
"1721516726.386","0.503",,,,,,,,,,,,,,,
"1721516726.487","0.604",,,,,,,,,,,,,,,
"1721516726.588","0.705",,,,,,,,,,,,,,,
"1721516726.689","0.806",,,,,,,,,,,,,,,
"1721516726.791","0.907",,,,,,,,,,,,,,,
"1721516726.882",,"0","1.7",,,,,,,,,,,,,
"1721516726.883",,,,"1.27","-81","0.56","-0.13",,,,,,,,,
"1721516726.884",,,,,,,,"9.87","0","0","0",,,,,
"1721516726.885",,,,,,,,,,,,"1.52","-3.12","2.1","1563001",
"1721516726.891","0.006",,,,,,,,,,,,,,,
"1721516726.993","0.107",,,,,,,,,,,,,,,
"1721516727.093","0.208",,,,,,,,,,,,,,,
"1721516727.194","0.309",,,,,,,,,,,,,,,
"1721516727.295","0.41",,,,,,,,,,,,,,,
"1721516727.396","0.511",,,,,,,,,,,,,,,
"1721516727.497","0.612",,,,,,,,,,,,,,,
"1721516727.598","0.713",,,,,,,,,,,,,,,
"1721516727.699","0.814",,,,,,,,,,,,,,,
"1721516727.8","0.915",,,,,,,,,,,,,,,
"1721516727.884",,"0","1.7","1.27",,,,,,,,,,,,
"1721516727.885",,,,,"-81","0.46","-0.09",,,,,,,,,
"1721516727.886",,,,,,,,"9.88","0.01","0","0.03",,,,,
"1721516727.887",,,,,,,,,,,,"1.52","-3.11","2.1","1564004",
"1721516727.902","0.014",,,,,,,,,,,,,,,
"1721516728.002","0.115",,,,,,,,,,,,,,,
"1721516728.103","0.216",,,,,,,,,,,,,,,
"1721516728.204","0.317",,,,,,,,,,,,,,,
"1721516728.306","0.418",,,,,,,,,,,,,,,
"1721516728.406","0.519",,,,,,,,,,,,,,,
"1721516728.507","0.62",,,,,,,,,,,,,,,
